{
  "type": "FeatureCollection", 
  "features": [
    {
      "geometry": {
        "type": "Point", 
        "coordinates": [
          19.431, 
          40.604
        ]
      }, 
      "id": 12510415, 
      "properties": {
        "woe:id": 12510415, 
        "href": "/125/104/15/12510415.json", 
        "name": "Mifol Airport"
      }
    }, 
    {
      "geometry": {
        "type": "Point", 
        "coordinates": [
          19.601, 
          41.901
        ]
      }, 
      "id": 12510412, 
      "properties": {
        "woe:id": 12510412, 
        "href": "/125/104/12/12510412.json", 
        "name": "Gramsh Airport"
      }
    }, 
    {
      "geometry": {
        "type": "Point", 
        "coordinates": [
          19.538, 
          42.085
        ]
      }, 
      "id": 12510416, 
      "properties": {
        "woe:id": 12510416, 
        "href": "/125/104/16/12510416.json", 
        "name": "Shtojiri Airport"
      }
    }, 
    {
      "geometry": {
        "type": "Point", 
        "coordinates": [
          20.160, 
          40.098
        ]
      }, 
      "id": 12510411, 
      "properties": {
        "woe:id": 12510411, 
        "href": "/125/104/11/12510411.json", 
        "name": "Gjirokaster Airport"
      }
    }, 
    {
      "geometry": {
        "type": "Point", 
        "coordinates": [
          19.896, 
          40.783
        ]
      }, 
      "id": 12510417, 
      "properties": {
        "woe:id": 12510417, 
        "href": "/125/104/17/12510417.json", 
        "name": "Stalin Airport"
      }
    }, 
    {
      "geometry": {
        "type": "Point", 
        "coordinates": [
          20.420, 
          42.035
        ]
      }, 
      "id": 12510414, 
      "properties": {
        "woe:id": 12510414, 
        "href": "/125/104/14/12510414.json", 
        "name": "Kukes Airport"
      }
    }, 
    {
      "geometry": {
        "type": "Point", 
        "coordinates": [
          19.712, 
          41.420
        ]
      }, 
      "id": 12510418, 
      "properties": {
        "woe:id": 12510418, 
        "href": "/125/104/18/12510418.json", 
        "name": "Tirane Rinas Airport", 
        "iata:code": "TIA"
      }
    }, 
    {
      "geometry": {
        "type": "Point", 
        "coordinates": [
          20.738, 
          40.643
        ]
      }, 
      "id": 12510413, 
      "properties": {
        "woe:id": 12510413, 
        "href": "/125/104/13/12510413.json", 
        "name": "Korce Northwest Airport"
      }
    }, 
    {
      "geometry": {
        "type": "Point", 
        "coordinates": [
          20.025, 
          41.064
        ]
      }, 
      "id": 12510410, 
      "properties": {
        "woe:id": 12510410, 
        "href": "/125/104/10/12510410.json", 
        "name": "Cerrik Airport"
      }
    }
  ], 
  "properties": {
    "iso": "AL", 
    "woe:country": 23424742
  }
}