{
  "type": "FeatureCollection", 
  "features": [
    {
      "geometry": {
        "type": "Point", 
        "coordinates": [
          -62.974, 
          17.503
        ]
      }, 
      "id": 12515141, 
      "properties": {
        "woe:id": 12515141, 
        "href": "/125/151/41/12515141.json", 
        "name": "St. Eustatius Airport", 
        "iata:code": "EUX"
      }
    }, 
    {
      "geometry": {
        "type": "Point", 
        "coordinates": [
          -68.957, 
          12.184
        ]
      }, 
      "id": 12515138, 
      "properties": {
        "woe:id": 12515138, 
        "href": "/125/151/38/12515138.json", 
        "name": "Hato Airport", 
        "iata:code": "CUR"
      }
    }, 
    {
      "geometry": {
        "type": "Point", 
        "coordinates": [
          -63.232, 
          17.639
        ]
      }, 
      "id": 12515142, 
      "properties": {
        "woe:id": 12515142, 
        "href": "/125/151/42/12515142.json", 
        "name": "Yrausquin Airport", 
        "iata:code": "SAB"
      }
    }, 
    {
      "geometry": {
        "type": "Point", 
        "coordinates": [
          -68.279, 
          12.144
        ]
      }, 
      "id": 12515137, 
      "properties": {
        "woe:id": 12515137, 
        "href": "/125/151/37/12515137.json", 
        "name": "Flamingo Airport", 
        "iata:code": "BON"
      }
    }, 
    {
      "geometry": {
        "type": "Point", 
        "coordinates": [
          -63.112, 
          18.034
        ]
      }, 
      "id": 12515140, 
      "properties": {
        "woe:id": 12515140, 
        "href": "/125/151/40/12515140.json", 
        "name": "Prinses Juliana International Airport"
      }
    }
  ], 
  "properties": {
    "iso": "AN", 
    "woe:country": 23424914
  }
}