{
  "type": "FeatureCollection", 
  "features": [
    {
      "geometry": {
        "type": "Point", 
        "coordinates": [
          -58.417047, 
          -34.578145
        ]
      }, 
      "id": 23388199, 
      "properties": {
        "woe:id": 23388199, 
        "href": "/233/881/99/23388199.json", 
        "name": "Aeroparque Jorge Newbery", 
        "iata:code": "AEP"
      }
    }, 
    {
      "geometry": {
        "type": "Point", 
        "coordinates": [
          -72.264713, 
          -50.330463
        ]
      }, 
      "id": 24554862, 
      "properties": {
        "woe:id": 24554862, 
        "href": "/245/548/62/24554862.json", 
        "name": "Aeropuerto Internacional El Calafate"
      }
    }, 
    {
      "geometry": {
        "type": "Point", 
        "coordinates": [
          -58.717433, 
          -34.664675
        ]
      }, 
      "id": 24554863, 
      "properties": {
        "woe:id": 24554863, 
        "href": "/245/548/63/24554863.json", 
        "name": "Merlo International", 
        "iata:code": "RLO"
      }
    }, 
    {
      "geometry": {
        "type": "Point", 
        "coordinates": [
          -70.833870, 
          -45.040951
        ]
      }, 
      "id": 12523468, 
      "properties": {
        "woe:id": 12523468, 
        "href": "/125/234/68/12523468.json", 
        "name": "Alto Rio Senguerr Airport", 
        "iata:code": "ARR"
      }
    }, 
    {
      "geometry": {
        "type": "Point", 
        "coordinates": [
          -64.533302, 
          -31.000000
        ]
      }, 
      "id": 12523608, 
      "properties": {
        "woe:id": 12523608, 
        "href": "/125/236/08/12523608.json", 
        "name": "La Cumbre Airport"
      }
    }, 
    {
      "geometry": {
        "type": "Point", 
        "coordinates": [
          -70.251404, 
          -45.719398
        ]
      }, 
      "id": 12523696, 
      "properties": {
        "woe:id": 12523696, 
        "href": "/125/236/96/12523696.json", 
        "name": "Rio Mayo Airport", 
        "iata:code": "ROY"
      }
    }, 
    {
      "geometry": {
        "type": "Point", 
        "coordinates": [
          -70.983299, 
          -46.535000
        ]
      }, 
      "id": 12523660, 
      "properties": {
        "woe:id": 12523660, 
        "href": "/125/236/60/12523660.json", 
        "name": "Perito Moreno Airport", 
        "iata:code": "PMQ"
      }
    }, 
    {
      "geometry": {
        "type": "Point", 
        "coordinates": [
          -72.216698, 
          -51.599998
        ]
      }, 
      "id": 12523698, 
      "properties": {
        "woe:id": 12523698, 
        "href": "/125/236/98/12523698.json", 
        "name": "Rio Turbio Airport", 
        "iata:code": "RYO"
      }
    }, 
    {
      "geometry": {
        "type": "Point", 
        "coordinates": [
          -68.733299, 
          -41.250000
        ]
      }, 
      "id": 12523629, 
      "properties": {
        "woe:id": 12523629, 
        "href": "/125/236/29/12523629.json", 
        "name": "Maquinchao Airport"
      }
    }, 
    {
      "geometry": {
        "type": "Point", 
        "coordinates": [
          -64.916702, 
          -27.466700
        ]
      }, 
      "id": 12523695, 
      "properties": {
        "woe:id": 12523695, 
        "href": "/125/236/95/12523695.json", 
        "name": "Rio Hondo Airport", 
        "iata:code": "RHD"
      }
    }, 
    {
      "geometry": {
        "type": "Point", 
        "coordinates": [
          -60.599998, 
          -24.700001
        ]
      }, 
      "id": 12523613, 
      "properties": {
        "woe:id": 12523613, 
        "href": "/125/236/13/12523613.json", 
        "name": "Las Lomitas Airport"
      }
    }, 
    {
      "geometry": {
        "type": "Point", 
        "coordinates": [
          -57.864319, 
          -38.267288
        ]
      }, 
      "id": 12523634, 
      "properties": {
        "woe:id": 12523634, 
        "href": "/125/236/34/12523634.json", 
        "name": "Miramar Airport", 
        "iata:code": "MJR"
      }
    }, 
    {
      "geometry": {
        "type": "Point", 
        "coordinates": [
          -68.133301, 
          -40.833302
        ]
      }, 
      "id": 12523621, 
      "properties": {
        "woe:id": 12523621, 
        "href": "/125/236/21/12523621.json", 
        "name": "Los Menucos Airport"
      }
    }, 
    {
      "geometry": {
        "type": "Point", 
        "coordinates": [
          -58.533298, 
          -34.616699
        ]
      }, 
      "id": 12523703, 
      "properties": {
        "woe:id": 12523703, 
        "href": "/125/237/03/12523703.json", 
        "name": "Saenz Pena Airport"
      }
    }, 
    {
      "geometry": {
        "type": "Point", 
        "coordinates": [
          -65.150002, 
          -31.950001
        ]
      }, 
      "id": 12523759, 
      "properties": {
        "woe:id": 12523759, 
        "href": "/125/237/59/12523759.json", 
        "name": "Villa Dolores Airport"
      }
    }, 
    {
      "geometry": {
        "type": "Point", 
        "coordinates": [
          -65.349998, 
          -41.500000
        ]
      }, 
      "id": 12523724, 
      "properties": {
        "woe:id": 12523724, 
        "href": "/125/237/24/12523724.json", 
        "name": "Sierra Grande Airport", 
        "iata:code": "SGV"
      }
    }, 
    {
      "geometry": {
        "type": "Point", 
        "coordinates": [
          -66.150002, 
          -40.700001
        ]
      }, 
      "id": 12523752, 
      "properties": {
        "woe:id": 12523752, 
        "href": "/125/237/52/12523752.json", 
        "name": "Valcheta Airport"
      }
    }, 
    {
      "geometry": {
        "type": "Point", 
        "coordinates": [
          -60.266701, 
          -26.766701
        ]
      }, 
      "id": 12524431, 
      "properties": {
        "woe:id": 12524431, 
        "href": "/125/244/31/12524431.json", 
        "name": "Pres. Roque Saenz Pena Airport", 
        "iata:code": "PRQ"
      }
    }, 
    {
      "geometry": {
        "type": "Point", 
        "coordinates": [
          -58.244999, 
          -34.185001
        ]
      }, 
      "id": 12522564, 
      "properties": {
        "woe:id": 12522564, 
        "href": "/125/225/64/12522564.json", 
        "name": "Martin Garcia Airport"
      }
    }, 
    {
      "geometry": {
        "type": "Point", 
        "coordinates": [
          -71.516701, 
          -41.966702
        ]
      }, 
      "id": 12523564, 
      "properties": {
        "woe:id": 12523564, 
        "href": "/125/235/64/12523564.json", 
        "name": "El Bolson Airport", 
        "iata:code": "EHL"
      }
    }, 
    {
      "geometry": {
        "type": "Point", 
        "coordinates": [
          -61.216702, 
          -27.216700
        ]
      }, 
      "id": 12523535, 
      "properties": {
        "woe:id": 12523535, 
        "href": "/125/235/35/12523535.json", 
        "name": "Charata Airport", 
        "iata:code": "CNT"
      }
    }, 
    {
      "geometry": {
        "type": "Point", 
        "coordinates": [
          -67.522011, 
          -46.437538
        ]
      }, 
      "id": 12523511, 
      "properties": {
        "woe:id": 12523511, 
        "href": "/125/235/11/12523511.json", 
        "name": "Caleta Olivia Airport", 
        "iata:code": "CVI"
      }
    }, 
    {
      "geometry": {
        "type": "Point", 
        "coordinates": [
          -71.155602, 
          -42.068100
        ]
      }, 
      "id": 12523565, 
      "properties": {
        "woe:id": 12523565, 
        "href": "/125/235/65/12523565.json", 
        "name": "El Maiten Airport"
      }
    }, 
    {
      "geometry": {
        "type": "Point", 
        "coordinates": [
          -63.016701, 
          -35.033298
        ]
      }, 
      "id": 12523570, 
      "properties": {
        "woe:id": 12523570, 
        "href": "/125/235/70/12523570.json", 
        "name": "General Villegas Airport", 
        "iata:code": "VGS"
      }
    }, 
    {
      "geometry": {
        "type": "Point", 
        "coordinates": [
          -70.466698, 
          -44.033298
        ]
      }, 
      "id": 12523598, 
      "properties": {
        "woe:id": 12523598, 
        "href": "/125/235/98/12523598.json", 
        "name": "Jose de San Martin Airport"
      }
    }, 
    {
      "geometry": {
        "type": "Point", 
        "coordinates": [
          -69.583298, 
          -41.299999
        ]
      }, 
      "id": 12523584, 
      "properties": {
        "woe:id": 12523584, 
        "href": "/125/235/84/12523584.json", 
        "name": "Ingeniero Jacobacci Airport", 
        "iata:code": "IGB"
      }
    }, 
    {
      "geometry": {
        "type": "Point", 
        "coordinates": [
          -61.833302, 
          -29.866699
        ]
      }, 
      "id": 12523532, 
      "properties": {
        "woe:id": 12523532, 
        "href": "/125/235/32/12523532.json", 
        "name": "Ceres Airport", 
        "iata:code": "CRR"
      }
    }, 
    {
      "geometry": {
        "type": "Point", 
        "coordinates": [
          -69.000000, 
          -45.583302
        ]
      }, 
      "id": 12523544, 
      "properties": {
        "woe:id": 12523544, 
        "href": "/125/235/44/12523544.json", 
        "name": "Colonia Sarmiento Airport", 
        "iata:code": "OLN"
      }
    }, 
    {
      "geometry": {
        "type": "Point", 
        "coordinates": [
          -62.983299, 
          -40.799999
        ]
      }, 
      "id": 12523522, 
      "properties": {
        "woe:id": 12523522, 
        "href": "/125/235/22/12523522.json", 
        "name": "Carmen de Patagones Airport", 
        "iata:code": "CPG"
      }
    }, 
    {
      "geometry": {
        "type": "Point", 
        "coordinates": [
          -65.088898, 
          -24.393299
        ]
      }, 
      "id": 12510508, 
      "properties": {
        "woe:id": 12510508, 
        "href": "/125/105/08/12510508.json", 
        "name": "Jujuy Airport"
      }
    }, 
    {
      "geometry": {
        "type": "Point", 
        "coordinates": [
          -62.999401, 
          -40.869701
        ]
      }, 
      "id": 12510503, 
      "properties": {
        "woe:id": 12510503, 
        "href": "/125/105/03/12510503.json", 
        "name": "Gobernador Castello Airport", 
        "iata:code": "VDM"
      }
    }, 
    {
      "geometry": {
        "type": "Point", 
        "coordinates": [
          -68.541702, 
          -31.604200
        ]
      }, 
      "id": 12510553, 
      "properties": {
        "woe:id": 12510553, 
        "href": "/125/105/53/12510553.json", 
        "name": "San Juan Aeroclub Airport"
      }
    }, 
    {
      "geometry": {
        "type": "Point", 
        "coordinates": [
          -65.367500, 
          -33.710800
        ]
      }, 
      "id": 12510578, 
      "properties": {
        "woe:id": 12510578, 
        "href": "/125/105/78/12510578.json", 
        "name": "Villa Reynolds N Highway Strip Airport"
      }
    }, 
    {
      "geometry": {
        "type": "Point", 
        "coordinates": [
          -68.909698, 
          -37.380600
        ]
      }, 
      "id": 12510541, 
      "properties": {
        "woe:id": 12510541, 
        "href": "/125/105/41/12510541.json", 
        "name": "Rincon de Los Sauces Airport", 
        "iata:code": "RDS"
      }
    }, 
    {
      "geometry": {
        "type": "Point", 
        "coordinates": [
          -59.816399, 
          -35.601898
        ]
      }, 
      "id": 12510548, 
      "properties": {
        "woe:id": 12510548, 
        "href": "/125/105/48/12510548.json", 
        "name": "Saladillo Airport"
      }
    }, 
    {
      "geometry": {
        "type": "Point", 
        "coordinates": [
          -67.502800, 
          -53.953300
        ]
      }, 
      "id": 12510538, 
      "properties": {
        "woe:id": 12510538, 
        "href": "/125/105/38/12510538.json", 
        "name": "Punta Maria Highway Strip Airport"
      }
    }, 
    {
      "geometry": {
        "type": "Point", 
        "coordinates": [
          -58.612202, 
          -33.004200
        ]
      }, 
      "id": 12510507, 
      "properties": {
        "woe:id": 12510507, 
        "href": "/125/105/07/12510507.json", 
        "name": "Gualeguaychu Airport"
      }
    }, 
    {
      "geometry": {
        "type": "Point", 
        "coordinates": [
          -64.275597, 
          -36.588100
        ]
      }, 
      "id": 12510559, 
      "properties": {
        "woe:id": 12510559, 
        "href": "/125/105/59/12510559.json", 
        "name": "Santa Rosa Airport", 
        "iata:code": "RSA"
      }
    }, 
    {
      "geometry": {
        "type": "Point", 
        "coordinates": [
          -67.946404, 
          -53.642502
        ]
      }, 
      "id": 12510542, 
      "properties": {
        "woe:id": 12510542, 
        "href": "/125/105/42/12510542.json", 
        "name": "Rio Chico Highway Strip Airport"
      }
    }, 
    {
      "geometry": {
        "type": "Point", 
        "coordinates": [
          -58.815601, 
          -38.490002
        ]
      }, 
      "id": 12510525, 
      "properties": {
        "woe:id": 12510525, 
        "href": "/125/105/25/12510525.json", 
        "name": "Necochea Airport", 
        "iata:code": "NEC"
      }
    }, 
    {
      "geometry": {
        "type": "Point", 
        "coordinates": [
          -68.735603, 
          -38.430599
        ]
      }, 
      "id": 12510515, 
      "properties": {
        "woe:id": 12510515, 
        "href": "/125/105/15/12510515.json", 
        "name": "Loma de la Lata Airport"
      }
    }, 
    {
      "geometry": {
        "type": "Point", 
        "coordinates": [
          -65.385597, 
          -33.730000
        ]
      }, 
      "id": 12510576, 
      "properties": {
        "woe:id": 12510576, 
        "href": "/125/105/76/12510576.json", 
        "name": "Villa Reynolds Airport"
      }
    }, 
    {
      "geometry": {
        "type": "Point", 
        "coordinates": [
          -65.255798, 
          -24.236900
        ]
      }, 
      "id": 12510509, 
      "properties": {
        "woe:id": 12510509, 
        "href": "/125/105/09/12510509.json", 
        "name": "Jujuy Aeroclub Airport"
      }
    }, 
    {
      "geometry": {
        "type": "Point", 
        "coordinates": [
          -62.154999, 
          -32.684399
        ]
      }, 
      "id": 12510519, 
      "properties": {
        "woe:id": 12510519, 
        "href": "/125/105/19/12510519.json", 
        "name": "Marcos Juarez Airport"
      }
    }, 
    {
      "geometry": {
        "type": "Point", 
        "coordinates": [
          -68.865601, 
          -32.961700
        ]
      }, 
      "id": 12510512, 
      "properties": {
        "woe:id": 12510512, 
        "href": "/125/105/12/12510512.json", 
        "name": "La Puntilla Airport"
      }
    }, 
    {
      "geometry": {
        "type": "Point", 
        "coordinates": [
          -59.228901, 
          -37.235600
        ]
      }, 
      "id": 12510564, 
      "properties": {
        "woe:id": 12510564, 
        "href": "/125/105/64/12510564.json", 
        "name": "Tandil Airport"
      }
    }, 
    {
      "geometry": {
        "type": "Point", 
        "coordinates": [
          -61.857800, 
          -35.844200
        ]
      }, 
      "id": 12510531, 
      "properties": {
        "woe:id": 12510531, 
        "href": "/125/105/31/12510531.json", 
        "name": "Comodoro P Zanni Airport", 
        "iata:code": "PEH"
      }
    }, 
    {
      "geometry": {
        "type": "Point", 
        "coordinates": [
          -70.611099, 
          -38.059700
        ]
      }, 
      "id": 12510516, 
      "properties": {
        "woe:id": 12510516, 
        "href": "/125/105/16/12510516.json", 
        "name": "Loncopue Airport"
      }
    }, 
    {
      "geometry": {
        "type": "Point", 
        "coordinates": [
          -64.324997, 
          -23.153900
        ]
      }, 
      "id": 12510528, 
      "properties": {
        "woe:id": 12510528, 
        "href": "/125/105/28/12510528.json", 
        "name": "Oran Airport", 
        "iata:code": "ORA"
      }
    }, 
    {
      "geometry": {
        "type": "Point", 
        "coordinates": [
          -65.268097, 
          -43.211102
        ]
      }, 
      "id": 12510569, 
      "properties": {
        "woe:id": 12510569, 
        "href": "/125/105/69/12510569.json", 
        "name": "Trelew Almirante Zar Airport", 
        "iata:code": "REL"
      }
    }, 
    {
      "geometry": {
        "type": "Point", 
        "coordinates": [
          -59.216702, 
          -29.103300
        ]
      }, 
      "id": 12510506, 
      "properties": {
        "woe:id": 12510506, 
        "href": "/125/105/06/12510506.json", 
        "name": "Goya Airport", 
        "iata:code": "OYA"
      }
    }, 
    {
      "geometry": {
        "type": "Point", 
        "coordinates": [
          -58.643299, 
          -34.676899
        ]
      }, 
      "id": 12510523, 
      "properties": {
        "woe:id": 12510523, 
        "href": "/125/105/23/12510523.json", 
        "name": "Moron Airport"
      }
    }, 
    {
      "geometry": {
        "type": "Point", 
        "coordinates": [
          -62.771400, 
          -35.973301
        ]
      }, 
      "id": 12510524, 
      "properties": {
        "woe:id": 12510524, 
        "href": "/125/105/24/12510524.json", 
        "name": "Nanco Lauquen Airport"
      }
    }, 
    {
      "geometry": {
        "type": "Point", 
        "coordinates": [
          -56.720299, 
          -36.542500
        ]
      }, 
      "id": 12510560, 
      "properties": {
        "woe:id": 12510560, 
        "href": "/125/105/60/12510560.json", 
        "name": "Santa Teresita Airport", 
        "iata:code": "SST"
      }
    }, 
    {
      "geometry": {
        "type": "Point", 
        "coordinates": [
          -68.156898, 
          -38.948898
        ]
      }, 
      "id": 12510526, 
      "properties": {
        "woe:id": 12510526, 
        "href": "/125/105/26/12510526.json", 
        "name": "Neuquen Airport"
      }
    }, 
    {
      "geometry": {
        "type": "Point", 
        "coordinates": [
          -57.897400, 
          -34.963291
        ]
      }, 
      "id": 12510511, 
      "properties": {
        "woe:id": 12510511, 
        "href": "/125/105/11/12510511.json", 
        "name": "La Plata Airport"
      }
    }, 
    {
      "geometry": {
        "type": "Point", 
        "coordinates": [
          -69.574997, 
          -35.483299
        ]
      }, 
      "id": 12510517, 
      "properties": {
        "woe:id": 12510517, 
        "href": "/125/105/17/12510517.json", 
        "name": "Malargue Airport"
      }
    }, 
    {
      "geometry": {
        "type": "Point", 
        "coordinates": [
          -59.691101, 
          -29.210300
        ]
      }, 
      "id": 12510539, 
      "properties": {
        "woe:id": 12510539, 
        "href": "/125/105/39/12510539.json", 
        "name": "Reconquista Airport", 
        "iata:code": "RCQ"
      }
    }, 
    {
      "geometry": {
        "type": "Point", 
        "coordinates": [
          -61.599998, 
          -28.600000
        ]
      }, 
      "id": 12510575, 
      "properties": {
        "woe:id": 12510575, 
        "href": "/125/105/75/12510575.json", 
        "name": "Villa Minetti Airport"
      }
    }, 
    {
      "geometry": {
        "type": "Point", 
        "coordinates": [
          -57.288601, 
          -35.353100
        ]
      }, 
      "id": 12510537, 
      "properties": {
        "woe:id": 12510537, 
        "href": "/125/105/37/12510537.json", 
        "name": "Punta Indio Naval Station"
      }
    }, 
    {
      "geometry": {
        "type": "Point", 
        "coordinates": [
          -59.050800, 
          -27.451401
        ]
      }, 
      "id": 12510540, 
      "properties": {
        "woe:id": 12510540, 
        "href": "/125/105/40/12510540.json", 
        "name": "Resistencia Airport", 
        "iata:code": "RES"
      }
    }, 
    {
      "geometry": {
        "type": "Point", 
        "coordinates": [
          -60.216099, 
          -36.890598
        ]
      }, 
      "id": 12510527, 
      "properties": {
        "woe:id": 12510527, 
        "href": "/125/105/27/12510527.json", 
        "name": "Olavarria Airport"
      }
    }, 
    {
      "geometry": {
        "type": "Point", 
        "coordinates": [
          -62.704201, 
          -22.272200
        ]
      }, 
      "id": 12510561, 
      "properties": {
        "woe:id": 12510561, 
        "href": "/125/105/61/12510561.json", 
        "name": "Santa Victoria Airport"
      }
    }, 
    {
      "geometry": {
        "type": "Point", 
        "coordinates": [
          -63.787640, 
          -22.522770
        ]
      }, 
      "id": 12510565, 
      "properties": {
        "woe:id": 12510565, 
        "href": "/125/105/65/12510565.json", 
        "name": "General Enrique Mosconi Airport"
      }
    }, 
    {
      "geometry": {
        "type": "Point", 
        "coordinates": [
          -60.195000, 
          -33.392200
        ]
      }, 
      "id": 12510555, 
      "properties": {
        "woe:id": 12510555, 
        "href": "/125/105/55/12510555.json", 
        "name": "San Nicolas de Los Arroyos Airport"
      }
    }, 
    {
      "geometry": {
        "type": "Point", 
        "coordinates": [
          -57.029701, 
          -37.234699
        ]
      }, 
      "id": 12510574, 
      "properties": {
        "woe:id": 12510574, 
        "href": "/125/105/74/12510574.json", 
        "name": "Villa Gesell Airport", 
        "iata:code": "VLG"
      }
    }, 
    {
      "geometry": {
        "type": "Point", 
        "coordinates": [
          -67.577202, 
          -28.046400
        ]
      }, 
      "id": 12510567, 
      "properties": {
        "woe:id": 12510567, 
        "href": "/125/105/67/12510567.json", 
        "name": "Tinogasta Airport"
      }
    }, 
    {
      "geometry": {
        "type": "Point", 
        "coordinates": [
          -64.310600, 
          -27.767500
        ]
      }, 
      "id": 12510562, 
      "properties": {
        "woe:id": 12510562, 
        "href": "/125/105/62/12510562.json", 
        "name": "Santiago del Estero Airport"
      }
    }, 
    {
      "geometry": {
        "type": "Point", 
        "coordinates": [
          -63.758301, 
          -35.695801
        ]
      }, 
      "id": 12510500, 
      "properties": {
        "woe:id": 12510500, 
        "href": "/125/105/00/12510500.json", 
        "name": "General Pico Airport"
      }
    }, 
    {
      "geometry": {
        "type": "Point", 
        "coordinates": [
          -70.333298, 
          -38.535000
        ]
      }, 
      "id": 12510514, 
      "properties": {
        "woe:id": 12510514, 
        "href": "/125/105/14/12510514.json", 
        "name": "Las Lajas Airport"
      }
    }, 
    {
      "geometry": {
        "type": "Point", 
        "coordinates": [
          -57.582081, 
          -37.933220
        ]
      }, 
      "id": 12510518, 
      "properties": {
        "woe:id": 12510518, 
        "href": "/125/105/18/12510518.json", 
        "icao:code": "KMDQ", 
        "name": "Mar del Plata Airport", 
        "iata:code": "MDQ"
      }
    }, 
    {
      "geometry": {
        "type": "Point", 
        "coordinates": [
          -67.610001, 
          -38.997200
        ]
      }, 
      "id": 12510501, 
      "properties": {
        "woe:id": 12510501, 
        "href": "/125/105/01/12510501.json", 
        "name": "General Roca Airport", 
        "iata:code": "GNR"
      }
    }, 
    {
      "geometry": {
        "type": "Point", 
        "coordinates": [
          -61.957500, 
          -33.680599
        ]
      }, 
      "id": 12510573, 
      "properties": {
        "woe:id": 12510573, 
        "href": "/125/105/73/12510573.json", 
        "name": "Venado Tuerto Airport"
      }
    }, 
    {
      "geometry": {
        "type": "Point", 
        "coordinates": [
          -71.161521, 
          -41.146725
        ]
      }, 
      "id": 12510550, 
      "properties": {
        "woe:id": 12510550, 
        "href": "/125/105/50/12510550.json", 
        "name": "San Carlos de Bariloche Airport", 
        "iata:code": "BRC"
      }
    }, 
    {
      "geometry": {
        "type": "Point", 
        "coordinates": [
          -57.148602, 
          -29.690001
        ]
      }, 
      "id": 12510530, 
      "properties": {
        "woe:id": 12510530, 
        "href": "/125/105/30/12510530.json", 
        "name": "Paso de Los Libres Airport", 
        "iata:code": "AOL"
      }
    }, 
    {
      "geometry": {
        "type": "Point", 
        "coordinates": [
          -60.327202, 
          -38.388901
        ]
      }, 
      "id": 12510570, 
      "properties": {
        "woe:id": 12510570, 
        "href": "/125/105/70/12510570.json", 
        "name": "Tres Arroyos Airport"
      }
    }, 
    {
      "geometry": {
        "type": "Point", 
        "coordinates": [
          -60.480000, 
          -31.795000
        ]
      }, 
      "id": 12510502, 
      "properties": {
        "woe:id": 12510502, 
        "href": "/125/105/02/12510502.json", 
        "name": "General Urquiza Airport", 
        "iata:code": "PRA"
      }
    }, 
    {
      "geometry": {
        "type": "Point", 
        "coordinates": [
          -64.261101, 
          -33.086399
        ]
      }, 
      "id": 12510543, 
      "properties": {
        "woe:id": 12510543, 
        "href": "/125/105/43/12510543.json", 
        "name": "Rio Cuarto Area de Material Airport", 
        "iata:code": "RCU"
      }
    }, 
    {
      "geometry": {
        "type": "Point", 
        "coordinates": [
          -67.766701, 
          -53.779202
        ]
      }, 
      "id": 12510546, 
      "properties": {
        "woe:id": 12510546, 
        "href": "/125/105/46/12510546.json", 
        "name": "Rio Grande Airport", 
        "iata:code": "RGA"
      }
    }, 
    {
      "geometry": {
        "type": "Point", 
        "coordinates": [
          -61.840000, 
          -26.222200
        ]
      }, 
      "id": 12510529, 
      "properties": {
        "woe:id": 12510529, 
        "href": "/125/105/29/12510529.json", 
        "name": "Pampa de Los Guanacos Airport"
      }
    }, 
    {
      "geometry": {
        "type": "Point", 
        "coordinates": [
          -55.957937, 
          -27.381963
        ]
      }, 
      "id": 12510533, 
      "properties": {
        "woe:id": 12510533, 
        "href": "/125/105/33/12510533.json", 
        "name": "Posadas Airport", 
        "iata:code": "PSS"
      }
    }, 
    {
      "geometry": {
        "type": "Point", 
        "coordinates": [
          -68.309295, 
          -54.807470
        ]
      }, 
      "id": 12510571, 
      "properties": {
        "woe:id": 12510571, 
        "href": "/125/105/71/12510571.json", 
        "name": "Ushuaia Airport", 
        "iata:code": "USH"
      }
    }, 
    {
      "geometry": {
        "type": "Point", 
        "coordinates": [
          -60.782459, 
          -32.906300
        ]
      }, 
      "id": 12510547, 
      "properties": {
        "woe:id": 12510547, 
        "href": "/125/105/47/12510547.json", 
        "name": "Rosario Airport", 
        "iata:code": "ROS"
      }
    }, 
    {
      "geometry": {
        "type": "Point", 
        "coordinates": [
          -65.306900, 
          -33.733601
        ]
      }, 
      "id": 12510577, 
      "properties": {
        "woe:id": 12510577, 
        "href": "/125/105/77/12510577.json", 
        "name": "Villa Reynolds E Highway Strip Airport"
      }
    }, 
    {
      "geometry": {
        "type": "Point", 
        "coordinates": [
          -67.660004, 
          -37.811401
        ]
      }, 
      "id": 12510572, 
      "properties": {
        "woe:id": 12510572, 
        "href": "/125/105/72/12510572.json", 
        "name": "Veinticinco de Mayo Airport"
      }
    }, 
    {
      "geometry": {
        "type": "Point", 
        "coordinates": [
          -69.746696, 
          -51.621399
        ]
      }, 
      "id": 12510545, 
      "properties": {
        "woe:id": 12510545, 
        "href": "/125/105/45/12510545.json", 
        "name": "Rio Gallegos Highway Strip Airport"
      }
    }, 
    {
      "geometry": {
        "type": "Point", 
        "coordinates": [
          -68.411102, 
          -31.577200
        ]
      }, 
      "id": 12510552, 
      "properties": {
        "woe:id": 12510552, 
        "href": "/125/105/52/12510552.json", 
        "name": "San Juan Airport"
      }
    }, 
    {
      "geometry": {
        "type": "Point", 
        "coordinates": [
          -58.789700, 
          -34.560299
        ]
      }, 
      "id": 12510520, 
      "properties": {
        "woe:id": 12510520, 
        "href": "/125/105/20/12510520.json", 
        "name": "Mariano Moreno Airport"
      }
    }, 
    {
      "geometry": {
        "type": "Point", 
        "coordinates": [
          -68.972504, 
          -46.539398
        ]
      }, 
      "id": 12510513, 
      "properties": {
        "woe:id": 12510513, 
        "href": "/125/105/13/12510513.json", 
        "name": "Las Heras Airport"
      }
    }, 
    {
      "geometry": {
        "type": "Point", 
        "coordinates": [
          -58.583172, 
          -34.456181
        ]
      }, 
      "id": 12510551, 
      "properties": {
        "woe:id": 12510551, 
        "href": "/125/105/51/12510551.json", 
        "name": "San Fernando Airport"
      }
    }, 
    {
      "geometry": {
        "type": "Point", 
        "coordinates": [
          -65.101898, 
          -26.839701
        ]
      }, 
      "id": 12510566, 
      "properties": {
        "woe:id": 12510566, 
        "href": "/125/105/66/12510566.json", 
        "name": "Teniente Benjamin Matienzo Airport", 
        "iata:code": "TUC"
      }
    }, 
    {
      "geometry": {
        "type": "Point", 
        "coordinates": [
          -65.901901, 
          -47.735802
        ]
      }, 
      "id": 12510534, 
      "properties": {
        "woe:id": 12510534, 
        "href": "/125/105/34/12510534.json", 
        "name": "Puerto Deseado Airport", 
        "iata:code": "PUD"
      }
    }, 
    {
      "geometry": {
        "type": "Point", 
        "coordinates": [
          -66.358597, 
          -33.274399
        ]
      }, 
      "id": 12510554, 
      "properties": {
        "woe:id": 12510554, 
        "href": "/125/105/54/12510554.json", 
        "name": "San Luis Airport"
      }
    }, 
    {
      "geometry": {
        "type": "Point", 
        "coordinates": [
          -65.323303, 
          -43.233299
        ]
      }, 
      "id": 12510568, 
      "properties": {
        "woe:id": 12510568, 
        "href": "/125/105/68/12510568.json", 
        "name": "Trelew Aeroclub Airport"
      }
    }, 
    {
      "geometry": {
        "type": "Point", 
        "coordinates": [
          -70.113297, 
          -38.975800
        ]
      }, 
      "id": 12510579, 
      "properties": {
        "woe:id": 12510579, 
        "href": "/125/105/79/12510579.json", 
        "name": "Zapala Airport", 
        "iata:code": "APZ"
      }
    }, 
    {
      "geometry": {
        "type": "Point", 
        "coordinates": [
          -60.929199, 
          -34.547501
        ]
      }, 
      "id": 12510510, 
      "properties": {
        "woe:id": 12510510, 
        "href": "/125/105/10/12510510.json", 
        "name": "Junin Airport", 
        "iata:code": "JNI"
      }
    }, 
    {
      "geometry": {
        "type": "Point", 
        "coordinates": [
          -65.475601, 
          -24.858900
        ]
      }, 
      "id": 12510549, 
      "properties": {
        "woe:id": 12510549, 
        "href": "/125/105/49/12510549.json", 
        "name": "Salta Airport", 
        "iata:code": "SLA"
      }
    }, 
    {
      "geometry": {
        "type": "Point", 
        "coordinates": [
          -60.811699, 
          -31.710800
        ]
      }, 
      "id": 12510563, 
      "properties": {
        "woe:id": 12510563, 
        "href": "/125/105/63/12510563.json", 
        "name": "Sauce Viejo Airport", 
        "iata:code": "SFN"
      }
    }, 
    {
      "geometry": {
        "type": "Point", 
        "coordinates": [
          -70.153900, 
          -48.783901
        ]
      }, 
      "id": 12510505, 
      "properties": {
        "woe:id": 12510505, 
        "href": "/125/105/05/12510505.json", 
        "name": "Gobernador Gregores Airport", 
        "iata:code": "GGS"
      }
    }, 
    {
      "geometry": {
        "type": "Point", 
        "coordinates": [
          -66.290298, 
          -30.356899
        ]
      }, 
      "id": 12510504, 
      "properties": {
        "woe:id": 12510504, 
        "href": "/125/105/04/12510504.json", 
        "name": "Gobernador Gordillo Airport"
      }
    }, 
    {
      "geometry": {
        "type": "Point", 
        "coordinates": [
          -58.084999, 
          -29.222799
        ]
      }, 
      "id": 12510521, 
      "properties": {
        "woe:id": 12510521, 
        "href": "/125/105/21/12510521.json", 
        "name": "Mercedes Airport", 
        "iata:code": "MDX"
      }
    }, 
    {
      "geometry": {
        "type": "Point", 
        "coordinates": [
          -66.019997, 
          -26.673599
        ]
      }, 
      "id": 12510558, 
      "properties": {
        "woe:id": 12510558, 
        "href": "/125/105/58/12510558.json", 
        "name": "Santa Maria Airport"
      }
    }, 
    {
      "geometry": {
        "type": "Point", 
        "coordinates": [
          -60.646702, 
          -33.920799
        ]
      }, 
      "id": 12510532, 
      "properties": {
        "woe:id": 12510532, 
        "href": "/125/105/32/12510532.json", 
        "name": "Pergamino Airport"
      }
    }, 
    {
      "geometry": {
        "type": "Point", 
        "coordinates": [
          -62.010601, 
          -38.897202
        ]
      }, 
      "id": 12510536, 
      "properties": {
        "woe:id": 12510536, 
        "href": "/125/105/36/12510536.json", 
        "name": "Puerto Rosales Naval Air Base"
      }
    }, 
    {
      "geometry": {
        "type": "Point", 
        "coordinates": [
          -68.402802, 
          -34.588600
        ]
      }, 
      "id": 12510556, 
      "properties": {
        "woe:id": 12510556, 
        "href": "/125/105/56/12510556.json", 
        "name": "San Rafael Airport", 
        "iata:code": "AFA"
      }
    }, 
    {
      "geometry": {
        "type": "Point", 
        "coordinates": [
          -69.313103, 
          -51.609200
        ]
      }, 
      "id": 12510544, 
      "properties": {
        "woe:id": 12510544, 
        "href": "/125/105/44/12510544.json", 
        "name": "Rio Gallegos Airport", 
        "iata:code": "RGL"
      }
    }, 
    {
      "geometry": {
        "type": "Point", 
        "coordinates": [
          -68.583298, 
          -50.020000
        ]
      }, 
      "id": 12510557, 
      "properties": {
        "woe:id": 12510557, 
        "href": "/125/105/57/12510557.json", 
        "name": "Santa Cruz Airport", 
        "iata:code": "RZA"
      }
    }, 
    {
      "geometry": {
        "type": "Point", 
        "coordinates": [
          -57.641102, 
          -30.270800
        ]
      }, 
      "id": 12510522, 
      "properties": {
        "woe:id": 12510522, 
        "href": "/125/105/22/12510522.json", 
        "name": "Monte Caseros Airport", 
        "iata:code": "MCS"
      }
    }, 
    {
      "geometry": {
        "type": "Point", 
        "coordinates": [
          -57.996399, 
          -31.297199
        ]
      }, 
      "id": 12510481, 
      "properties": {
        "woe:id": 12510481, 
        "href": "/125/104/81/12510481.json", 
        "name": "Concordia J J Pierrestegui", 
        "iata:code": "COC"
      }
    }, 
    {
      "geometry": {
        "type": "Point", 
        "coordinates": [
          -61.890598, 
          -37.447498
        ]
      }, 
      "id": 12510483, 
      "properties": {
        "woe:id": 12510483, 
        "href": "/125/104/83/12510483.json", 
        "name": "Brigadier Hector Ruiz Airport", 
        "iata:code": "CSZ"
      }
    }, 
    {
      "geometry": {
        "type": "Point", 
        "coordinates": [
          -57.732201, 
          -25.303101
        ]
      }, 
      "id": 12510478, 
      "properties": {
        "woe:id": 12510478, 
        "href": "/125/104/78/12510478.json", 
        "name": "Clorinda Airport", 
        "iata:code": "CLX"
      }
    }, 
    {
      "geometry": {
        "type": "Point", 
        "coordinates": [
          -65.006897, 
          -40.755600
        ]
      }, 
      "id": 12510459, 
      "properties": {
        "woe:id": 12510459, 
        "href": "/125/104/59/12510459.json", 
        "name": "Antoine de St Exupery Airport"
      }
    }, 
    {
      "geometry": {
        "type": "Point", 
        "coordinates": [
          -58.235001, 
          -26.209999
        ]
      }, 
      "id": 12510497, 
      "properties": {
        "woe:id": 12510497, 
        "href": "/125/104/97/12510497.json", 
        "name": "Formosa Airport"
      }
    }, 
    {
      "geometry": {
        "type": "Point", 
        "coordinates": [
          -68.798820, 
          -32.827831
        ]
      }, 
      "id": 12510491, 
      "properties": {
        "woe:id": 12510491, 
        "href": "/125/104/91/12510491.json", 
        "icao:code": "KMDZ", 
        "name": "El Plumerillo Airport", 
        "iata:code": "MDZ"
      }
    }, 
    {
      "geometry": {
        "type": "Point", 
        "coordinates": [
          -67.432800, 
          -29.225599
        ]
      }, 
      "id": 12510476, 
      "properties": {
        "woe:id": 12510476, 
        "href": "/125/104/76/12510476.json", 
        "name": "Chilecito Airport"
      }
    }, 
    {
      "geometry": {
        "type": "Point", 
        "coordinates": [
          -58.606701, 
          -34.496700
        ]
      }, 
      "id": 12510488, 
      "properties": {
        "woe:id": 12510488, 
        "href": "/125/104/88/12510488.json", 
        "name": "Don Torcuato Airport"
      }
    }, 
    {
      "geometry": {
        "type": "Point", 
        "coordinates": [
          -61.074699, 
          -36.186901
        ]
      }, 
      "id": 12510464, 
      "properties": {
        "woe:id": 12510464, 
        "href": "/125/104/64/12510464.json", 
        "name": "Bolivar Airport"
      }
    }, 
    {
      "geometry": {
        "type": "Point", 
        "coordinates": [
          -67.804199, 
          -49.308102
        ]
      }, 
      "id": 12510469, 
      "properties": {
        "woe:id": 12510469, 
        "href": "/125/104/69/12510469.json", 
        "name": "Capt Jose Daniel Vazquez Airport", 
        "iata:code": "ULA"
      }
    }, 
    {
      "geometry": {
        "type": "Point", 
        "coordinates": [
          -58.536621, 
          -34.810914
        ]
      }, 
      "id": 12510496, 
      "properties": {
        "woe:id": 12510496, 
        "href": "/125/104/96/12510496.json", 
        "name": "Ministro Pistarini International Airport", 
        "iata:code": "EZE"
      }
    }, 
    {
      "geometry": {
        "type": "Point", 
        "coordinates": [
          -67.462799, 
          -45.787201
        ]
      }, 
      "id": 12510499, 
      "properties": {
        "woe:id": 12510499, 
        "href": "/125/104/99/12510499.json", 
        "name": "General Enrique Mosconi Airport", 
        "iata:code": "CRD"
      }
    }, 
    {
      "geometry": {
        "type": "Point", 
        "coordinates": [
          -59.336700, 
          -26.314199
        ]
      }, 
      "id": 12510489, 
      "properties": {
        "woe:id": 12510489, 
        "href": "/125/104/89/12510489.json", 
        "name": "El Colorado Airport"
      }
    }, 
    {
      "geometry": {
        "type": "Point", 
        "coordinates": [
          -55.762501, 
          -27.902800
        ]
      }, 
      "id": 12510460, 
      "properties": {
        "woe:id": 12510460, 
        "href": "/125/104/60/12510460.json", 
        "name": "Apostoles Airport"
      }
    }, 
    {
      "geometry": {
        "type": "Point", 
        "coordinates": [
          -58.049999, 
          -35.541698
        ]
      }, 
      "id": 12510475, 
      "properties": {
        "woe:id": 12510475, 
        "href": "/125/104/75/12510475.json", 
        "name": "Chascomus Airport"
      }
    }, 
    {
      "geometry": {
        "type": "Point", 
        "coordinates": [
          -62.153900, 
          -38.726101
        ]
      }, 
      "id": 12510461, 
      "properties": {
        "woe:id": 12510461, 
        "href": "/125/104/61/12510461.json", 
        "name": "Bahia Blanca Cte Espora Naval Air Base", 
        "iata:code": "BHI"
      }
    }, 
    {
      "geometry": {
        "type": "Point", 
        "coordinates": [
          -64.748299, 
          -23.793301
        ]
      }, 
      "id": 12510465, 
      "properties": {
        "woe:id": 12510465, 
        "href": "/125/104/65/12510465.json", 
        "name": "Calilegua Airport"
      }
    }, 
    {
      "geometry": {
        "type": "Point", 
        "coordinates": [
          -71.139198, 
          -40.075802
        ]
      }, 
      "id": 12510474, 
      "properties": {
        "woe:id": 12510474, 
        "href": "/125/104/74/12510474.json", 
        "name": "Chapelco Airport", 
        "iata:code": "CPC"
      }
    }, 
    {
      "geometry": {
        "type": "Point", 
        "coordinates": [
          -67.559700, 
          -46.538101
        ]
      }, 
      "id": 12510467, 
      "properties": {
        "woe:id": 12510467, 
        "href": "/125/104/67/12510467.json", 
        "name": "Canadon Seco Airport"
      }
    }, 
    {
      "geometry": {
        "type": "Point", 
        "coordinates": [
          -67.095802, 
          -27.714701
        ]
      }, 
      "id": 12510462, 
      "properties": {
        "woe:id": 12510462, 
        "href": "/125/104/62/12510462.json", 
        "name": "Belen Airport"
      }
    }, 
    {
      "geometry": {
        "type": "Point", 
        "coordinates": [
          -58.611698, 
          -34.610298
        ]
      }, 
      "id": 12510490, 
      "properties": {
        "woe:id": 12510490, 
        "href": "/125/104/90/12510490.json", 
        "name": "El Palomar Airport"
      }
    }, 
    {
      "geometry": {
        "type": "Point", 
        "coordinates": [
          -71.008301, 
          -37.856899
        ]
      }, 
      "id": 12510473, 
      "properties": {
        "woe:id": 12510473, 
        "href": "/125/104/73/12510473.json", 
        "name": "Caviahue Airport", 
        "iata:code": "CVH"
      }
    }, 
    {
      "geometry": {
        "type": "Point", 
        "coordinates": [
          -65.754204, 
          -28.593901
        ]
      }, 
      "id": 12510470, 
      "properties": {
        "woe:id": 12510470, 
        "href": "/125/104/70/12510470.json", 
        "name": "Catamarca Airport", 
        "iata:code": "CTC"
      }
    }, 
    {
      "geometry": {
        "type": "Point", 
        "coordinates": [
          -65.109703, 
          -28.629200
        ]
      }, 
      "id": 12510498, 
      "properties": {
        "woe:id": 12510498, 
        "href": "/125/104/98/12510498.json", 
        "name": "Frias Airport"
      }
    }, 
    {
      "geometry": {
        "type": "Point", 
        "coordinates": [
          -54.572498, 
          -26.395800
        ]
      }, 
      "id": 12510493, 
      "properties": {
        "woe:id": 12510493, 
        "href": "/125/104/93/12510493.json", 
        "name": "Eldorado Airport"
      }
    }, 
    {
      "geometry": {
        "type": "Point", 
        "coordinates": [
          -64.212230, 
          -31.317032
        ]
      }, 
      "id": 12510482, 
      "properties": {
        "woe:id": 12510482, 
        "href": "/125/104/82/12510482.json", 
        "name": "Ingeniero Ambrosio L.V. Taravella International Airport", 
        "iata:code": "COR"
      }
    }, 
    {
      "geometry": {
        "type": "Point", 
        "coordinates": [
          -65.779701, 
          -28.448299
        ]
      }, 
      "id": 12510471, 
      "properties": {
        "woe:id": 12510471, 
        "href": "/125/104/71/12510471.json", 
        "name": "Catamarca Aeroclub"
      }
    }, 
    {
      "geometry": {
        "type": "Point", 
        "coordinates": [
          -70.217796, 
          -37.442200
        ]
      }, 
      "id": 12510477, 
      "properties": {
        "woe:id": 12510477, 
        "href": "/125/104/77/12510477.json", 
        "name": "Oscar Reguera Airport", 
        "iata:code": "HOS"
      }
    }, 
    {
      "geometry": {
        "type": "Point", 
        "coordinates": [
          -54.476849, 
          -25.730714
        ]
      }, 
      "id": 12510472, 
      "properties": {
        "woe:id": 12510472, 
        "href": "/125/104/72/12510472.json", 
        "name": "Cataratas del Iguazu Airport"
      }
    }, 
    {
      "geometry": {
        "type": "Point", 
        "coordinates": [
          -69.271698, 
          -38.938301
        ]
      }, 
      "id": 12510486, 
      "properties": {
        "woe:id": 12510486, 
        "href": "/125/104/86/12510486.json", 
        "name": "Cutral Co", 
        "iata:code": "CUT"
      }
    }, 
    {
      "geometry": {
        "type": "Point", 
        "coordinates": [
          -65.110001, 
          -42.759701
        ]
      }, 
      "id": 12510492, 
      "properties": {
        "woe:id": 12510492, 
        "href": "/125/104/92/12510492.json", 
        "name": "El Tehuelche Airport", 
        "iata:code": "PMY"
      }
    }, 
    {
      "geometry": {
        "type": "Point", 
        "coordinates": [
          -71.142502, 
          -42.926399
        ]
      }, 
      "id": 12510495, 
      "properties": {
        "woe:id": 12510495, 
        "href": "/125/104/95/12510495.json", 
        "name": "Esquel Airport"
      }
    }, 
    {
      "geometry": {
        "type": "Point", 
        "coordinates": [
          -58.762199, 
          -27.449699
        ]
      }, 
      "id": 12510484, 
      "properties": {
        "woe:id": 12510484, 
        "href": "/125/104/84/12510484.json", 
        "name": "Corrientes Airport", 
        "iata:code": "CNQ"
      }
    }, 
    {
      "geometry": {
        "type": "Point", 
        "coordinates": [
          -58.672199, 
          -34.534199
        ]
      }, 
      "id": 12510466, 
      "properties": {
        "woe:id": 12510466, 
        "href": "/125/104/66/12510466.json", 
        "name": "Campo de Mayo Airport"
      }
    }, 
    {
      "geometry": {
        "type": "Point", 
        "coordinates": [
          -66.783302, 
          -29.384701
        ]
      }, 
      "id": 12510468, 
      "properties": {
        "woe:id": 12510468, 
        "href": "/125/104/68/12510468.json", 
        "name": "Capitan Vicente A Almonacid Airport", 
        "iata:code": "IRJ"
      }
    }, 
    {
      "geometry": {
        "type": "Point", 
        "coordinates": [
          -67.832199, 
          -37.910599
        ]
      }, 
      "id": 12510479, 
      "properties": {
        "woe:id": 12510479, 
        "href": "/125/104/79/12510479.json", 
        "name": "Colonia Catriel Airport", 
        "iata:code": "CCT"
      }
    }, 
    {
      "geometry": {
        "type": "Point", 
        "coordinates": [
          -57.978298, 
          -29.771700
        ]
      }, 
      "id": 12510485, 
      "properties": {
        "woe:id": 12510485, 
        "href": "/125/104/85/12510485.json", 
        "name": "Curuzu Cuatia Airport"
      }
    }, 
    {
      "geometry": {
        "type": "Point", 
        "coordinates": [
          -59.030800, 
          -28.518101
        ]
      }, 
      "id": 12510463, 
      "properties": {
        "woe:id": 12510463, 
        "href": "/125/104/63/12510463.json", 
        "name": "Bella Vista Airport"
      }
    }, 
    {
      "geometry": {
        "type": "Point", 
        "coordinates": [
          -66.341698, 
          -27.658300
        ]
      }, 
      "id": 12510458, 
      "properties": {
        "woe:id": 12510458, 
        "href": "/125/104/58/12510458.json", 
        "name": "Andalgala Airport"
      }
    }, 
    {
      "geometry": {
        "type": "Point", 
        "coordinates": [
          -68.863297, 
          -32.863300
        ]
      }, 
      "id": 12510456, 
      "properties": {
        "woe:id": 12510456, 
        "href": "/125/104/56/12510456.json", 
        "name": "Aeroparque Ciudad Mendoza"
      }
    }, 
    {
      "geometry": {
        "type": "Point", 
        "coordinates": [
          -68.953903, 
          -49.996101
        ]
      }, 
      "id": 12510480, 
      "properties": {
        "woe:id": 12510480, 
        "href": "/125/104/80/12510480.json", 
        "name": "Comandante Luis Piedrabuena Airport"
      }
    }, 
    {
      "geometry": {
        "type": "Point", 
        "coordinates": [
          -64.281700, 
          -31.444201
        ]
      }, 
      "id": 12510494, 
      "properties": {
        "woe:id": 12510494, 
        "href": "/125/104/94/12510494.json", 
        "name": "Escuela de Aviacion Militar"
      }
    }
  ], 
  "properties": {
    "iso": "AR", 
    "woe:country": 23424747
  }
}