{
  "type": "FeatureCollection", 
  "features": [
    {
      "geometry": {
        "type": "Point", 
        "coordinates": [
          27.288, 
          43.920
        ]
      }, 
      "id": 12511381, 
      "properties": {
        "woe:id": 12511381, 
        "href": "/125/113/81/12511381.json", 
        "name": "Alfatar Southeast Airport"
      }
    }, 
    {
      "geometry": {
        "type": "Point", 
        "coordinates": [
          27.248, 
          42.681
        ]
      }, 
      "id": 12511383, 
      "properties": {
        "woe:id": 12511383, 
        "href": "/125/113/83/12511383.json", 
        "name": "Aytos South Airport"
      }
    }, 
    {
      "geometry": {
        "type": "Point", 
        "coordinates": [
          27.812, 
          43.910
        ]
      }, 
      "id": 12511378, 
      "properties": {
        "woe:id": 12511378, 
        "href": "/125/113/78/12511378.json", 
        "name": "Abrit Airport"
      }
    }, 
    {
      "geometry": {
        "type": "Point", 
        "coordinates": [
          24.826, 
          42.931
        ]
      }, 
      "id": 12511397, 
      "properties": {
        "woe:id": 12511397, 
        "href": "/125/113/97/12511397.json", 
        "name": "Botevgrad Airport"
      }
    }, 
    {
      "geometry": {
        "type": "Point", 
        "coordinates": [
          26.633, 
          43.938
        ]
      }, 
      "id": 12511391, 
      "properties": {
        "woe:id": 12511391, 
        "href": "/125/113/91/12511391.json", 
        "name": "Belitsa Airport"
      }
    }, 
    {
      "geometry": {
        "type": "Point", 
        "coordinates": [
          27.468, 
          42.733
        ]
      }, 
      "id": 12511388, 
      "properties": {
        "woe:id": 12511388, 
        "href": "/125/113/88/12511388.json", 
        "name": "Bata Airport"
      }
    }, 
    {
      "geometry": {
        "type": "Point", 
        "coordinates": [
          26.942, 
          43.593
        ]
      }, 
      "id": 12511396, 
      "properties": {
        "woe:id": 12511396, 
        "href": "/125/113/96/12511396.json", 
        "name": "Borts Airport"
      }
    }, 
    {
      "geometry": {
        "type": "Point", 
        "coordinates": [
          26.690, 
          43.313
        ]
      }, 
      "id": 12511399, 
      "properties": {
        "woe:id": 12511399, 
        "href": "/125/113/99/12511399.json", 
        "name": "Bukhovtsi Airport"
      }
    }, 
    {
      "geometry": {
        "type": "Point", 
        "coordinates": [
          24.512, 
          43.253
        ]
      }, 
      "id": 12511389, 
      "properties": {
        "woe:id": 12511389, 
        "href": "/125/113/89/12511389.json", 
        "name": "Beglesh Airport"
      }
    }, 
    {
      "geometry": {
        "type": "Point", 
        "coordinates": [
          23.682, 
          43.343
        ]
      }, 
      "id": 12511387, 
      "properties": {
        "woe:id": 12511387, 
        "href": "/125/113/87/12511387.json", 
        "name": "Banitsa Airport"
      }
    }, 
    {
      "geometry": {
        "type": "Point", 
        "coordinates": [
          28.334, 
          43.595
        ]
      }, 
      "id": 12511390, 
      "properties": {
        "woe:id": 12511390, 
        "href": "/125/113/90/12511390.json", 
        "name": "Belgun Airport"
      }
    }, 
    {
      "geometry": {
        "type": "Point", 
        "coordinates": [
          22.651, 
          44.125
        ]
      }, 
      "id": 12511398, 
      "properties": {
        "woe:id": 12511398, 
        "href": "/125/113/98/12511398.json", 
        "name": "Bregovo Airport"
      }
    }, 
    {
      "geometry": {
        "type": "Point", 
        "coordinates": [
          27.050, 
          43.243
        ]
      }, 
      "id": 12511393, 
      "properties": {
        "woe:id": 12511393, 
        "href": "/125/113/93/12511393.json", 
        "name": "Blagovo Airport"
      }
    }, 
    {
      "geometry": {
        "type": "Point", 
        "coordinates": [
          26.669, 
          43.978
        ]
      }, 
      "id": 12511382, 
      "properties": {
        "woe:id": 12511382, 
        "href": "/125/113/82/12511382.json", 
        "name": "Antimovo Airport"
      }
    }, 
    {
      "geometry": {
        "type": "Point", 
        "coordinates": [
          25.415, 
          42.589
        ]
      }, 
      "id": 12511386, 
      "properties": {
        "woe:id": 12511386, 
        "href": "/125/113/86/12511386.json", 
        "name": "Banite Airport"
      }
    }, 
    {
      "geometry": {
        "type": "Point", 
        "coordinates": [
          26.355, 
          42.455
        ]
      }, 
      "id": 12511392, 
      "properties": {
        "woe:id": 12511392, 
        "href": "/125/113/92/12511392.json", 
        "name": "Bezmer Airport"
      }
    }, 
    {
      "geometry": {
        "type": "Point", 
        "coordinates": [
          25.806, 
          43.512
        ]
      }, 
      "id": 12511395, 
      "properties": {
        "woe:id": 12511395, 
        "href": "/125/113/95/12511395.json", 
        "name": "Borovo Airport"
      }
    }, 
    {
      "geometry": {
        "type": "Point", 
        "coordinates": [
          24.647, 
          43.194
        ]
      }, 
      "id": 12511384, 
      "properties": {
        "woe:id": 12511384, 
        "href": "/125/113/84/12511384.json", 
        "name": "Bakhovitsa Airport"
      }
    }, 
    {
      "geometry": {
        "type": "Point", 
        "coordinates": [
          24.956, 
          43.274
        ]
      }, 
      "id": 12511379, 
      "properties": {
        "woe:id": 12511379, 
        "href": "/125/113/79/12511379.json", 
        "name": "Aleksandrovo Airport"
      }
    }, 
    {
      "geometry": {
        "type": "Point", 
        "coordinates": [
          28.163, 
          43.414
        ]
      }, 
      "id": 12511385, 
      "properties": {
        "woe:id": 12511385, 
        "href": "/125/113/85/12511385.json", 
        "name": "Balchik Airport"
      }
    }, 
    {
      "geometry": {
        "type": "Point", 
        "coordinates": [
          27.242, 
          43.946
        ]
      }, 
      "id": 12511380, 
      "properties": {
        "woe:id": 12511380, 
        "href": "/125/113/80/12511380.json", 
        "name": "Alfatar Airport"
      }
    }, 
    {
      "geometry": {
        "type": "Point", 
        "coordinates": [
          24.660, 
          43.329
        ]
      }, 
      "id": 12511394, 
      "properties": {
        "woe:id": 12511394, 
        "href": "/125/113/94/12511394.json", 
        "name": "Bokhot Airport"
      }
    }, 
    {
      "geometry": {
        "type": "Point", 
        "coordinates": [
          22.817, 
          43.983
        ]
      }, 
      "id": 12523781, 
      "properties": {
        "woe:id": 12523781, 
        "href": "/125/237/81/12523781.json", 
        "name": "Vidin Airport"
      }
    }, 
    {
      "geometry": {
        "type": "Point", 
        "coordinates": [
          27.257, 
          44.062
        ]
      }, 
      "id": 12523778, 
      "properties": {
        "woe:id": 12523778, 
        "href": "/125/237/78/12523778.json", 
        "name": "Silistra Airport", 
        "iata:code": "SLS"
      }
    }, 
    {
      "geometry": {
        "type": "Point", 
        "coordinates": [
          25.333, 
          41.617
        ]
      }, 
      "id": 12523776, 
      "properties": {
        "woe:id": 12523776, 
        "href": "/125/237/76/12523776.json", 
        "name": "Kardjali Airport"
      }
    }, 
    {
      "geometry": {
        "type": "Point", 
        "coordinates": [
          25.500, 
          41.967
        ]
      }, 
      "id": 12523775, 
      "properties": {
        "woe:id": 12523775, 
        "href": "/125/237/75/12523775.json", 
        "name": "Haskovo Airport"
      }
    }, 
    {
      "geometry": {
        "type": "Point", 
        "coordinates": [
          25.617, 
          42.333
        ]
      }, 
      "id": 12523774, 
      "properties": {
        "woe:id": 12523774, 
        "href": "/125/237/74/12523774.json", 
        "name": "Oryahovitsa Airport", 
        "iata:code": "GOZ"
      }
    }, 
    {
      "geometry": {
        "type": "Point", 
        "coordinates": [
          27.519, 
          42.564
        ]
      }, 
      "id": 12523782, 
      "properties": {
        "woe:id": 12523782, 
        "href": "/125/237/82/12523782.json", 
        "name": "Bourgas Airport", 
        "iata:code": "BOJ"
      }
    }, 
    {
      "geometry": {
        "type": "Point", 
        "coordinates": [
          24.500, 
          42.000
        ]
      }, 
      "id": 12523777, 
      "properties": {
        "woe:id": 12523777, 
        "href": "/125/237/77/12523777.json", 
        "name": "Pleven Airport", 
        "iata:code": "PVN"
      }
    }, 
    {
      "geometry": {
        "type": "Point", 
        "coordinates": [
          25.617, 
          42.433
        ]
      }, 
      "id": 12523779, 
      "properties": {
        "woe:id": 12523779, 
        "href": "/125/237/79/12523779.json", 
        "name": "23 Helicopter Air Base", 
        "iata:code": "SZR"
      }
    }, 
    {
      "geometry": {
        "type": "Point", 
        "coordinates": [
          24.500, 
          42.417
        ]
      }, 
      "id": 12523780, 
      "properties": {
        "woe:id": 12523780, 
        "href": "/125/237/80/12523780.json", 
        "name": "Targovishte Airport", 
        "iata:code": "TGV"
      }
    }, 
    {
      "geometry": {
        "type": "Point", 
        "coordinates": [
          25.230, 
          42.075
        ]
      }, 
      "id": 12511408, 
      "properties": {
        "woe:id": 12511408, 
        "href": "/125/114/08/12511408.json", 
        "name": "Debur Airport"
      }
    }, 
    {
      "geometry": {
        "type": "Point", 
        "coordinates": [
          26.162, 
          43.410
        ]
      }, 
      "id": 12511481, 
      "properties": {
        "woe:id": 12511481, 
        "href": "/125/114/81/12511481.json", 
        "name": "Palamartsa Airport"
      }
    }, 
    {
      "geometry": {
        "type": "Point", 
        "coordinates": [
          27.931, 
          43.486
        ]
      }, 
      "id": 12511483, 
      "properties": {
        "woe:id": 12511483, 
        "href": "/125/114/83/12511483.json", 
        "name": "Pchelino Airport"
      }
    }, 
    {
      "geometry": {
        "type": "Point", 
        "coordinates": [
          28.168, 
          43.725
        ]
      }, 
      "id": 12511403, 
      "properties": {
        "woe:id": 12511403, 
        "href": "/125/114/03/12511403.json", 
        "name": "Chernookovo Airport"
      }
    }, 
    {
      "geometry": {
        "type": "Point", 
        "coordinates": [
          24.846, 
          42.068
        ]
      }, 
      "id": 12511453, 
      "properties": {
        "woe:id": 12511453, 
        "href": "/125/114/53/12511453.json", 
        "name": "Krumovo Airport", 
        "iata:code": "PDV"
      }
    }, 
    {
      "geometry": {
        "type": "Point", 
        "coordinates": [
          24.125, 
          43.647
        ]
      }, 
      "id": 12511478, 
      "properties": {
        "woe:id": 12511478, 
        "href": "/125/114/78/12511478.json", 
        "name": "Ostrov Airport"
      }
    }, 
    {
      "geometry": {
        "type": "Point", 
        "coordinates": [
          25.589, 
          42.283
        ]
      }, 
      "id": 12511441, 
      "properties": {
        "woe:id": 12511441, 
        "href": "/125/114/41/12511441.json", 
        "name": "Kaloyanovets Airport"
      }
    }, 
    {
      "geometry": {
        "type": "Point", 
        "coordinates": [
          24.060, 
          43.487
        ]
      }, 
      "id": 12511448, 
      "properties": {
        "woe:id": 12511448, 
        "href": "/125/114/48/12511448.json", 
        "name": "Knezha West Airport"
      }
    }, 
    {
      "geometry": {
        "type": "Point", 
        "coordinates": [
          25.876, 
          41.838
        ]
      }, 
      "id": 12511438, 
      "properties": {
        "woe:id": 12511438, 
        "href": "/125/114/38/12511438.json", 
        "name": "Ivanovo Airport"
      }
    }, 
    {
      "geometry": {
        "type": "Point", 
        "coordinates": [
          25.891, 
          42.333
        ]
      }, 
      "id": 12511407, 
      "properties": {
        "woe:id": 12511407, 
        "href": "/125/114/07/12511407.json", 
        "name": "Daskal Atanasovo Airport"
      }
    }, 
    {
      "geometry": {
        "type": "Point", 
        "coordinates": [
          25.603, 
          41.869
        ]
      }, 
      "id": 12511459, 
      "properties": {
        "woe:id": 12511459, 
        "href": "/125/114/59/12511459.json", 
        "name": "Malevo Airport"
      }
    }, 
    {
      "geometry": {
        "type": "Point", 
        "coordinates": [
          25.006, 
          43.327
        ]
      }, 
      "id": 12511442, 
      "properties": {
        "woe:id": 12511442, 
        "href": "/125/114/42/12511442.json", 
        "name": "Kamenets Airport"
      }
    }, 
    {
      "geometry": {
        "type": "Point", 
        "coordinates": [
          24.034, 
          42.971
        ]
      }, 
      "id": 12511425, 
      "properties": {
        "woe:id": 12511425, 
        "href": "/125/114/25/12511425.json", 
        "name": "Geranovitsa Airport"
      }
    }, 
    {
      "geometry": {
        "type": "Point", 
        "coordinates": [
          26.279, 
          41.816
        ]
      }, 
      "id": 12511497, 
      "properties": {
        "woe:id": 12511497, 
        "href": "/125/114/97/12511497.json", 
        "name": "Raykova Mogila Airport"
      }
    }, 
    {
      "geometry": {
        "type": "Point", 
        "coordinates": [
          25.267, 
          43.537
        ]
      }, 
      "id": 12511415, 
      "properties": {
        "woe:id": 12511415, 
        "href": "/125/114/15/12511415.json", 
        "name": "Dragomirovo Airport"
      }
    }, 
    {
      "geometry": {
        "type": "Point", 
        "coordinates": [
          24.860, 
          43.388
        ]
      }, 
      "id": 12511491, 
      "properties": {
        "woe:id": 12511491, 
        "href": "/125/114/91/12511491.json", 
        "name": "Pordim Airport"
      }
    }, 
    {
      "geometry": {
        "type": "Point", 
        "coordinates": [
          28.056, 
          43.797
        ]
      }, 
      "id": 12511476, 
      "properties": {
        "woe:id": 12511476, 
        "href": "/125/114/76/12511476.json", 
        "name": "Ograzhden Airport"
      }
    }, 
    {
      "geometry": {
        "type": "Point", 
        "coordinates": [
          24.288, 
          43.153
        ]
      }, 
      "id": 12511409, 
      "properties": {
        "woe:id": 12511409, 
        "href": "/125/114/09/12511409.json", 
        "name": "Dermantsi Airport"
      }
    }, 
    {
      "geometry": {
        "type": "Point", 
        "coordinates": [
          26.558, 
          43.653
        ]
      }, 
      "id": 12511419, 
      "properties": {
        "woe:id": 12511419, 
        "href": "/125/114/19/12511419.json", 
        "name": "Dyankovo Airport"
      }
    }, 
    {
      "geometry": {
        "type": "Point", 
        "coordinates": [
          24.495, 
          43.446
        ]
      }, 
      "id": 12511412, 
      "properties": {
        "woe:id": 12511412, 
        "href": "/125/114/12/12511412.json", 
        "name": "Dolna Mitropoliya Airport"
      }
    }, 
    {
      "geometry": {
        "type": "Point", 
        "coordinates": [
          25.647, 
          43.173
        ]
      }, 
      "id": 12511488, 
      "properties": {
        "woe:id": 12511488, 
        "href": "/125/114/88/12511488.json", 
        "name": "Polikrayshte Airport"
      }
    }, 
    {
      "geometry": {
        "type": "Point", 
        "coordinates": [
          23.258, 
          43.385
        ]
      }, 
      "id": 12511464, 
      "properties": {
        "woe:id": 12511464, 
        "href": "/125/114/64/12511464.json", 
        "name": "Mikhaylovgrad Airport"
      }
    }, 
    {
      "geometry": {
        "type": "Point", 
        "coordinates": [
          25.336, 
          43.408
        ]
      }, 
      "id": 12511431, 
      "properties": {
        "woe:id": 12511431, 
        "href": "/125/114/31/12511431.json", 
        "name": "Gorna Studena Airport"
      }
    }, 
    {
      "geometry": {
        "type": "Point", 
        "coordinates": [
          25.127, 
          42.018
        ]
      }, 
      "id": 12511416, 
      "properties": {
        "woe:id": 12511416, 
        "href": "/125/114/16/12511416.json", 
        "name": "Dulbok Izvor Highway Strip Airport"
      }
    }, 
    {
      "geometry": {
        "type": "Point", 
        "coordinates": [
          27.593, 
          43.950
        ]
      }, 
      "id": 12511428, 
      "properties": {
        "woe:id": 12511428, 
        "href": "/125/114/28/12511428.json", 
        "name": "Golesh Airport"
      }
    }, 
    {
      "geometry": {
        "type": "Point", 
        "coordinates": [
          27.665, 
          43.139
        ]
      }, 
      "id": 12511469, 
      "properties": {
        "woe:id": 12511469, 
        "href": "/125/114/69/12511469.json", 
        "name": "Momino Selo Airport"
      }
    }, 
    {
      "geometry": {
        "type": "Point", 
        "coordinates": [
          23.265, 
          43.682
        ]
      }, 
      "id": 12511496, 
      "properties": {
        "woe:id": 12511496, 
        "href": "/125/114/96/12511496.json", 
        "name": "Rasovo Airport"
      }
    }, 
    {
      "geometry": {
        "type": "Point", 
        "coordinates": [
          25.078, 
          42.287
        ]
      }, 
      "id": 12511406, 
      "properties": {
        "woe:id": 12511406, 
        "href": "/125/114/06/12511406.json", 
        "name": "Choba Airport"
      }
    }, 
    {
      "geometry": {
        "type": "Point", 
        "coordinates": [
          27.126, 
          43.788
        ]
      }, 
      "id": 12511423, 
      "properties": {
        "woe:id": 12511423, 
        "href": "/125/114/23/12511423.json", 
        "name": "Gara Dulovo Airport"
      }
    }, 
    {
      "geometry": {
        "type": "Point", 
        "coordinates": [
          27.907, 
          43.933
        ]
      }, 
      "id": 12511499, 
      "properties": {
        "woe:id": 12511499, 
        "href": "/125/114/99/12511499.json", 
        "name": "Rositsa Airport"
      }
    }, 
    {
      "geometry": {
        "type": "Point", 
        "coordinates": [
          23.814, 
          42.420
        ]
      }, 
      "id": 12511435, 
      "properties": {
        "woe:id": 12511435, 
        "href": "/125/114/35/12511435.json", 
        "name": "Ikhtiman Southeast Airport"
      }
    }, 
    {
      "geometry": {
        "type": "Point", 
        "coordinates": [
          27.185, 
          44.052
        ]
      }, 
      "id": 12511489, 
      "properties": {
        "woe:id": 12511489, 
        "href": "/125/114/89/12511489.json", 
        "name": "Polkovnik-Lambrinovo Airport"
      }
    }, 
    {
      "geometry": {
        "type": "Point", 
        "coordinates": [
          23.812, 
          42.312
        ]
      }, 
      "id": 12511424, 
      "properties": {
        "woe:id": 12511424, 
        "href": "/125/114/24/12511424.json", 
        "name": "Gara Kostenets Banya Airport"
      }
    }, 
    {
      "geometry": {
        "type": "Point", 
        "coordinates": [
          27.438, 
          43.813
        ]
      }, 
      "id": 12511460, 
      "properties": {
        "woe:id": 12511460, 
        "href": "/125/114/60/12511460.json", 
        "name": "Mali Izvor Airport"
      }
    }, 
    {
      "geometry": {
        "type": "Point", 
        "coordinates": [
          25.437, 
          42.189
        ]
      }, 
      "id": 12511426, 
      "properties": {
        "woe:id": 12511426, 
        "href": "/125/114/26/12511426.json", 
        "name": "Gita Airport"
      }
    }, 
    {
      "geometry": {
        "type": "Point", 
        "coordinates": [
          23.129, 
          43.508
        ]
      }, 
      "id": 12511411, 
      "properties": {
        "woe:id": 12511411, 
        "href": "/125/114/11/12511411.json", 
        "name": "Doktor Yosifovo Airport"
      }
    }, 
    {
      "geometry": {
        "type": "Point", 
        "coordinates": [
          28.506, 
          43.698
        ]
      }, 
      "id": 12511417, 
      "properties": {
        "woe:id": 12511417, 
        "href": "/125/114/17/12511417.json", 
        "name": "Durankulak Airport"
      }
    }, 
    {
      "geometry": {
        "type": "Point", 
        "coordinates": [
          27.306, 
          43.739
        ]
      }, 
      "id": 12511439, 
      "properties": {
        "woe:id": 12511439, 
        "href": "/125/114/39/12511439.json", 
        "name": "Kabeshkovo Airport"
      }
    }, 
    {
      "geometry": {
        "type": "Point", 
        "coordinates": [
          27.171, 
          43.375
        ]
      }, 
      "id": 12511475, 
      "properties": {
        "woe:id": 12511475, 
        "href": "/125/114/75/12511475.json", 
        "name": "Novi Pazar North Airport"
      }
    }, 
    {
      "geometry": {
        "type": "Point", 
        "coordinates": [
          26.733, 
          42.470
        ]
      }, 
      "id": 12511437, 
      "properties": {
        "woe:id": 12511437, 
        "href": "/125/114/37/12511437.json", 
        "name": "Irechekovo Airport"
      }
    }, 
    {
      "geometry": {
        "type": "Point", 
        "coordinates": [
          27.693, 
          43.284
        ]
      }, 
      "id": 12511440, 
      "properties": {
        "woe:id": 12511440, 
        "href": "/125/114/40/12511440.json", 
        "name": "Kalimantsi Airport"
      }
    }, 
    {
      "geometry": {
        "type": "Point", 
        "coordinates": [
          23.794, 
          43.683
        ]
      }, 
      "id": 12511427, 
      "properties": {
        "woe:id": 12511427, 
        "href": "/125/114/27/12511427.json", 
        "name": "Glozhene Airport"
      }
    }, 
    {
      "geometry": {
        "type": "Point", 
        "coordinates": [
          26.865, 
          42.831
        ]
      }, 
      "id": 12511487, 
      "properties": {
        "woe:id": 12511487, 
        "href": "/125/114/87/12511487.json", 
        "name": "Podvis Airport"
      }
    }, 
    {
      "geometry": {
        "type": "Point", 
        "coordinates": [
          26.935, 
          43.206
        ]
      }, 
      "id": 12511461, 
      "properties": {
        "woe:id": 12511461, 
        "href": "/125/114/61/12511461.json", 
        "name": "Marash Airport"
      }
    }, 
    {
      "geometry": {
        "type": "Point", 
        "coordinates": [
          23.602, 
          43.581
        ]
      }, 
      "id": 12511465, 
      "properties": {
        "woe:id": 12511465, 
        "href": "/125/114/65/12511465.json", 
        "name": "Mikhaylovo Airport"
      }
    }, 
    {
      "geometry": {
        "type": "Point", 
        "coordinates": [
          23.301, 
          42.820
        ]
      }, 
      "id": 12511455, 
      "properties": {
        "woe:id": 12511455, 
        "href": "/125/114/55/12511455.json", 
        "name": "Kumaritsa Airport"
      }
    }, 
    {
      "geometry": {
        "type": "Point", 
        "coordinates": [
          27.212, 
          43.345
        ]
      }, 
      "id": 12511474, 
      "properties": {
        "woe:id": 12511474, 
        "href": "/125/114/74/12511474.json", 
        "name": "Novi Pazar Airport"
      }
    }, 
    {
      "geometry": {
        "type": "Point", 
        "coordinates": [
          27.232, 
          43.463
        ]
      }, 
      "id": 12511467, 
      "properties": {
        "woe:id": 12511467, 
        "href": "/125/114/67/12511467.json", 
        "name": "Mirovtsi Airport"
      }
    }, 
    {
      "geometry": {
        "type": "Point", 
        "coordinates": [
          25.986, 
          42.132
        ]
      }, 
      "id": 12511462, 
      "properties": {
        "woe:id": 12511462, 
        "href": "/125/114/62/12511462.json", 
        "name": "Mednikarovo Airport"
      }
    }, 
    {
      "geometry": {
        "type": "Point", 
        "coordinates": [
          26.873, 
          43.563
        ]
      }, 
      "id": 12511400, 
      "properties": {
        "woe:id": 12511400, 
        "href": "/125/114/00/12511400.json", 
        "name": "Buynovitsa Airport"
      }
    }, 
    {
      "geometry": {
        "type": "Point", 
        "coordinates": [
          26.242, 
          43.369
        ]
      }, 
      "id": 12511490, 
      "properties": {
        "woe:id": 12511490, 
        "href": "/125/114/90/12511490.json", 
        "name": "Popovo Airport"
      }
    }, 
    {
      "geometry": {
        "type": "Point", 
        "coordinates": [
          24.267, 
          42.371
        ]
      }, 
      "id": 12511414, 
      "properties": {
        "woe:id": 12511414, 
        "href": "/125/114/14/12511414.json", 
        "name": "Dolno Levski Airport"
      }
    }, 
    {
      "geometry": {
        "type": "Point", 
        "coordinates": [
          25.878, 
          43.604
        ]
      }, 
      "id": 12511418, 
      "properties": {
        "woe:id": 12511418, 
        "href": "/125/114/18/12511418.json", 
        "name": "Dve Mogili Airport"
      }
    }, 
    {
      "geometry": {
        "type": "Point", 
        "coordinates": [
          23.840, 
          43.443
        ]
      }, 
      "id": 12511401, 
      "properties": {
        "woe:id": 12511401, 
        "href": "/125/114/01/12511401.json", 
        "name": "Byala Slatina Highway Strip Airport"
      }
    }, 
    {
      "geometry": {
        "type": "Point", 
        "coordinates": [
          27.283, 
          43.676
        ]
      }, 
      "id": 12511473, 
      "properties": {
        "woe:id": 12511473, 
        "href": "/125/114/73/12511473.json", 
        "name": "Nova Kamena Airport"
      }
    }, 
    {
      "geometry": {
        "type": "Point", 
        "coordinates": [
          23.411, 
          43.797
        ]
      }, 
      "id": 12511450, 
      "properties": {
        "woe:id": 12511450, 
        "href": "/125/114/50/12511450.json", 
        "name": "Kovachitsa Airport"
      }
    }, 
    {
      "geometry": {
        "type": "Point", 
        "coordinates": [
          25.385, 
          43.308
        ]
      }, 
      "id": 12511430, 
      "properties": {
        "woe:id": 12511430, 
        "href": "/125/114/30/12511430.json", 
        "name": "Gorna Lipnitsa Airport"
      }
    }, 
    {
      "geometry": {
        "type": "Point", 
        "coordinates": [
          24.665, 
          42.662
        ]
      }, 
      "id": 12511470, 
      "properties": {
        "woe:id": 12511470, 
        "href": "/125/114/70/12511470.json", 
        "name": "Moskovets Airport"
      }
    }, 
    {
      "geometry": {
        "type": "Point", 
        "coordinates": [
          23.688, 
          43.515
        ]
      }, 
      "id": 12511498, 
      "properties": {
        "woe:id": 12511498, 
        "href": "/125/114/98/12511498.json", 
        "name": "Rogozen Airport"
      }
    }, 
    {
      "geometry": {
        "type": "Point", 
        "coordinates": [
          28.047, 
          43.575
        ]
      }, 
      "id": 12511493, 
      "properties": {
        "woe:id": 12511493, 
        "href": "/125/114/93/12511493.json", 
        "name": "Prespa Airport"
      }
    }, 
    {
      "geometry": {
        "type": "Point", 
        "coordinates": [
          25.219, 
          42.205
        ]
      }, 
      "id": 12511402, 
      "properties": {
        "woe:id": 12511402, 
        "href": "/125/114/02/12511402.json", 
        "name": "Cherna Gora Airport"
      }
    }, 
    {
      "geometry": {
        "type": "Point", 
        "coordinates": [
          25.352, 
          42.940
        ]
      }, 
      "id": 12511443, 
      "properties": {
        "woe:id": 12511443, 
        "href": "/125/114/43/12511443.json", 
        "name": "Karalite Airport"
      }
    }, 
    {
      "geometry": {
        "type": "Point", 
        "coordinates": [
          27.941, 
          43.283
        ]
      }, 
      "id": 12511446, 
      "properties": {
        "woe:id": 12511446, 
        "href": "/125/114/46/12511446.json", 
        "name": "Kichevo Airport"
      }
    }, 
    {
      "geometry": {
        "type": "Point", 
        "coordinates": [
          27.685, 
          43.631
        ]
      }, 
      "id": 12511429, 
      "properties": {
        "woe:id": 12511429, 
        "href": "/125/114/29/12511429.json", 
        "name": "Golyama Smolnitsa Airport"
      }
    }, 
    {
      "geometry": {
        "type": "Point", 
        "coordinates": [
          27.902, 
          43.721
        ]
      }, 
      "id": 12511482, 
      "properties": {
        "woe:id": 12511482, 
        "href": "/125/114/82/12511482.json", 
        "name": "Pchelarovo Airport"
      }
    }, 
    {
      "geometry": {
        "type": "Point", 
        "coordinates": [
          24.692, 
          42.290
        ]
      }, 
      "id": 12511433, 
      "properties": {
        "woe:id": 12511433, 
        "href": "/125/114/33/12511433.json", 
        "name": "Graf Ignatievo Airport"
      }
    }, 
    {
      "geometry": {
        "type": "Point", 
        "coordinates": [
          23.560, 
          42.668
        ]
      }, 
      "id": 12511471, 
      "properties": {
        "woe:id": 12511471, 
        "href": "/125/114/71/12511471.json", 
        "name": "Musachevo Airport"
      }
    }, 
    {
      "geometry": {
        "type": "Point", 
        "coordinates": [
          25.605, 
          43.363
        ]
      }, 
      "id": 12511447, 
      "properties": {
        "woe:id": 12511447, 
        "href": "/125/114/47/12511447.json", 
        "name": "Klimentovo Airport"
      }
    }, 
    {
      "geometry": {
        "type": "Point", 
        "coordinates": [
          26.135, 
          42.469
        ]
      }, 
      "id": 12511477, 
      "properties": {
        "woe:id": 12511477, 
        "href": "/125/114/77/12511477.json", 
        "name": "Omarchevo Airport"
      }
    }, 
    {
      "geometry": {
        "type": "Point", 
        "coordinates": [
          26.461, 
          44.016
        ]
      }, 
      "id": 12511472, 
      "properties": {
        "woe:id": 12511472, 
        "href": "/125/114/72/12511472.json", 
        "name": "Nova Cherna Airport"
      }
    }, 
    {
      "geometry": {
        "type": "Point", 
        "coordinates": [
          25.683, 
          41.916
        ]
      }, 
      "id": 12511486, 
      "properties": {
        "woe:id": 12511486, 
        "href": "/125/114/86/12511486.json", 
        "name": "Podkrepa Airport"
      }
    }, 
    {
      "geometry": {
        "type": "Point", 
        "coordinates": [
          26.483, 
          43.636
        ]
      }, 
      "id": 12511445, 
      "properties": {
        "woe:id": 12511445, 
        "href": "/125/114/45/12511445.json", 
        "name": "Kichenisa Airport"
      }
    }, 
    {
      "geometry": {
        "type": "Point", 
        "coordinates": [
          28.159, 
          43.654
        ]
      }, 
      "id": 12511492, 
      "properties": {
        "woe:id": 12511492, 
        "href": "/125/114/92/12511492.json", 
        "name": "Preselentsi East Airport"
      }
    }, 
    {
      "geometry": {
        "type": "Point", 
        "coordinates": [
          22.613, 
          43.737
        ]
      }, 
      "id": 12511495, 
      "properties": {
        "woe:id": 12511495, 
        "href": "/125/114/95/12511495.json", 
        "name": "Rabisha North Airport"
      }
    }, 
    {
      "geometry": {
        "type": "Point", 
        "coordinates": [
          27.632, 
          43.022
        ]
      }, 
      "id": 12511484, 
      "properties": {
        "woe:id": 12511484, 
        "href": "/125/114/84/12511484.json", 
        "name": "Pchelnik Airport"
      }
    }, 
    {
      "geometry": {
        "type": "Point", 
        "coordinates": [
          26.648, 
          43.393
        ]
      }, 
      "id": 12511452, 
      "properties": {
        "woe:id": 12511452, 
        "href": "/125/114/52/12511452.json", 
        "name": "Kroyach Airport"
      }
    }, 
    {
      "geometry": {
        "type": "Point", 
        "coordinates": [
          26.967, 
          42.545
        ]
      }, 
      "id": 12511420, 
      "properties": {
        "woe:id": 12511420, 
        "href": "/125/114/20/12511420.json", 
        "name": "Ekzarkh Antimovo Airport"
      }
    }, 
    {
      "geometry": {
        "type": "Point", 
        "coordinates": [
          22.968, 
          42.436
        ]
      }, 
      "id": 12511413, 
      "properties": {
        "woe:id": 12511413, 
        "href": "/125/114/13/12511413.json", 
        "name": "Dolni Rakovets Airport"
      }
    }, 
    {
      "geometry": {
        "type": "Point", 
        "coordinates": [
          27.970, 
          43.864
        ]
      }, 
      "id": 12511451, 
      "properties": {
        "woe:id": 12511451, 
        "href": "/125/114/51/12511451.json", 
        "name": "Krayshte Airport"
      }
    }, 
    {
      "geometry": {
        "type": "Point", 
        "coordinates": [
          24.768, 
          43.620
        ]
      }, 
      "id": 12511466, 
      "properties": {
        "woe:id": 12511466, 
        "href": "/125/114/66/12511466.json", 
        "name": "Milkovitsa Airport"
      }
    }, 
    {
      "geometry": {
        "type": "Point", 
        "coordinates": [
          24.730, 
          43.408
        ]
      }, 
      "id": 12511434, 
      "properties": {
        "woe:id": 12511434, 
        "href": "/125/114/34/12511434.json", 
        "name": "Grivitsa Airport"
      }
    }, 
    {
      "geometry": {
        "type": "Point", 
        "coordinates": [
          24.367, 
          43.624
        ]
      }, 
      "id": 12511454, 
      "properties": {
        "woe:id": 12511454, 
        "href": "/125/114/54/12511454.json", 
        "name": "Krushovene Airport"
      }
    }, 
    {
      "geometry": {
        "type": "Point", 
        "coordinates": [
          26.071, 
          42.369
        ]
      }, 
      "id": 12511468, 
      "properties": {
        "woe:id": 12511468, 
        "href": "/125/114/68/12511468.json", 
        "name": "Mlekarevo Airport"
      }
    }, 
    {
      "geometry": {
        "type": "Point", 
        "coordinates": [
          26.580, 
          43.696
        ]
      }, 
      "id": 12511479, 
      "properties": {
        "woe:id": 12511479, 
        "href": "/125/114/79/12511479.json", 
        "name": "Ostrov Northwest Airport"
      }
    }, 
    {
      "geometry": {
        "type": "Point", 
        "coordinates": [
          23.613, 
          43.394
        ]
      }, 
      "id": 12511410, 
      "properties": {
        "woe:id": 12511410, 
        "href": "/125/114/10/12511410.json", 
        "name": "Devene Airport"
      }
    }, 
    {
      "geometry": {
        "type": "Point", 
        "coordinates": [
          23.055, 
          42.090
        ]
      }, 
      "id": 12511449, 
      "properties": {
        "woe:id": 12511449, 
        "href": "/125/114/49/12511449.json", 
        "name": "Kocherinovo Airport"
      }
    }, 
    {
      "geometry": {
        "type": "Point", 
        "coordinates": [
          24.529, 
          42.069
        ]
      }, 
      "id": 12511485, 
      "properties": {
        "woe:id": 12511485, 
        "href": "/125/114/85/12511485.json", 
        "name": "Perushtitsa Airport"
      }
    }, 
    {
      "geometry": {
        "type": "Point", 
        "coordinates": [
          22.791, 
          43.648
        ]
      }, 
      "id": 12511463, 
      "properties": {
        "woe:id": 12511463, 
        "href": "/125/114/63/12511463.json", 
        "name": "Medovnitsa Airport"
      }
    }, 
    {
      "geometry": {
        "type": "Point", 
        "coordinates": [
          24.979, 
          42.114
        ]
      }, 
      "id": 12511405, 
      "properties": {
        "woe:id": 12511405, 
        "href": "/125/114/05/12511405.json", 
        "name": "Cheshnegirovo Airport"
      }
    }, 
    {
      "geometry": {
        "type": "Point", 
        "coordinates": [
          23.749, 
          42.425
        ]
      }, 
      "id": 12511404, 
      "properties": {
        "woe:id": 12511404, 
        "href": "/125/114/04/12511404.json", 
        "name": "Chernovo Airport"
      }
    }, 
    {
      "geometry": {
        "type": "Point", 
        "coordinates": [
          26.544, 
          42.194
        ]
      }, 
      "id": 12511421, 
      "properties": {
        "woe:id": 12511421, 
        "href": "/125/114/21/12511421.json", 
        "name": "Elkhovo Northwest Airport"
      }
    }, 
    {
      "geometry": {
        "type": "Point", 
        "coordinates": [
          24.233, 
          42.153
        ]
      }, 
      "id": 12511458, 
      "properties": {
        "woe:id": 12511458, 
        "href": "/125/114/58/12511458.json", 
        "name": "Lyakhovo Airport"
      }
    }, 
    {
      "geometry": {
        "type": "Point", 
        "coordinates": [
          27.293, 
          43.156
        ]
      }, 
      "id": 12511432, 
      "properties": {
        "woe:id": 12511432, 
        "href": "/125/114/32/12511432.json", 
        "name": "Gradinarovo Airport"
      }
    }, 
    {
      "geometry": {
        "type": "Point", 
        "coordinates": [
          28.354, 
          43.519
        ]
      }, 
      "id": 12511436, 
      "properties": {
        "woe:id": 12511436, 
        "href": "/125/114/36/12511436.json", 
        "name": "Irechek Airport"
      }
    }, 
    {
      "geometry": {
        "type": "Point", 
        "coordinates": [
          27.688, 
          43.720
        ]
      }, 
      "id": 12511456, 
      "properties": {
        "woe:id": 12511456, 
        "href": "/125/114/56/12511456.json", 
        "name": "Leskovo Airport"
      }
    }, 
    {
      "geometry": {
        "type": "Point", 
        "coordinates": [
          25.454, 
          43.510
        ]
      }, 
      "id": 12511444, 
      "properties": {
        "woe:id": 12511444, 
        "href": "/125/114/44/12511444.json", 
        "name": "Khadzhidimitrovo Airport"
      }
    }, 
    {
      "geometry": {
        "type": "Point", 
        "coordinates": [
          27.195, 
          42.452
        ]
      }, 
      "id": 12511457, 
      "properties": {
        "woe:id": 12511457, 
        "href": "/125/114/57/12511457.json", 
        "name": "Livada Airport"
      }
    }, 
    {
      "geometry": {
        "type": "Point", 
        "coordinates": [
          24.416, 
          42.314
        ]
      }, 
      "id": 12511480, 
      "properties": {
        "woe:id": 12511480, 
        "href": "/125/114/80/12511480.json", 
        "name": "Ovchepoltsi Airport"
      }
    }, 
    {
      "geometry": {
        "type": "Point", 
        "coordinates": [
          23.266, 
          43.546
        ]
      }, 
      "id": 12511422, 
      "properties": {
        "woe:id": 12511422, 
        "href": "/125/114/22/12511422.json", 
        "name": "Gabrovnitsa Airport"
      }
    }, 
    {
      "geometry": {
        "type": "Point", 
        "coordinates": [
          27.404, 
          42.801
        ]
      }, 
      "id": 12511494, 
      "properties": {
        "woe:id": 12511494, 
        "href": "/125/114/94/12511494.json", 
        "name": "Prosenik Airport"
      }
    }, 
    {
      "geometry": {
        "type": "Point", 
        "coordinates": [
          26.246, 
          42.315
        ]
      }, 
      "id": 12511508, 
      "properties": {
        "woe:id": 12511508, 
        "href": "/125/115/08/12511508.json", 
        "name": "Skalitsa Highway Strip Airport"
      }
    }, 
    {
      "geometry": {
        "type": "Point", 
        "coordinates": [
          25.647, 
          43.291
        ]
      }, 
      "id": 12511503, 
      "properties": {
        "woe:id": 12511503, 
        "href": "/125/115/03/12511503.json", 
        "name": "Sashevo Airport"
      }
    }, 
    {
      "geometry": {
        "type": "Point", 
        "coordinates": [
          26.854, 
          42.742
        ]
      }, 
      "id": 12511553, 
      "properties": {
        "woe:id": 12511553, 
        "href": "/125/115/53/12511553.json", 
        "name": "Vulchin Airport"
      }
    }, 
    {
      "geometry": {
        "type": "Point", 
        "coordinates": [
          27.679, 
          43.530
        ]
      }, 
      "id": 12511541, 
      "properties": {
        "woe:id": 12511541, 
        "href": "/125/115/41/12511541.json", 
        "name": "Vedrina Airport"
      }
    }, 
    {
      "geometry": {
        "type": "Point", 
        "coordinates": [
          22.858, 
          43.712
        ]
      }, 
      "id": 12511548, 
      "properties": {
        "woe:id": 12511548, 
        "href": "/125/115/48/12511548.json", 
        "name": "Vodnyantsi Airport"
      }
    }, 
    {
      "geometry": {
        "type": "Point", 
        "coordinates": [
          25.521, 
          43.616
        ]
      }, 
      "id": 12511538, 
      "properties": {
        "woe:id": 12511538, 
        "href": "/125/115/38/12511538.json", 
        "name": "Vardim Airport"
      }
    }, 
    {
      "geometry": {
        "type": "Point", 
        "coordinates": [
          27.064, 
          43.547
        ]
      }, 
      "id": 12511507, 
      "properties": {
        "woe:id": 12511507, 
        "href": "/125/115/07/12511507.json", 
        "name": "Sini Vir Airport"
      }
    }, 
    {
      "geometry": {
        "type": "Point", 
        "coordinates": [
          27.870, 
          43.823
        ]
      }, 
      "id": 12511559, 
      "properties": {
        "woe:id": 12511559, 
        "href": "/125/115/59/12511559.json", 
        "name": "Zhiten Airport"
      }
    }, 
    {
      "geometry": {
        "type": "Point", 
        "coordinates": [
          27.007, 
          43.428
        ]
      }, 
      "id": 12511542, 
      "properties": {
        "woe:id": 12511542, 
        "href": "/125/115/42/12511542.json", 
        "name": "Velino Airport"
      }
    }, 
    {
      "geometry": {
        "type": "Point", 
        "coordinates": [
          25.242, 
          43.623
        ]
      }, 
      "id": 12511525, 
      "properties": {
        "woe:id": 12511525, 
        "href": "/125/115/25/12511525.json", 
        "name": "Svishtov Airport"
      }
    }, 
    {
      "geometry": {
        "type": "Point", 
        "coordinates": [
          23.051, 
          42.175
        ]
      }, 
      "id": 12511515, 
      "properties": {
        "woe:id": 12511515, 
        "href": "/125/115/15/12511515.json", 
        "name": "Stanke Dimitrov Highway Strip Airport"
      }
    }, 
    {
      "geometry": {
        "type": "Point", 
        "coordinates": [
          22.893, 
          42.692
        ]
      }, 
      "id": 12511509, 
      "properties": {
        "woe:id": 12511509, 
        "href": "/125/115/09/12511509.json", 
        "name": "Slakovtsi Airport"
      }
    }, 
    {
      "geometry": {
        "type": "Point", 
        "coordinates": [
          27.835, 
          43.448
        ]
      }, 
      "id": 12511519, 
      "properties": {
        "woe:id": 12511519, 
        "href": "/125/115/19/12511519.json", 
        "name": "Stozher Airport"
      }
    }, 
    {
      "geometry": {
        "type": "Point", 
        "coordinates": [
          22.798, 
          44.020
        ]
      }, 
      "id": 12511512, 
      "properties": {
        "woe:id": 12511512, 
        "href": "/125/115/12/12511512.json", 
        "name": "Smurdan Airport"
      }
    }, 
    {
      "geometry": {
        "type": "Point", 
        "coordinates": [
          25.860, 
          43.663
        ]
      }, 
      "id": 12511531, 
      "properties": {
        "woe:id": 12511531, 
        "href": "/125/115/31/12511531.json", 
        "name": "Trastenik Airport"
      }
    }, 
    {
      "geometry": {
        "type": "Point", 
        "coordinates": [
          24.654, 
          42.442
        ]
      }, 
      "id": 12511516, 
      "properties": {
        "woe:id": 12511516, 
        "href": "/125/115/16/12511516.json", 
        "name": "Staro Zhelezare Airport"
      }
    }, 
    {
      "geometry": {
        "type": "Point", 
        "coordinates": [
          26.303, 
          43.834
        ]
      }, 
      "id": 12511528, 
      "properties": {
        "woe:id": 12511528, 
        "href": "/125/115/28/12511528.json", 
        "name": "Tetovo Airport"
      }
    }, 
    {
      "geometry": {
        "type": "Point", 
        "coordinates": [
          26.932, 
          43.295
        ]
      }, 
      "id": 12511506, 
      "properties": {
        "woe:id": 12511506, 
        "href": "/125/115/06/12511506.json", 
        "name": "Shumen North Airport"
      }
    }, 
    {
      "geometry": {
        "type": "Point", 
        "coordinates": [
          28.464, 
          43.439
        ]
      }, 
      "id": 12511523, 
      "properties": {
        "woe:id": 12511523, 
        "href": "/125/115/23/12511523.json", 
        "name": "Sveti Nikola West Airport"
      }
    }, 
    {
      "geometry": {
        "type": "Point", 
        "coordinates": [
          24.569, 
          42.207
        ]
      }, 
      "id": 12511535, 
      "properties": {
        "woe:id": 12511535, 
        "href": "/125/115/35/12511535.json", 
        "name": "Tsalapitsa Highway Strip Airport"
      }
    }, 
    {
      "geometry": {
        "type": "Point", 
        "coordinates": [
          25.890, 
          42.039
        ]
      }, 
      "id": 12511524, 
      "properties": {
        "woe:id": 12511524, 
        "href": "/125/115/24/12511524.json", 
        "name": "Svirkovo Airport"
      }
    }, 
    {
      "geometry": {
        "type": "Point", 
        "coordinates": [
          27.499, 
          43.136
        ]
      }, 
      "id": 12511560, 
      "properties": {
        "woe:id": 12511560, 
        "href": "/125/115/60/12511560.json", 
        "name": "Zhitnitsa Airport"
      }
    }, 
    {
      "geometry": {
        "type": "Point", 
        "coordinates": [
          27.664, 
          43.863
        ]
      }, 
      "id": 12511526, 
      "properties": {
        "woe:id": 12511526, 
        "href": "/125/115/26/12511526.json", 
        "name": "Telerig Airport"
      }
    }, 
    {
      "geometry": {
        "type": "Point", 
        "coordinates": [
          22.997, 
          42.838
        ]
      }, 
      "id": 12511511, 
      "properties": {
        "woe:id": 12511511, 
        "href": "/125/115/11/12511511.json", 
        "name": "Slivnitsa Airport"
      }
    }, 
    {
      "geometry": {
        "type": "Point", 
        "coordinates": [
          27.840, 
          43.517
        ]
      }, 
      "id": 12511517, 
      "properties": {
        "woe:id": 12511517, 
        "href": "/125/115/17/12511517.json", 
        "name": "Stefanovo Airport"
      }
    }, 
    {
      "geometry": {
        "type": "Point", 
        "coordinates": [
          26.613, 
          43.266
        ]
      }, 
      "id": 12511539, 
      "properties": {
        "woe:id": 12511539, 
        "href": "/125/115/39/12511539.json", 
        "name": "Vasillevski Airport"
      }
    }, 
    {
      "geometry": {
        "type": "Point", 
        "coordinates": [
          25.590, 
          41.973
        ]
      }, 
      "id": 12511537, 
      "properties": {
        "woe:id": 12511537, 
        "href": "/125/115/37/12511537.json", 
        "name": "Uzundzhovo Airport"
      }
    }, 
    {
      "geometry": {
        "type": "Point", 
        "coordinates": [
          26.813, 
          43.775
        ]
      }, 
      "id": 12511540, 
      "properties": {
        "woe:id": 12511540, 
        "href": "/125/115/40/12511540.json", 
        "name": "Vasovo Airport"
      }
    }, 
    {
      "geometry": {
        "type": "Point", 
        "coordinates": [
          24.242, 
          43.338
        ]
      }, 
      "id": 12511527, 
      "properties": {
        "woe:id": 12511527, 
        "href": "/125/115/27/12511527.json", 
        "name": "Telish Airport"
      }
    }, 
    {
      "geometry": {
        "type": "Point", 
        "coordinates": [
          26.628, 
          42.593
        ]
      }, 
      "id": 12511561, 
      "properties": {
        "woe:id": 12511561, 
        "href": "/125/115/61/12511561.json", 
        "name": "Zimnitsa Airport"
      }
    }, 
    {
      "geometry": {
        "type": "Point", 
        "coordinates": [
          27.084, 
          43.404
        ]
      }, 
      "id": 12511555, 
      "properties": {
        "woe:id": 12511555, 
        "href": "/125/115/55/12511555.json", 
        "name": "Vurbyane Airport"
      }
    }, 
    {
      "geometry": {
        "type": "Point", 
        "coordinates": [
          27.806, 
          43.165
        ]
      }, 
      "id": 12511562, 
      "properties": {
        "woe:id": 12511562, 
        "href": "/125/115/62/12511562.json", 
        "name": "Zvezditsa Airport"
      }
    }, 
    {
      "geometry": {
        "type": "Point", 
        "coordinates": [
          27.284, 
          42.805
        ]
      }, 
      "id": 12511500, 
      "properties": {
        "woe:id": 12511500, 
        "href": "/125/115/00/12511500.json", 
        "name": "Ruen Airport"
      }
    }, 
    {
      "geometry": {
        "type": "Point", 
        "coordinates": [
          23.240, 
          42.306
        ]
      }, 
      "id": 12511514, 
      "properties": {
        "woe:id": 12511514, 
        "href": "/125/115/14/12511514.json", 
        "name": "Stanke Dimitrov Airport"
      }
    }, 
    {
      "geometry": {
        "type": "Point", 
        "coordinates": [
          25.144, 
          43.510
        ]
      }, 
      "id": 12511518, 
      "properties": {
        "woe:id": 12511518, 
        "href": "/125/115/18/12511518.json", 
        "name": "Stezherovo Airport"
      }
    }, 
    {
      "geometry": {
        "type": "Point", 
        "coordinates": [
          26.047, 
          43.877
        ]
      }, 
      "id": 12511501, 
      "properties": {
        "woe:id": 12511501, 
        "href": "/125/115/01/12511501.json", 
        "name": "Rousse Airport", 
        "iata:code": "ROU"
      }
    }, 
    {
      "geometry": {
        "type": "Point", 
        "coordinates": [
          24.639, 
          42.223
        ]
      }, 
      "id": 12511550, 
      "properties": {
        "woe:id": 12511550, 
        "href": "/125/115/50/12511550.json", 
        "name": "Voysil Airport"
      }
    }, 
    {
      "geometry": {
        "type": "Point", 
        "coordinates": [
          22.611, 
          43.799
        ]
      }, 
      "id": 12511530, 
      "properties": {
        "woe:id": 12511530, 
        "href": "/125/115/30/12511530.json", 
        "name": "Toshevtsi Airport"
      }
    }, 
    {
      "geometry": {
        "type": "Point", 
        "coordinates": [
          26.243, 
          43.986
        ]
      }, 
      "id": 12511502, 
      "properties": {
        "woe:id": 12511502, 
        "href": "/125/115/02/12511502.json", 
        "name": "Ryakhovo Airport"
      }
    }, 
    {
      "geometry": {
        "type": "Point", 
        "coordinates": [
          25.171, 
          42.333
        ]
      }, 
      "id": 12511543, 
      "properties": {
        "woe:id": 12511543, 
        "href": "/125/115/43/12511543.json", 
        "name": "Veren Airport"
      }
    }, 
    {
      "geometry": {
        "type": "Point", 
        "coordinates": [
          27.727, 
          43.386
        ]
      }, 
      "id": 12511546, 
      "properties": {
        "woe:id": 12511546, 
        "href": "/125/115/46/12511546.json", 
        "name": "Voditsa Airport"
      }
    }, 
    {
      "geometry": {
        "type": "Point", 
        "coordinates": [
          27.828, 
          43.236
        ]
      }, 
      "id": 12511529, 
      "properties": {
        "woe:id": 12511529, 
        "href": "/125/115/29/12511529.json", 
        "name": "Topoli Airport", 
        "iata:code": "VAR"
      }
    }, 
    {
      "geometry": {
        "type": "Point", 
        "coordinates": [
          27.293, 
          42.422
        ]
      }, 
      "id": 12511533, 
      "properties": {
        "woe:id": 12511533, 
        "href": "/125/115/33/12511533.json", 
        "name": "Trustikovo Airport"
      }
    }, 
    {
      "geometry": {
        "type": "Point", 
        "coordinates": [
          27.135, 
          43.860
        ]
      }, 
      "id": 12511547, 
      "properties": {
        "woe:id": 12511547, 
        "href": "/125/115/47/12511547.json", 
        "name": "Vodno Airport"
      }
    }, 
    {
      "geometry": {
        "type": "Point", 
        "coordinates": [
          25.638, 
          42.609
        ]
      }, 
      "id": 12511545, 
      "properties": {
        "woe:id": 12511545, 
        "href": "/125/115/45/12511545.json", 
        "name": "Vetren Airport"
      }
    }, 
    {
      "geometry": {
        "type": "Point", 
        "coordinates": [
          23.405, 
          42.688
        ]
      }, 
      "id": 12511552, 
      "properties": {
        "woe:id": 12511552, 
        "href": "/125/115/52/12511552.json", 
        "name": "Vrazhdebna Airport", 
        "iata:code": "SOF"
      }
    }, 
    {
      "geometry": {
        "type": "Point", 
        "coordinates": [
          24.897, 
          42.395
        ]
      }, 
      "id": 12511520, 
      "properties": {
        "woe:id": 12511520, 
        "href": "/125/115/20/12511520.json", 
        "name": "Streltsi Airport"
      }
    }, 
    {
      "geometry": {
        "type": "Point", 
        "coordinates": [
          28.316, 
          43.720
        ]
      }, 
      "id": 12511513, 
      "properties": {
        "woe:id": 12511513, 
        "href": "/125/115/13/12511513.json", 
        "name": "Spasovo North Airport"
      }
    }, 
    {
      "geometry": {
        "type": "Point", 
        "coordinates": [
          23.528, 
          43.258
        ]
      }, 
      "id": 12511551, 
      "properties": {
        "woe:id": 12511551, 
        "href": "/125/115/51/12511551.json", 
        "name": "Vratsa North Airport"
      }
    }, 
    {
      "geometry": {
        "type": "Point", 
        "coordinates": [
          26.437, 
          43.984
        ]
      }, 
      "id": 12511534, 
      "properties": {
        "woe:id": 12511534, 
        "href": "/125/115/34/12511534.json", 
        "name": "Tsa Samuil Airport"
      }
    }, 
    {
      "geometry": {
        "type": "Point", 
        "coordinates": [
          27.218, 
          43.599
        ]
      }, 
      "id": 12511554, 
      "properties": {
        "woe:id": 12511554, 
        "href": "/125/115/54/12511554.json", 
        "name": "Vulnari Airport"
      }
    }, 
    {
      "geometry": {
        "type": "Point", 
        "coordinates": [
          26.730, 
          42.757
        ]
      }, 
      "id": 12511510, 
      "properties": {
        "woe:id": 12511510, 
        "href": "/125/115/10/12511510.json", 
        "name": "Slavyantsi Airport"
      }
    }, 
    {
      "geometry": {
        "type": "Point", 
        "coordinates": [
          26.844, 
          42.378
        ]
      }, 
      "id": 12511549, 
      "properties": {
        "woe:id": 12511549, 
        "href": "/125/115/49/12511549.json", 
        "name": "Voynika Airport"
      }
    }, 
    {
      "geometry": {
        "type": "Point", 
        "coordinates": [
          26.064, 
          43.692
        ]
      }, 
      "id": 12511505, 
      "properties": {
        "woe:id": 12511505, 
        "href": "/125/115/05/12511505.json", 
        "name": "Shtruklovo Airport"
      }
    }, 
    {
      "geometry": {
        "type": "Point", 
        "coordinates": [
          28.040, 
          43.540
        ]
      }, 
      "id": 12511504, 
      "properties": {
        "woe:id": 12511504, 
        "href": "/125/115/04/12511504.json", 
        "name": "Senokos Airport"
      }
    }, 
    {
      "geometry": {
        "type": "Point", 
        "coordinates": [
          24.861, 
          42.284
        ]
      }, 
      "id": 12511521, 
      "properties": {
        "woe:id": 12511521, 
        "href": "/125/115/21/12511521.json", 
        "name": "Stryama Airport"
      }
    }, 
    {
      "geometry": {
        "type": "Point", 
        "coordinates": [
          26.659, 
          43.741
        ]
      }, 
      "id": 12511558, 
      "properties": {
        "woe:id": 12511558, 
        "href": "/125/115/58/12511558.json", 
        "name": "Zavet Airport"
      }
    }, 
    {
      "geometry": {
        "type": "Point", 
        "coordinates": [
          27.140, 
          42.570
        ]
      }, 
      "id": 12511532, 
      "properties": {
        "woe:id": 12511532, 
        "href": "/125/115/32/12511532.json", 
        "name": "Troyanovo Airport"
      }
    }, 
    {
      "geometry": {
        "type": "Point", 
        "coordinates": [
          25.751, 
          43.046
        ]
      }, 
      "id": 12511536, 
      "properties": {
        "woe:id": 12511536, 
        "href": "/125/115/36/12511536.json", 
        "name": "Tserova Koriya Airport"
      }
    }, 
    {
      "geometry": {
        "type": "Point", 
        "coordinates": [
          26.495, 
          42.514
        ]
      }, 
      "id": 12511556, 
      "properties": {
        "woe:id": 12511556, 
        "href": "/125/115/56/12511556.json", 
        "name": "Jambol Airport", 
        "iata:code": "JAM"
      }
    }, 
    {
      "geometry": {
        "type": "Point", 
        "coordinates": [
          26.704, 
          43.804
        ]
      }, 
      "id": 12511544, 
      "properties": {
        "woe:id": 12511544, 
        "href": "/125/115/44/12511544.json", 
        "name": "Veselets Airport"
      }
    }, 
    {
      "geometry": {
        "type": "Point", 
        "coordinates": [
          27.072, 
          42.406
        ]
      }, 
      "id": 12511557, 
      "properties": {
        "woe:id": 12511557, 
        "href": "/125/115/57/12511557.json", 
        "name": "Zagortsi Airport"
      }
    }, 
    {
      "geometry": {
        "type": "Point", 
        "coordinates": [
          26.062, 
          42.516
        ]
      }, 
      "id": 12511522, 
      "properties": {
        "woe:id": 12511522, 
        "href": "/125/115/22/12511522.json", 
        "name": "Sudievo Airport"
      }
    }
  ], 
  "properties": {
    "woe:id": 23424771, 
    "iso": "BG"
  }
}