{
  "type": "FeatureCollection", 
  "features": [
    {
      "geometry": {
        "type": "Point", 
        "coordinates": [
          25.926, 
          -24.560
        ]
      }, 
      "id": 12510841, 
      "properties": {
        "woe:id": 12510841, 
        "href": "/125/108/41/12510841.json", 
        "name": "Sir Seretse Khama International Airport", 
        "iata:code": "GBE"
      }
    }, 
    {
      "geometry": {
        "type": "Point", 
        "coordinates": [
          25.317, 
          -21.267
        ]
      }, 
      "id": 12510838, 
      "properties": {
        "woe:id": 12510838, 
        "href": "/125/108/38/12510838.json", 
        "name": "Orapa Airport", 
        "iata:code": "ORP"
      }
    }, 
    {
      "geometry": {
        "type": "Point", 
        "coordinates": [
          27.483, 
          -21.160
        ]
      }, 
      "id": 12510835, 
      "properties": {
        "woe:id": 12510835, 
        "href": "/125/108/35/12510835.json", 
        "name": "Francistown Airport"
      }
    }, 
    {
      "geometry": {
        "type": "Point", 
        "coordinates": [
          27.820, 
          -22.055
        ]
      }, 
      "id": 12510839, 
      "properties": {
        "woe:id": 12510839, 
        "href": "/125/108/39/12510839.json", 
        "name": "Selebi Phikwe Airport", 
        "iata:code": "PKW"
      }
    }, 
    {
      "geometry": {
        "type": "Point", 
        "coordinates": [
          23.428, 
          -19.976
        ]
      }, 
      "id": 12510837, 
      "properties": {
        "woe:id": 12510837, 
        "href": "/125/108/37/12510837.json", 
        "name": "Maun Airport", 
        "iata:code": "MUB"
      }
    }, 
    {
      "geometry": {
        "type": "Point", 
        "coordinates": [
          27.956, 
          -22.917
        ]
      }, 
      "id": 12510840, 
      "properties": {
        "woe:id": 12510840, 
        "href": "/125/108/40/12510840.json", 
        "name": "Sherwood North Airport"
      }
    }, 
    {
      "geometry": {
        "type": "Point", 
        "coordinates": [
          28.291, 
          -22.604
        ]
      }, 
      "id": 12510834, 
      "properties": {
        "woe:id": 12510834, 
        "href": "/125/108/34/12510834.json", 
        "name": "Arizona Farm Airport"
      }
    }, 
    {
      "geometry": {
        "type": "Point", 
        "coordinates": [
          24.692, 
          -24.602
        ]
      }, 
      "id": 12510836, 
      "properties": {
        "woe:id": 12510836, 
        "href": "/125/108/36/12510836.json", 
        "name": "Jwaneng Airport"
      }
    }, 
    {
      "geometry": {
        "type": "Point", 
        "coordinates": [
          26.750, 
          -22.417
        ]
      }, 
      "id": 12523235, 
      "properties": {
        "woe:id": 12523235, 
        "href": "/125/232/35/12523235.json", 
        "name": "Serowe Airport"
      }
    }, 
    {
      "geometry": {
        "type": "Point", 
        "coordinates": [
          25.163, 
          -17.829
        ]
      }, 
      "id": 12523069, 
      "properties": {
        "woe:id": 12523069, 
        "href": "/125/230/69/12523069.json", 
        "name": "Kasane Airport", 
        "iata:code": "BBK"
      }
    }
  ], 
  "properties": {
    "woe:id": 23424755, 
    "iso": "BW"
  }
}