{
  "type": "FeatureCollection", 
  "features": [
    {
      "geometry": {
        "type": "Point", 
        "coordinates": [
          31.171, 
          52.308
        ]
      }, 
      "id": 12510981, 
      "properties": {
        "woe:id": 12510981, 
        "href": "/125/109/81/12510981.json", 
        "name": "Pribytki Airport"
      }
    }, 
    {
      "geometry": {
        "type": "Point", 
        "coordinates": [
          32.161, 
          53.504
        ]
      }, 
      "id": 12510983, 
      "properties": {
        "woe:id": 12510983, 
        "href": "/125/109/83/12510983.json", 
        "name": "Rodnya Airport"
      }
    }, 
    {
      "geometry": {
        "type": "Point", 
        "coordinates": [
          30.820, 
          53.143
        ]
      }, 
      "id": 12510953, 
      "properties": {
        "woe:id": 12510953, 
        "href": "/125/109/53/12510953.json", 
        "name": "Korma Airport"
      }
    }, 
    {
      "geometry": {
        "type": "Point", 
        "coordinates": [
          28.743, 
          55.430
        ]
      }, 
      "id": 12510978, 
      "properties": {
        "woe:id": 12510978, 
        "href": "/125/109/78/12510978.json", 
        "name": "Polotsk South Airport"
      }
    }, 
    {
      "geometry": {
        "type": "Point", 
        "coordinates": [
          30.373, 
          52.913
        ]
      }, 
      "id": 12510941, 
      "properties": {
        "woe:id": 12510941, 
        "href": "/125/109/41/12510941.json", 
        "name": "Belitsk Airport"
      }
    }, 
    {
      "geometry": {
        "type": "Point", 
        "coordinates": [
          23.731, 
          53.640
        ]
      }, 
      "id": 12510948, 
      "properties": {
        "woe:id": 12510948, 
        "href": "/125/109/48/12510948.json", 
        "name": "Grodno Airport"
      }
    }, 
    {
      "geometry": {
        "type": "Point", 
        "coordinates": [
          28.718, 
          54.887
        ]
      }, 
      "id": 12510959, 
      "properties": {
        "woe:id": 12510959, 
        "href": "/125/109/59/12510959.json", 
        "name": "Lepel Zelenka Airport"
      }
    }, 
    {
      "geometry": {
        "type": "Point", 
        "coordinates": [
          24.431, 
          52.628
        ]
      }, 
      "id": 12510942, 
      "properties": {
        "woe:id": 12510942, 
        "href": "/125/109/42/12510942.json", 
        "name": "Belosowshchina Airport"
      }
    }, 
    {
      "geometry": {
        "type": "Point", 
        "coordinates": [
          30.353, 
          55.141
        ]
      }, 
      "id": 12510997, 
      "properties": {
        "woe:id": 12510997, 
        "href": "/125/109/97/12510997.json", 
        "name": "Vitebsk Southwest Airport", 
        "iata:code": "VTB"
      }
    }, 
    {
      "geometry": {
        "type": "Point", 
        "coordinates": [
          26.429, 
          54.465
        ]
      }, 
      "id": 12510991, 
      "properties": {
        "woe:id": 12510991, 
        "href": "/125/109/91/12510991.json", 
        "name": "Smorgon Southeast Airport"
      }
    }, 
    {
      "geometry": {
        "type": "Point", 
        "coordinates": [
          31.022, 
          52.527
        ]
      }, 
      "id": 12510976, 
      "properties": {
        "woe:id": 12510976, 
        "href": "/125/109/76/12510976.json", 
        "name": "Pokoiyubichi Airport"
      }
    }, 
    {
      "geometry": {
        "type": "Point", 
        "coordinates": [
          28.692, 
          51.771
        ]
      }, 
      "id": 12510988, 
      "properties": {
        "woe:id": 12510988, 
        "href": "/125/109/88/12510988.json", 
        "name": "Sinitskoye Pole Airport"
      }
    }, 
    {
      "geometry": {
        "type": "Point", 
        "coordinates": [
          25.851, 
          52.923
        ]
      }, 
      "id": 12510964, 
      "properties": {
        "woe:id": 12510964, 
        "href": "/125/109/64/12510964.json", 
        "name": "Milovidy Airport"
      }
    }, 
    {
      "geometry": {
        "type": "Point", 
        "coordinates": [
          25.529, 
          52.325
        ]
      }, 
      "id": 12510969, 
      "properties": {
        "woe:id": 12510969, 
        "href": "/125/109/69/12510969.json", 
        "name": "Motol Airport"
      }
    }, 
    {
      "geometry": {
        "type": "Point", 
        "coordinates": [
          30.265, 
          55.269
        ]
      }, 
      "id": 12510996, 
      "properties": {
        "woe:id": 12510996, 
        "href": "/125/109/96/12510996.json", 
        "name": "Vitebsk Northeast Airport"
      }
    }, 
    {
      "geometry": {
        "type": "Point", 
        "coordinates": [
          23.418, 
          52.361
        ]
      }, 
      "id": 12510999, 
      "properties": {
        "woe:id": 12510999, 
        "href": "/125/109/99/12510999.json", 
        "name": "Vysokoye Airport"
      }
    }, 
    {
      "geometry": {
        "type": "Point", 
        "coordinates": [
          24.396, 
          52.171
        ]
      }, 
      "id": 12510989, 
      "properties": {
        "woe:id": 12510989, 
        "href": "/125/109/89/12510989.json", 
        "name": "Slavki Airport"
      }
    }, 
    {
      "geometry": {
        "type": "Point", 
        "coordinates": [
          25.272, 
          53.931
        ]
      }, 
      "id": 12510960, 
      "properties": {
        "woe:id": 12510960, 
        "href": "/125/109/60/12510960.json", 
        "name": "Lida North Airport"
      }
    }, 
    {
      "geometry": {
        "type": "Point", 
        "coordinates": [
          26.128, 
          52.167
        ]
      }, 
      "id": 12510975, 
      "properties": {
        "woe:id": 12510975, 
        "href": "/125/109/75/12510975.json", 
        "name": "Pinsk Airport"
      }
    }, 
    {
      "geometry": {
        "type": "Point", 
        "coordinates": [
          25.962, 
          53.146
        ]
      }, 
      "id": 12510940, 
      "properties": {
        "woe:id": 12510940, 
        "href": "/125/109/40/12510940.json", 
        "name": "Baranovichi Northwest Airport"
      }
    }, 
    {
      "geometry": {
        "type": "Point", 
        "coordinates": [
          30.313, 
          51.596
        ]
      }, 
      "id": 12510987, 
      "properties": {
        "woe:id": 12510987, 
        "href": "/125/109/87/12510987.json", 
        "name": "Savichi Airport"
      }
    }, 
    {
      "geometry": {
        "type": "Point", 
        "coordinates": [
          26.769, 
          52.280
        ]
      }, 
      "id": 12510961, 
      "properties": {
        "woe:id": 12510961, 
        "href": "/125/109/61/12510961.json", 
        "name": "Luninets North Airport"
      }
    }, 
    {
      "geometry": {
        "type": "Point", 
        "coordinates": [
          27.648, 
          53.968
        ]
      }, 
      "id": 12510965, 
      "properties": {
        "woe:id": 12510965, 
        "href": "/125/109/65/12510965.json", 
        "name": "Minsk Northeast Airport"
      }
    }, 
    {
      "geometry": {
        "type": "Point", 
        "coordinates": [
          31.929, 
          53.735
        ]
      }, 
      "id": 12510955, 
      "properties": {
        "woe:id": 12510955, 
        "href": "/125/109/55/12510955.json", 
        "name": "Krichev Airport"
      }
    }, 
    {
      "geometry": {
        "type": "Point", 
        "coordinates": [
          30.256, 
          53.957
        ]
      }, 
      "id": 12510974, 
      "properties": {
        "woe:id": 12510974, 
        "href": "/125/109/74/12510974.json", 
        "name": "Pashkovo Airport"
      }
    }, 
    {
      "geometry": {
        "type": "Point", 
        "coordinates": [
          27.699, 
          55.670
        ]
      }, 
      "id": 12510967, 
      "properties": {
        "woe:id": 12510967, 
        "href": "/125/109/67/12510967.json", 
        "name": "Miory Airport"
      }
    }, 
    {
      "geometry": {
        "type": "Point", 
        "coordinates": [
          24.293, 
          53.479
        ]
      }, 
      "id": 12510962, 
      "properties": {
        "woe:id": 12510962, 
        "href": "/125/109/62/12510962.json", 
        "name": "Lunna Airport"
      }
    }, 
    {
      "geometry": {
        "type": "Point", 
        "coordinates": [
          26.302, 
          54.541
        ]
      }, 
      "id": 12510990, 
      "properties": {
        "woe:id": 12510990, 
        "href": "/125/109/90/12510990.json", 
        "name": "Smorgon Northwest Airport"
      }
    }, 
    {
      "geometry": {
        "type": "Point", 
        "coordinates": [
          30.304, 
          54.455
        ]
      }, 
      "id": 12510973, 
      "properties": {
        "woe:id": 12510973, 
        "href": "/125/109/73/12510973.json", 
        "name": "Orsha Southwest Airport"
      }
    }, 
    {
      "geometry": {
        "type": "Point", 
        "coordinates": [
          29.355, 
          52.206
        ]
      }, 
      "id": 12510950, 
      "properties": {
        "woe:id": 12510950, 
        "href": "/125/109/50/12510950.json", 
        "name": "Kalinkovichi North Airport"
      }
    }, 
    {
      "geometry": {
        "type": "Point", 
        "coordinates": [
          29.171, 
          51.974
        ]
      }, 
      "id": 12510970, 
      "properties": {
        "woe:id": 12510970, 
        "href": "/125/109/70/12510970.json", 
        "name": "Mozyr Airport"
      }
    }, 
    {
      "geometry": {
        "type": "Point", 
        "coordinates": [
          29.988, 
          55.173
        ]
      }, 
      "id": 12510998, 
      "properties": {
        "woe:id": 12510998, 
        "href": "/125/109/98/12510998.json", 
        "name": "Vitebsk West Airport"
      }
    }, 
    {
      "geometry": {
        "type": "Point", 
        "coordinates": [
          31.326, 
          52.803
        ]
      }, 
      "id": 12510993, 
      "properties": {
        "woe:id": 12510993, 
        "href": "/125/109/93/12510993.json", 
        "name": "Svetilovichi Airport"
      }
    }, 
    {
      "geometry": {
        "type": "Point", 
        "coordinates": [
          29.387, 
          54.385
        ]
      }, 
      "id": 12510943, 
      "properties": {
        "woe:id": 12510943, 
        "href": "/125/109/43/12510943.json", 
        "name": "Bobr East Airport"
      }
    }, 
    {
      "geometry": {
        "type": "Point", 
        "coordinates": [
          25.320, 
          53.536
        ]
      }, 
      "id": 12510946, 
      "properties": {
        "woe:id": 12510946, 
        "href": "/125/109/46/12510946.json", 
        "name": "Dyatlovo Airport"
      }
    }, 
    {
      "geometry": {
        "type": "Point", 
        "coordinates": [
          30.435, 
          52.291
        ]
      }, 
      "id": 12510982, 
      "properties": {
        "woe:id": 12510982, 
        "href": "/125/109/82/12510982.json", 
        "name": "Rechitsa South Airport"
      }
    }, 
    {
      "geometry": {
        "type": "Point", 
        "coordinates": [
          29.577, 
          53.323
        ]
      }, 
      "id": 12510971, 
      "properties": {
        "woe:id": 12510971, 
        "href": "/125/109/71/12510971.json", 
        "name": "Novgorodok Airport"
      }
    }, 
    {
      "geometry": {
        "type": "Point", 
        "coordinates": [
          26.578, 
          53.336
        ]
      }, 
      "id": 12510947, 
      "properties": {
        "woe:id": 12510947, 
        "href": "/125/109/47/12510947.json", 
        "name": "Gorodeya Airport"
      }
    }, 
    {
      "geometry": {
        "type": "Point", 
        "coordinates": [
          28.660, 
          55.629
        ]
      }, 
      "id": 12510977, 
      "properties": {
        "woe:id": 12510977, 
        "href": "/125/109/77/12510977.json", 
        "name": "Polotsk Northwest Airport"
      }
    }, 
    {
      "geometry": {
        "type": "Point", 
        "coordinates": [
          24.557, 
          52.495
        ]
      }, 
      "id": 12510972, 
      "properties": {
        "woe:id": 12510972, 
        "href": "/125/109/72/12510972.json", 
        "name": "Oranchitsy Airport"
      }
    }, 
    {
      "geometry": {
        "type": "Point", 
        "coordinates": [
          24.818, 
          52.885
        ]
      }, 
      "id": 12510986, 
      "properties": {
        "woe:id": 12510986, 
        "href": "/125/109/86/12510986.json", 
        "name": "Ruzhany Airport"
      }
    }, 
    {
      "geometry": {
        "type": "Point", 
        "coordinates": [
          23.900, 
          52.113
        ]
      }, 
      "id": 12510945, 
      "properties": {
        "woe:id": 12510945, 
        "href": "/125/109/45/12510945.json", 
        "name": "Brest East Airport", 
        "iata:code": "BQT"
      }
    }, 
    {
      "geometry": {
        "type": "Point", 
        "coordinates": [
          28.482, 
          53.047
        ]
      }, 
      "id": 12510992, 
      "properties": {
        "woe:id": 12510992, 
        "href": "/125/109/92/12510992.json", 
        "name": "Staryye Dorogi Airport"
      }
    }, 
    {
      "geometry": {
        "type": "Point", 
        "coordinates": [
          28.036, 
          53.888
        ]
      }, 
      "id": 12510995, 
      "properties": {
        "woe:id": 12510995, 
        "href": "/125/109/95/12510995.json", 
        "name": "Velikiydvor Airport", 
        "iata:code": "MSQ"
      }
    }, 
    {
      "geometry": {
        "type": "Point", 
        "coordinates": [
          32.199, 
          53.516
        ]
      }, 
      "id": 12510984, 
      "properties": {
        "woe:id": 12510984, 
        "href": "/125/109/84/12510984.json", 
        "name": "Rodnyaeast Airport"
      }
    }, 
    {
      "geometry": {
        "type": "Point", 
        "coordinates": [
          26.681, 
          54.928
        ]
      }, 
      "id": 12510952, 
      "properties": {
        "woe:id": 12510952, 
        "href": "/125/109/52/12510952.json", 
        "name": "Kobylniki Airport"
      }
    }, 
    {
      "geometry": {
        "type": "Point", 
        "coordinates": [
          29.982, 
          51.610
        ]
      }, 
      "id": 12510951, 
      "properties": {
        "woe:id": 12510951, 
        "href": "/125/109/51/12510951.json", 
        "name": "Khutor Lesok Airport"
      }
    }, 
    {
      "geometry": {
        "type": "Point", 
        "coordinates": [
          27.535, 
          53.871
        ]
      }, 
      "id": 12510966, 
      "properties": {
        "woe:id": 12510966, 
        "href": "/125/109/66/12510966.json", 
        "name": "Minsk International 1"
      }
    }, 
    {
      "geometry": {
        "type": "Point", 
        "coordinates": [
          31.867, 
          53.492
        ]
      }, 
      "id": 12510954, 
      "properties": {
        "woe:id": 12510954, 
        "href": "/125/109/54/12510954.json", 
        "name": "Krasovichi Airport"
      }
    }, 
    {
      "geometry": {
        "type": "Point", 
        "coordinates": [
          26.898, 
          54.341
        ]
      }, 
      "id": 12510968, 
      "properties": {
        "woe:id": 12510968, 
        "href": "/125/109/68/12510968.json", 
        "name": "Molodechno Northeast Airport"
      }
    }, 
    {
      "geometry": {
        "type": "Point", 
        "coordinates": [
          26.830, 
          55.151
        ]
      }, 
      "id": 12510979, 
      "properties": {
        "woe:id": 12510979, 
        "href": "/125/109/79/12510979.json", 
        "name": "Postavy North Airport"
      }
    }, 
    {
      "geometry": {
        "type": "Point", 
        "coordinates": [
          24.043, 
          53.601
        ]
      }, 
      "id": 12510949, 
      "properties": {
        "woe:id": 12510949, 
        "href": "/125/109/49/12510949.json", 
        "name": "Grodno Southeast Airport", 
        "iata:code": "GNA"
      }
    }, 
    {
      "geometry": {
        "type": "Point", 
        "coordinates": [
          24.371, 
          53.318
        ]
      }, 
      "id": 12510985, 
      "properties": {
        "woe:id": 12510985, 
        "href": "/125/109/85/12510985.json", 
        "name": "Ross Airport"
      }
    }, 
    {
      "geometry": {
        "type": "Point", 
        "coordinates": [
          27.579, 
          53.779
        ]
      }, 
      "id": 12510963, 
      "properties": {
        "woe:id": 12510963, 
        "href": "/125/109/63/12510963.json", 
        "name": "Machulishche Airport"
      }
    }, 
    {
      "geometry": {
        "type": "Point", 
        "coordinates": [
          28.839, 
          54.909
        ]
      }, 
      "id": 12510958, 
      "properties": {
        "woe:id": 12510958, 
        "href": "/125/109/58/12510958.json", 
        "name": "Lepel East Airport"
      }
    }, 
    {
      "geometry": {
        "type": "Point", 
        "coordinates": [
          24.532, 
          52.804
        ]
      }, 
      "id": 12510956, 
      "properties": {
        "woe:id": 12510956, 
        "href": "/125/109/56/12510956.json", 
        "name": "Kuklichi Airport"
      }
    }, 
    {
      "geometry": {
        "type": "Point", 
        "coordinates": [
          29.345, 
          52.288
        ]
      }, 
      "id": 12510944, 
      "properties": {
        "woe:id": 12510944, 
        "href": "/125/109/44/12510944.json", 
        "name": "Bobrovichi Airport"
      }
    }, 
    {
      "geometry": {
        "type": "Point", 
        "coordinates": [
          26.908, 
          54.593
        ]
      }, 
      "id": 12510957, 
      "properties": {
        "woe:id": 12510957, 
        "href": "/125/109/57/12510957.json", 
        "name": "Kurenets Airport"
      }
    }, 
    {
      "geometry": {
        "type": "Point", 
        "coordinates": [
          24.772, 
          52.439
        ]
      }, 
      "id": 12510980, 
      "properties": {
        "woe:id": 12510980, 
        "href": "/125/109/80/12510980.json", 
        "name": "Postolovo Airport"
      }
    }, 
    {
      "geometry": {
        "type": "Point", 
        "coordinates": [
          29.131, 
          53.213
        ]
      }, 
      "id": 12510994, 
      "properties": {
        "woe:id": 12510994, 
        "href": "/125/109/94/12510994.json", 
        "name": "Sychkovo Airport"
      }
    }, 
    {
      "geometry": {
        "type": "Point", 
        "coordinates": [
          30.133, 
          53.950
        ]
      }, 
      "id": 12523773, 
      "properties": {
        "woe:id": 12523773, 
        "href": "/125/237/73/12523773.json", 
        "name": "Mogilev Airport", 
        "iata:code": "MVQ"
      }
    }, 
    {
      "geometry": {
        "type": "Point", 
        "coordinates": [
          24.983, 
          53.593
        ]
      }, 
      "id": 12511003, 
      "properties": {
        "woe:id": 12511003, 
        "href": "/125/110/03/12511003.json", 
        "name": "Zheludok Airport"
      }
    }, 
    {
      "geometry": {
        "type": "Point", 
        "coordinates": [
          30.707, 
          55.340
        ]
      }, 
      "id": 12511000, 
      "properties": {
        "woe:id": 12511000, 
        "href": "/125/110/00/12511000.json", 
        "name": "Yanovichi Airport"
      }
    }, 
    {
      "geometry": {
        "type": "Point", 
        "coordinates": [
          30.091, 
          53.966
        ]
      }, 
      "id": 12511001, 
      "properties": {
        "woe:id": 12511001, 
        "href": "/125/110/01/12511001.json", 
        "name": "Yermolovichi Airport"
      }
    }, 
    {
      "geometry": {
        "type": "Point", 
        "coordinates": [
          29.897, 
          53.017
        ]
      }, 
      "id": 12511002, 
      "properties": {
        "woe:id": 12511002, 
        "href": "/125/110/02/12511002.json", 
        "name": "Zabolotye Airport"
      }
    }, 
    {
      "geometry": {
        "type": "Point", 
        "coordinates": [
          30.546, 
          53.264
        ]
      }, 
      "id": 12511004, 
      "properties": {
        "woe:id": 12511004, 
        "href": "/125/110/04/12511004.json", 
        "name": "Zhuravichi Airport"
      }
    }
  ], 
  "properties": {
    "woe:id": 23424765, 
    "iso": "BY"
  }
}