{
  "type": "FeatureCollection", 
  "features": [
    {
      "geometry": {
        "type": "Point", 
        "coordinates": [
          31.170601, 
          52.307598
        ]
      }, 
      "id": 12510981, 
      "properties": {
        "woe:id": 12510981, 
        "href": "/125/109/81/12510981.json", 
        "name": "Pribytki Airport"
      }
    }, 
    {
      "geometry": {
        "type": "Point", 
        "coordinates": [
          32.161098, 
          53.504299
        ]
      }, 
      "id": 12510983, 
      "properties": {
        "woe:id": 12510983, 
        "href": "/125/109/83/12510983.json", 
        "name": "Rodnya Airport"
      }
    }, 
    {
      "geometry": {
        "type": "Point", 
        "coordinates": [
          30.819700, 
          53.142601
        ]
      }, 
      "id": 12510953, 
      "properties": {
        "woe:id": 12510953, 
        "href": "/125/109/53/12510953.json", 
        "name": "Korma Airport"
      }
    }, 
    {
      "geometry": {
        "type": "Point", 
        "coordinates": [
          28.742901, 
          55.430000
        ]
      }, 
      "id": 12510978, 
      "properties": {
        "woe:id": 12510978, 
        "href": "/125/109/78/12510978.json", 
        "name": "Polotsk South Airport"
      }
    }, 
    {
      "geometry": {
        "type": "Point", 
        "coordinates": [
          30.372601, 
          52.912998
        ]
      }, 
      "id": 12510941, 
      "properties": {
        "woe:id": 12510941, 
        "href": "/125/109/41/12510941.json", 
        "name": "Belitsk Airport"
      }
    }, 
    {
      "geometry": {
        "type": "Point", 
        "coordinates": [
          23.731199, 
          53.639702
        ]
      }, 
      "id": 12510948, 
      "properties": {
        "woe:id": 12510948, 
        "href": "/125/109/48/12510948.json", 
        "name": "Grodno Airport"
      }
    }, 
    {
      "geometry": {
        "type": "Point", 
        "coordinates": [
          28.717501, 
          54.887402
        ]
      }, 
      "id": 12510959, 
      "properties": {
        "woe:id": 12510959, 
        "href": "/125/109/59/12510959.json", 
        "name": "Lepel Zelenka Airport"
      }
    }, 
    {
      "geometry": {
        "type": "Point", 
        "coordinates": [
          24.430901, 
          52.628300
        ]
      }, 
      "id": 12510942, 
      "properties": {
        "woe:id": 12510942, 
        "href": "/125/109/42/12510942.json", 
        "name": "Belosowshchina Airport"
      }
    }, 
    {
      "geometry": {
        "type": "Point", 
        "coordinates": [
          30.353201, 
          55.141201
        ]
      }, 
      "id": 12510997, 
      "properties": {
        "woe:id": 12510997, 
        "href": "/125/109/97/12510997.json", 
        "name": "Vitebsk Southwest Airport", 
        "iata:code": "VTB"
      }
    }, 
    {
      "geometry": {
        "type": "Point", 
        "coordinates": [
          26.429199, 
          54.465401
        ]
      }, 
      "id": 12510991, 
      "properties": {
        "woe:id": 12510991, 
        "href": "/125/109/91/12510991.json", 
        "name": "Smorgon Southeast Airport"
      }
    }, 
    {
      "geometry": {
        "type": "Point", 
        "coordinates": [
          31.021601, 
          52.526600
        ]
      }, 
      "id": 12510976, 
      "properties": {
        "woe:id": 12510976, 
        "href": "/125/109/76/12510976.json", 
        "name": "Pokoiyubichi Airport"
      }
    }, 
    {
      "geometry": {
        "type": "Point", 
        "coordinates": [
          28.691500, 
          51.771099
        ]
      }, 
      "id": 12510988, 
      "properties": {
        "woe:id": 12510988, 
        "href": "/125/109/88/12510988.json", 
        "name": "Sinitskoye Pole Airport"
      }
    }, 
    {
      "geometry": {
        "type": "Point", 
        "coordinates": [
          25.850800, 
          52.922501
        ]
      }, 
      "id": 12510964, 
      "properties": {
        "woe:id": 12510964, 
        "href": "/125/109/64/12510964.json", 
        "name": "Milovidy Airport"
      }
    }, 
    {
      "geometry": {
        "type": "Point", 
        "coordinates": [
          25.529100, 
          52.325100
        ]
      }, 
      "id": 12510969, 
      "properties": {
        "woe:id": 12510969, 
        "href": "/125/109/69/12510969.json", 
        "name": "Motol Airport"
      }
    }, 
    {
      "geometry": {
        "type": "Point", 
        "coordinates": [
          30.264500, 
          55.268600
        ]
      }, 
      "id": 12510996, 
      "properties": {
        "woe:id": 12510996, 
        "href": "/125/109/96/12510996.json", 
        "name": "Vitebsk Northeast Airport"
      }
    }, 
    {
      "geometry": {
        "type": "Point", 
        "coordinates": [
          23.418400, 
          52.361500
        ]
      }, 
      "id": 12510999, 
      "properties": {
        "woe:id": 12510999, 
        "href": "/125/109/99/12510999.json", 
        "name": "Vysokoye Airport"
      }
    }, 
    {
      "geometry": {
        "type": "Point", 
        "coordinates": [
          24.395800, 
          52.170898
        ]
      }, 
      "id": 12510989, 
      "properties": {
        "woe:id": 12510989, 
        "href": "/125/109/89/12510989.json", 
        "name": "Slavki Airport"
      }
    }, 
    {
      "geometry": {
        "type": "Point", 
        "coordinates": [
          25.271900, 
          53.930698
        ]
      }, 
      "id": 12510960, 
      "properties": {
        "woe:id": 12510960, 
        "href": "/125/109/60/12510960.json", 
        "name": "Lida North Airport"
      }
    }, 
    {
      "geometry": {
        "type": "Point", 
        "coordinates": [
          26.127600, 
          52.166801
        ]
      }, 
      "id": 12510975, 
      "properties": {
        "woe:id": 12510975, 
        "href": "/125/109/75/12510975.json", 
        "name": "Pinsk Airport"
      }
    }, 
    {
      "geometry": {
        "type": "Point", 
        "coordinates": [
          25.962000, 
          53.145699
        ]
      }, 
      "id": 12510940, 
      "properties": {
        "woe:id": 12510940, 
        "href": "/125/109/40/12510940.json", 
        "name": "Baranovichi Northwest Airport"
      }
    }, 
    {
      "geometry": {
        "type": "Point", 
        "coordinates": [
          30.312599, 
          51.596298
        ]
      }, 
      "id": 12510987, 
      "properties": {
        "woe:id": 12510987, 
        "href": "/125/109/87/12510987.json", 
        "name": "Savichi Airport"
      }
    }, 
    {
      "geometry": {
        "type": "Point", 
        "coordinates": [
          26.768999, 
          52.280499
        ]
      }, 
      "id": 12510961, 
      "properties": {
        "woe:id": 12510961, 
        "href": "/125/109/61/12510961.json", 
        "name": "Luninets North Airport"
      }
    }, 
    {
      "geometry": {
        "type": "Point", 
        "coordinates": [
          27.648399, 
          53.968300
        ]
      }, 
      "id": 12510965, 
      "properties": {
        "woe:id": 12510965, 
        "href": "/125/109/65/12510965.json", 
        "name": "Minsk Northeast Airport"
      }
    }, 
    {
      "geometry": {
        "type": "Point", 
        "coordinates": [
          31.928900, 
          53.735298
        ]
      }, 
      "id": 12510955, 
      "properties": {
        "woe:id": 12510955, 
        "href": "/125/109/55/12510955.json", 
        "name": "Krichev Airport"
      }
    }, 
    {
      "geometry": {
        "type": "Point", 
        "coordinates": [
          30.256100, 
          53.956902
        ]
      }, 
      "id": 12510974, 
      "properties": {
        "woe:id": 12510974, 
        "href": "/125/109/74/12510974.json", 
        "name": "Pashkovo Airport"
      }
    }, 
    {
      "geometry": {
        "type": "Point", 
        "coordinates": [
          27.698799, 
          55.670300
        ]
      }, 
      "id": 12510967, 
      "properties": {
        "woe:id": 12510967, 
        "href": "/125/109/67/12510967.json", 
        "name": "Miory Airport"
      }
    }, 
    {
      "geometry": {
        "type": "Point", 
        "coordinates": [
          24.293100, 
          53.479301
        ]
      }, 
      "id": 12510962, 
      "properties": {
        "woe:id": 12510962, 
        "href": "/125/109/62/12510962.json", 
        "name": "Lunna Airport"
      }
    }, 
    {
      "geometry": {
        "type": "Point", 
        "coordinates": [
          26.302200, 
          54.541401
        ]
      }, 
      "id": 12510990, 
      "properties": {
        "woe:id": 12510990, 
        "href": "/125/109/90/12510990.json", 
        "name": "Smorgon Northwest Airport"
      }
    }, 
    {
      "geometry": {
        "type": "Point", 
        "coordinates": [
          30.304399, 
          54.455200
        ]
      }, 
      "id": 12510973, 
      "properties": {
        "woe:id": 12510973, 
        "href": "/125/109/73/12510973.json", 
        "name": "Orsha Southwest Airport"
      }
    }, 
    {
      "geometry": {
        "type": "Point", 
        "coordinates": [
          29.355301, 
          52.205898
        ]
      }, 
      "id": 12510950, 
      "properties": {
        "woe:id": 12510950, 
        "href": "/125/109/50/12510950.json", 
        "name": "Kalinkovichi North Airport"
      }
    }, 
    {
      "geometry": {
        "type": "Point", 
        "coordinates": [
          29.171301, 
          51.974201
        ]
      }, 
      "id": 12510970, 
      "properties": {
        "woe:id": 12510970, 
        "href": "/125/109/70/12510970.json", 
        "name": "Mozyr Airport"
      }
    }, 
    {
      "geometry": {
        "type": "Point", 
        "coordinates": [
          29.987900, 
          55.172501
        ]
      }, 
      "id": 12510998, 
      "properties": {
        "woe:id": 12510998, 
        "href": "/125/109/98/12510998.json", 
        "name": "Vitebsk West Airport"
      }
    }, 
    {
      "geometry": {
        "type": "Point", 
        "coordinates": [
          31.325600, 
          52.803200
        ]
      }, 
      "id": 12510993, 
      "properties": {
        "woe:id": 12510993, 
        "href": "/125/109/93/12510993.json", 
        "name": "Svetilovichi Airport"
      }
    }, 
    {
      "geometry": {
        "type": "Point", 
        "coordinates": [
          29.387300, 
          54.384701
        ]
      }, 
      "id": 12510943, 
      "properties": {
        "woe:id": 12510943, 
        "href": "/125/109/43/12510943.json", 
        "name": "Bobr East Airport"
      }
    }, 
    {
      "geometry": {
        "type": "Point", 
        "coordinates": [
          25.319799, 
          53.536201
        ]
      }, 
      "id": 12510946, 
      "properties": {
        "woe:id": 12510946, 
        "href": "/125/109/46/12510946.json", 
        "name": "Dyatlovo Airport"
      }
    }, 
    {
      "geometry": {
        "type": "Point", 
        "coordinates": [
          30.434999, 
          52.290699
        ]
      }, 
      "id": 12510982, 
      "properties": {
        "woe:id": 12510982, 
        "href": "/125/109/82/12510982.json", 
        "name": "Rechitsa South Airport"
      }
    }, 
    {
      "geometry": {
        "type": "Point", 
        "coordinates": [
          29.577299, 
          53.322701
        ]
      }, 
      "id": 12510971, 
      "properties": {
        "woe:id": 12510971, 
        "href": "/125/109/71/12510971.json", 
        "name": "Novgorodok Airport"
      }
    }, 
    {
      "geometry": {
        "type": "Point", 
        "coordinates": [
          26.577600, 
          53.336102
        ]
      }, 
      "id": 12510947, 
      "properties": {
        "woe:id": 12510947, 
        "href": "/125/109/47/12510947.json", 
        "name": "Gorodeya Airport"
      }
    }, 
    {
      "geometry": {
        "type": "Point", 
        "coordinates": [
          28.659800, 
          55.628601
        ]
      }, 
      "id": 12510977, 
      "properties": {
        "woe:id": 12510977, 
        "href": "/125/109/77/12510977.json", 
        "name": "Polotsk Northwest Airport"
      }
    }, 
    {
      "geometry": {
        "type": "Point", 
        "coordinates": [
          24.556801, 
          52.495399
        ]
      }, 
      "id": 12510972, 
      "properties": {
        "woe:id": 12510972, 
        "href": "/125/109/72/12510972.json", 
        "name": "Oranchitsy Airport"
      }
    }, 
    {
      "geometry": {
        "type": "Point", 
        "coordinates": [
          24.818100, 
          52.884701
        ]
      }, 
      "id": 12510986, 
      "properties": {
        "woe:id": 12510986, 
        "href": "/125/109/86/12510986.json", 
        "name": "Ruzhany Airport"
      }
    }, 
    {
      "geometry": {
        "type": "Point", 
        "coordinates": [
          23.899900, 
          52.113098
        ]
      }, 
      "id": 12510945, 
      "properties": {
        "woe:id": 12510945, 
        "href": "/125/109/45/12510945.json", 
        "name": "Brest East Airport", 
        "iata:code": "BQT"
      }
    }, 
    {
      "geometry": {
        "type": "Point", 
        "coordinates": [
          28.481899, 
          53.047001
        ]
      }, 
      "id": 12510992, 
      "properties": {
        "woe:id": 12510992, 
        "href": "/125/109/92/12510992.json", 
        "name": "Staryye Dorogi Airport"
      }
    }, 
    {
      "geometry": {
        "type": "Point", 
        "coordinates": [
          28.035761, 
          53.888453
        ]
      }, 
      "id": 12510995, 
      "properties": {
        "woe:id": 12510995, 
        "href": "/125/109/95/12510995.json", 
        "name": "Velikiydvor Airport", 
        "iata:code": "MSQ"
      }
    }, 
    {
      "geometry": {
        "type": "Point", 
        "coordinates": [
          32.198898, 
          53.515900
        ]
      }, 
      "id": 12510984, 
      "properties": {
        "woe:id": 12510984, 
        "href": "/125/109/84/12510984.json", 
        "name": "Rodnyaeast Airport"
      }
    }, 
    {
      "geometry": {
        "type": "Point", 
        "coordinates": [
          26.681000, 
          54.928299
        ]
      }, 
      "id": 12510952, 
      "properties": {
        "woe:id": 12510952, 
        "href": "/125/109/52/12510952.json", 
        "name": "Kobylniki Airport"
      }
    }, 
    {
      "geometry": {
        "type": "Point", 
        "coordinates": [
          29.981501, 
          51.610199
        ]
      }, 
      "id": 12510951, 
      "properties": {
        "woe:id": 12510951, 
        "href": "/125/109/51/12510951.json", 
        "name": "Khutor Lesok Airport"
      }
    }, 
    {
      "geometry": {
        "type": "Point", 
        "coordinates": [
          27.535160, 
          53.871342
        ]
      }, 
      "id": 12510966, 
      "properties": {
        "woe:id": 12510966, 
        "href": "/125/109/66/12510966.json", 
        "name": "Minsk International 1"
      }
    }, 
    {
      "geometry": {
        "type": "Point", 
        "coordinates": [
          31.867300, 
          53.492100
        ]
      }, 
      "id": 12510954, 
      "properties": {
        "woe:id": 12510954, 
        "href": "/125/109/54/12510954.json", 
        "name": "Krasovichi Airport"
      }
    }, 
    {
      "geometry": {
        "type": "Point", 
        "coordinates": [
          26.898199, 
          54.340801
        ]
      }, 
      "id": 12510968, 
      "properties": {
        "woe:id": 12510968, 
        "href": "/125/109/68/12510968.json", 
        "name": "Molodechno Northeast Airport"
      }
    }, 
    {
      "geometry": {
        "type": "Point", 
        "coordinates": [
          26.830000, 
          55.150501
        ]
      }, 
      "id": 12510979, 
      "properties": {
        "woe:id": 12510979, 
        "href": "/125/109/79/12510979.json", 
        "name": "Postavy North Airport"
      }
    }, 
    {
      "geometry": {
        "type": "Point", 
        "coordinates": [
          24.043100, 
          53.600700
        ]
      }, 
      "id": 12510949, 
      "properties": {
        "woe:id": 12510949, 
        "href": "/125/109/49/12510949.json", 
        "name": "Grodno Southeast Airport", 
        "iata:code": "GNA"
      }
    }, 
    {
      "geometry": {
        "type": "Point", 
        "coordinates": [
          24.371201, 
          53.318199
        ]
      }, 
      "id": 12510985, 
      "properties": {
        "woe:id": 12510985, 
        "href": "/125/109/85/12510985.json", 
        "name": "Ross Airport"
      }
    }, 
    {
      "geometry": {
        "type": "Point", 
        "coordinates": [
          27.579100, 
          53.778999
        ]
      }, 
      "id": 12510963, 
      "properties": {
        "woe:id": 12510963, 
        "href": "/125/109/63/12510963.json", 
        "name": "Machulishche Airport"
      }
    }, 
    {
      "geometry": {
        "type": "Point", 
        "coordinates": [
          28.839399, 
          54.908798
        ]
      }, 
      "id": 12510958, 
      "properties": {
        "woe:id": 12510958, 
        "href": "/125/109/58/12510958.json", 
        "name": "Lepel East Airport"
      }
    }, 
    {
      "geometry": {
        "type": "Point", 
        "coordinates": [
          24.531700, 
          52.804401
        ]
      }, 
      "id": 12510956, 
      "properties": {
        "woe:id": 12510956, 
        "href": "/125/109/56/12510956.json", 
        "name": "Kuklichi Airport"
      }
    }, 
    {
      "geometry": {
        "type": "Point", 
        "coordinates": [
          29.345400, 
          52.288200
        ]
      }, 
      "id": 12510944, 
      "properties": {
        "woe:id": 12510944, 
        "href": "/125/109/44/12510944.json", 
        "name": "Bobrovichi Airport"
      }
    }, 
    {
      "geometry": {
        "type": "Point", 
        "coordinates": [
          26.908100, 
          54.593498
        ]
      }, 
      "id": 12510957, 
      "properties": {
        "woe:id": 12510957, 
        "href": "/125/109/57/12510957.json", 
        "name": "Kurenets Airport"
      }
    }, 
    {
      "geometry": {
        "type": "Point", 
        "coordinates": [
          24.772100, 
          52.438702
        ]
      }, 
      "id": 12510980, 
      "properties": {
        "woe:id": 12510980, 
        "href": "/125/109/80/12510980.json", 
        "name": "Postolovo Airport"
      }
    }, 
    {
      "geometry": {
        "type": "Point", 
        "coordinates": [
          29.131399, 
          53.213100
        ]
      }, 
      "id": 12510994, 
      "properties": {
        "woe:id": 12510994, 
        "href": "/125/109/94/12510994.json", 
        "name": "Sychkovo Airport"
      }
    }, 
    {
      "geometry": {
        "type": "Point", 
        "coordinates": [
          30.133301, 
          53.950001
        ]
      }, 
      "id": 12523773, 
      "properties": {
        "woe:id": 12523773, 
        "href": "/125/237/73/12523773.json", 
        "name": "Mogilev Airport", 
        "iata:code": "MVQ"
      }
    }, 
    {
      "geometry": {
        "type": "Point", 
        "coordinates": [
          24.982800, 
          53.592602
        ]
      }, 
      "id": 12511003, 
      "properties": {
        "woe:id": 12511003, 
        "href": "/125/110/03/12511003.json", 
        "name": "Zheludok Airport"
      }
    }, 
    {
      "geometry": {
        "type": "Point", 
        "coordinates": [
          30.706800, 
          55.340500
        ]
      }, 
      "id": 12511000, 
      "properties": {
        "woe:id": 12511000, 
        "href": "/125/110/00/12511000.json", 
        "name": "Yanovichi Airport"
      }
    }, 
    {
      "geometry": {
        "type": "Point", 
        "coordinates": [
          30.091400, 
          53.966400
        ]
      }, 
      "id": 12511001, 
      "properties": {
        "woe:id": 12511001, 
        "href": "/125/110/01/12511001.json", 
        "name": "Yermolovichi Airport"
      }
    }, 
    {
      "geometry": {
        "type": "Point", 
        "coordinates": [
          29.896900, 
          53.017300
        ]
      }, 
      "id": 12511002, 
      "properties": {
        "woe:id": 12511002, 
        "href": "/125/110/02/12511002.json", 
        "name": "Zabolotye Airport"
      }
    }, 
    {
      "geometry": {
        "type": "Point", 
        "coordinates": [
          30.546200, 
          53.264301
        ]
      }, 
      "id": 12511004, 
      "properties": {
        "woe:id": 12511004, 
        "href": "/125/110/04/12511004.json", 
        "name": "Zhuravichi Airport"
      }
    }
  ], 
  "properties": {
    "iso": "BY", 
    "woe:country": 23424765
  }
}