{
  "type": "FeatureCollection", 
  "features": [
    {
      "geometry": {
        "type": "Point", 
        "coordinates": [
          24.796, 
          2.797
        ]
      }, 
      "id": 12511953, 
      "properties": {
        "woe:id": 12511953, 
        "href": "/125/119/53/12511953.json", 
        "name": "Buta Zega Airport", 
        "iata:code": "BZU"
      }
    }, 
    {
      "geometry": {
        "type": "Point", 
        "coordinates": [
          25.251, 
          -8.639
        ]
      }, 
      "id": 12511959, 
      "properties": {
        "woe:id": 12511959, 
        "href": "/125/119/59/12511959.json", 
        "name": "Kamina Base Airport"
      }
    }, 
    {
      "geometry": {
        "type": "Point", 
        "coordinates": [
          15.326, 
          -4.325
        ]
      }, 
      "id": 12511964, 
      "properties": {
        "woe:id": 12511964, 
        "href": "/125/119/64/12511964.json", 
        "name": "Kinshasa N'dolo Airport"
      }
    }, 
    {
      "geometry": {
        "type": "Point", 
        "coordinates": [
          21.667, 
          4.158
        ]
      }, 
      "id": 12511969, 
      "properties": {
        "woe:id": 12511969, 
        "href": "/125/119/69/12511969.json", 
        "name": "Kotakoli Airport"
      }
    }, 
    {
      "geometry": {
        "type": "Point", 
        "coordinates": [
          22.471, 
          -5.900
        ]
      }, 
      "id": 12511960, 
      "properties": {
        "woe:id": 12511960, 
        "href": "/125/119/60/12511960.json", 
        "name": "Kananga Airport", 
        "iata:code": "KGA"
      }
    }, 
    {
      "geometry": {
        "type": "Point", 
        "coordinates": [
          18.789, 
          -5.029
        ]
      }, 
      "id": 12511961, 
      "properties": {
        "woe:id": 12511961, 
        "href": "/125/119/61/12511961.json", 
        "name": "Kikwit Airport"
      }
    }, 
    {
      "geometry": {
        "type": "Point", 
        "coordinates": [
          25.333, 
          0.481
        ]
      }, 
      "id": 12511965, 
      "properties": {
        "woe:id": 12511965, 
        "href": "/125/119/65/12511965.json", 
        "name": "Kisangani Bangoka International Airport"
      }
    }, 
    {
      "geometry": {
        "type": "Point", 
        "coordinates": [
          19.772, 
          3.235
        ]
      }, 
      "id": 12511955, 
      "properties": {
        "woe:id": 12511955, 
        "href": "/125/119/55/12511955.json", 
        "name": "Gemena Airport", 
        "iata:code": "GMA"
      }
    }, 
    {
      "geometry": {
        "type": "Point", 
        "coordinates": [
          25.501, 
          -10.674
        ]
      }, 
      "id": 12511974, 
      "properties": {
        "woe:id": 12511974, 
        "href": "/125/119/74/12511974.json", 
        "name": "Mutoshi Airport"
      }
    }, 
    {
      "geometry": {
        "type": "Point", 
        "coordinates": [
          12.447, 
          -5.917
        ]
      }, 
      "id": 12511967, 
      "properties": {
        "woe:id": 12511967, 
        "href": "/125/119/67/12511967.json", 
        "name": "Kitona Base Airport"
      }
    }, 
    {
      "geometry": {
        "type": "Point", 
        "coordinates": [
          25.914, 
          -2.922
        ]
      }, 
      "id": 12511962, 
      "properties": {
        "woe:id": 12511962, 
        "href": "/125/119/62/12511962.json", 
        "name": "Kindu Airport"
      }
    }, 
    {
      "geometry": {
        "type": "Point", 
        "coordinates": [
          12.353, 
          -5.927
        ]
      }, 
      "id": 12511973, 
      "properties": {
        "woe:id": 12511973, 
        "href": "/125/119/73/12511973.json", 
        "name": "Muanda Airport"
      }
    }, 
    {
      "geometry": {
        "type": "Point", 
        "coordinates": [
          17.383, 
          -3.306
        ]
      }, 
      "id": 12511950, 
      "properties": {
        "woe:id": 12511950, 
        "href": "/125/119/50/12511950.json", 
        "name": "Bandundu Airport"
      }
    }, 
    {
      "geometry": {
        "type": "Point", 
        "coordinates": [
          27.529, 
          -11.591
        ]
      }, 
      "id": 12511970, 
      "properties": {
        "woe:id": 12511970, 
        "href": "/125/119/70/12511970.json", 
        "name": "Lubumbashi Luano International Airport"
      }
    }, 
    {
      "geometry": {
        "type": "Point", 
        "coordinates": [
          18.292, 
          0.023
        ]
      }, 
      "id": 12511971, 
      "properties": {
        "woe:id": 12511971, 
        "href": "/125/119/71/12511971.json", 
        "name": "Mbandaka Airport", 
        "iata:code": "MDK"
      }
    }, 
    {
      "geometry": {
        "type": "Point", 
        "coordinates": [
          23.570, 
          -6.121
        ]
      }, 
      "id": 12511972, 
      "properties": {
        "woe:id": 12511972, 
        "href": "/125/119/72/12511972.json", 
        "name": "Mbuji Mayi Airport"
      }
    }, 
    {
      "geometry": {
        "type": "Point", 
        "coordinates": [
          30.213, 
          1.572
        ]
      }, 
      "id": 12511952, 
      "properties": {
        "woe:id": 12511952, 
        "href": "/125/119/52/12511952.json", 
        "name": "Bunia Airport", 
        "iata:code": "BUX"
      }
    }, 
    {
      "geometry": {
        "type": "Point", 
        "coordinates": [
          28.814, 
          -2.301
        ]
      }, 
      "id": 12511951, 
      "properties": {
        "woe:id": 12511951, 
        "href": "/125/119/51/12511951.json", 
        "name": "Bukavu Kavumu Airport", 
        "iata:code": "BKY"
      }
    }, 
    {
      "geometry": {
        "type": "Point", 
        "coordinates": [
          25.155, 
          0.517
        ]
      }, 
      "id": 12511966, 
      "properties": {
        "woe:id": 12511966, 
        "href": "/125/119/66/12511966.json", 
        "name": "Kisangani Ville Airport"
      }
    }, 
    {
      "geometry": {
        "type": "Point", 
        "coordinates": [
          20.972, 
          4.255
        ]
      }, 
      "id": 12511954, 
      "properties": {
        "woe:id": 12511954, 
        "href": "/125/119/54/12511954.json", 
        "name": "Gbadolite Airport", 
        "iata:code": "BDT"
      }
    }, 
    {
      "geometry": {
        "type": "Point", 
        "coordinates": [
          25.507, 
          -10.767
        ]
      }, 
      "id": 12511968, 
      "properties": {
        "woe:id": 12511968, 
        "href": "/125/119/68/12511968.json", 
        "name": "Kolwezi Airport", 
        "iata:code": "KWZ"
      }
    }, 
    {
      "geometry": {
        "type": "Point", 
        "coordinates": [
          15.445, 
          -4.385
        ]
      }, 
      "id": 12511963, 
      "properties": {
        "woe:id": 12511963, 
        "href": "/125/119/63/12511963.json", 
        "name": "Kinshasa N Djili International Airport"
      }
    }, 
    {
      "geometry": {
        "type": "Point", 
        "coordinates": [
          29.249, 
          -5.875
        ]
      }, 
      "id": 12511958, 
      "properties": {
        "woe:id": 12511958, 
        "href": "/125/119/58/12511958.json", 
        "name": "Kalemie Airport"
      }
    }, 
    {
      "geometry": {
        "type": "Point", 
        "coordinates": [
          29.234, 
          -1.666
        ]
      }, 
      "id": 12511956, 
      "properties": {
        "woe:id": 12511956, 
        "href": "/125/119/56/12511956.json", 
        "name": "Goma International Airport", 
        "iata:code": "GOM"
      }
    }, 
    {
      "geometry": {
        "type": "Point", 
        "coordinates": [
          27.588, 
          2.827
        ]
      }, 
      "id": 12511957, 
      "properties": {
        "woe:id": 12511957, 
        "href": "/125/119/57/12511957.json", 
        "name": "Isiro Matari Airport", 
        "iata:code": "IRP"
      }
    }
  ], 
  "properties": {
    "woe:id": 23424780, 
    "iso": "CD"
  }
}