{
  "type": "FeatureCollection", 
  "features": [
    {
      "geometry": {
        "type": "Point", 
        "coordinates": [
          -5.364200, 
          6.905600
        ]
      }, 
      "id": 12513876, 
      "properties": {
        "woe:id": 12513876, 
        "href": "/125/138/76/12513876.json", 
        "name": "Yamoussoukro Airport", 
        "iata:code": "ASK"
      }
    }, 
    {
      "geometry": {
        "type": "Point", 
        "coordinates": [
          -6.659700, 
          4.744400
        ]
      }, 
      "id": 12513875, 
      "properties": {
        "woe:id": 12513875, 
        "href": "/125/138/75/12513875.json", 
        "name": "San Pedro Airport"
      }
    }, 
    {
      "geometry": {
        "type": "Point", 
        "coordinates": [
          -7.588900, 
          7.272200
        ]
      }, 
      "id": 12513874, 
      "properties": {
        "woe:id": 12513874, 
        "href": "/125/138/74/12513874.json", 
        "name": "Man New Airport"
      }
    }, 
    {
      "geometry": {
        "type": "Point", 
        "coordinates": [
          -5.555000, 
          9.170800
        ]
      }, 
      "id": 12513873, 
      "properties": {
        "woe:id": 12513873, 
        "href": "/125/138/73/12513873.json", 
        "name": "Korhogo New Airport"
      }
    }, 
    {
      "geometry": {
        "type": "Point", 
        "coordinates": [
          -3.929200, 
          5.255600
        ]
      }, 
      "id": 12513870, 
      "properties": {
        "woe:id": 12513870, 
        "href": "/125/138/70/12513870.json", 
        "name": "Abidjan Port Bouet Airport", 
        "iata:code": "ABJ"
      }
    }, 
    {
      "geometry": {
        "type": "Point", 
        "coordinates": [
          -5.073600, 
          7.738300
        ]
      }, 
      "id": 12513871, 
      "properties": {
        "woe:id": 12513871, 
        "href": "/125/138/71/12513871.json", 
        "name": "Bouake Airport", 
        "iata:code": "BYK"
      }
    }, 
    {
      "geometry": {
        "type": "Point", 
        "coordinates": [
          -6.475000, 
          6.797200
        ]
      }, 
      "id": 12513872, 
      "properties": {
        "woe:id": 12513872, 
        "href": "/125/138/72/12513872.json", 
        "name": "Daloa New Airport"
      }
    }
  ], 
  "properties": {
    "iso": "CI", 
    "woe:country": 23424854
  }
}