{
  "type": "FeatureCollection", 
  "features": [
    {
      "geometry": {
        "type": "Point", 
        "coordinates": [
          -71.737083, 
          -2.127060
        ]
      }, 
      "id": 12523481, 
      "properties": {
        "woe:id": 12523481, 
        "href": "/125/234/81/12523481.json", 
        "name": "Arica Airport", 
        "iata:code": "ACM"
      }
    }, 
    {
      "geometry": {
        "type": "Point", 
        "coordinates": [
          -77.281487, 
          8.514200
        ]
      }, 
      "id": 12523459, 
      "properties": {
        "woe:id": 12523459, 
        "href": "/125/234/59/12523459.json", 
        "name": "Acandi Airport", 
        "iata:code": "ACD"
      }
    }, 
    {
      "geometry": {
        "type": "Point", 
        "coordinates": [
          -75.074516, 
          6.903410
        ]
      }, 
      "id": 12523469, 
      "properties": {
        "woe:id": 12523469, 
        "href": "/125/234/69/12523469.json", 
        "name": "Amalfi Airport", 
        "iata:code": "AFI"
      }
    }, 
    {
      "geometry": {
        "type": "Point", 
        "coordinates": [
          -75.147293, 
          8.321270
        ]
      }, 
      "id": 12523489, 
      "properties": {
        "woe:id": 12523489, 
        "href": "/125/234/89/12523489.json", 
        "name": "Ayapel Airport", 
        "iata:code": "AYA"
      }
    }, 
    {
      "geometry": {
        "type": "Point", 
        "coordinates": [
          -70.233299, 
          0.700000
        ]
      }, 
      "id": 12523460, 
      "properties": {
        "woe:id": 12523460, 
        "href": "/125/234/60/12523460.json", 
        "name": "Acaricuara Airport", 
        "iata:code": "ARF"
      }
    }, 
    {
      "geometry": {
        "type": "Point", 
        "coordinates": [
          -76.632111, 
          7.883610
        ]
      }, 
      "id": 12523474, 
      "properties": {
        "woe:id": 12523474, 
        "href": "/125/234/74/12523474.json", 
        "name": "Apartado Airport", 
        "iata:code": "APO"
      }
    }, 
    {
      "geometry": {
        "type": "Point", 
        "coordinates": [
          -72.403900, 
          -0.626140
        ]
      }, 
      "id": 12523477, 
      "properties": {
        "woe:id": 12523477, 
        "href": "/125/234/77/12523477.json", 
        "name": "Araracuara Airport", 
        "iata:code": "ACR"
      }
    }, 
    {
      "geometry": {
        "type": "Point", 
        "coordinates": [
          -71.283501, 
          6.993650
        ]
      }, 
      "id": 12523479, 
      "properties": {
        "woe:id": 12523479, 
        "href": "/125/234/79/12523479.json", 
        "name": "Arauquita Airport", 
        "iata:code": "ARQ"
      }
    }, 
    {
      "geometry": {
        "type": "Point", 
        "coordinates": [
          -76.423126, 
          8.846200
        ]
      }, 
      "id": 12523480, 
      "properties": {
        "woe:id": 12523480, 
        "href": "/125/234/80/12523480.json", 
        "name": "Arboletas Airport", 
        "iata:code": "ARO"
      }
    }, 
    {
      "geometry": {
        "type": "Point", 
        "coordinates": [
          -72.977608, 
          4.566820
        ]
      }, 
      "id": 12523494, 
      "properties": {
        "woe:id": 12523494, 
        "href": "/125/234/94/12523494.json", 
        "name": "Barranca de Upia Airport", 
        "iata:code": "BAC"
      }
    }, 
    {
      "geometry": {
        "type": "Point", 
        "coordinates": [
          -75.510597, 
          10.448100
        ]
      }, 
      "id": 12512408, 
      "properties": {
        "woe:id": 12512408, 
        "href": "/125/124/08/12512408.json", 
        "name": "Rafael Nunez Airport", 
        "iata:code": "CTG"
      }
    }, 
    {
      "geometry": {
        "type": "Point", 
        "coordinates": [
          -76.058296, 
          1.891700
        ]
      }, 
      "id": 12512403, 
      "properties": {
        "woe:id": 12512403, 
        "href": "/125/124/03/12512403.json", 
        "name": "Pitalito Airport", 
        "iata:code": "PTX"
      }
    }, 
    {
      "geometry": {
        "type": "Point", 
        "coordinates": [
          -74.766701, 
          -0.166700
        ]
      }, 
      "id": 12512407, 
      "properties": {
        "woe:id": 12512407, 
        "href": "/125/124/07/12512407.json", 
        "name": "Leguizamo Airport"
      }
    }, 
    {
      "geometry": {
        "type": "Point", 
        "coordinates": [
          -76.074997, 
          4.377200
        ]
      }, 
      "id": 12512425, 
      "properties": {
        "woe:id": 12512425, 
        "href": "/125/124/25/12512425.json", 
        "name": "Zarzal Airport"
      }
    }, 
    {
      "geometry": {
        "type": "Point", 
        "coordinates": [
          -74.799400, 
          4.278300
        ]
      }, 
      "id": 12512415, 
      "properties": {
        "woe:id": 12512415, 
        "href": "/125/124/15/12512415.json", 
        "name": "Santiago Vila Airport", 
        "iata:code": "GIR"
      }
    }, 
    {
      "geometry": {
        "type": "Point", 
        "coordinates": [
          -72.985001, 
          11.503300
        ]
      }, 
      "id": 12512409, 
      "properties": {
        "woe:id": 12512409, 
        "href": "/125/124/09/12512409.json", 
        "name": "Riohacha Highway Strip Airport"
      }
    }, 
    {
      "geometry": {
        "type": "Point", 
        "coordinates": [
          -71.761398, 
          6.453600
        ]
      }, 
      "id": 12512419, 
      "properties": {
        "woe:id": 12512419, 
        "href": "/125/124/19/12512419.json", 
        "name": "Tame Airport"
      }
    }, 
    {
      "geometry": {
        "type": "Point", 
        "coordinates": [
          -75.955803, 
          4.756900
        ]
      }, 
      "id": 12512412, 
      "properties": {
        "woe:id": 12512412, 
        "href": "/125/124/12/12512412.json", 
        "name": "Santa Ana Airport", 
        "iata:code": "SQB"
      }
    }, 
    {
      "geometry": {
        "type": "Point", 
        "coordinates": [
          -71.855003, 
          6.958100
        ]
      }, 
      "id": 12512416, 
      "properties": {
        "woe:id": 12512416, 
        "href": "/125/124/16/12512416.json", 
        "name": "Saravena El Eden Airport", 
        "iata:code": "RVE"
      }
    }, 
    {
      "geometry": {
        "type": "Point", 
        "coordinates": [
          -71.988297, 
          12.223900
        ]
      }, 
      "id": 12512406, 
      "properties": {
        "woe:id": 12512406, 
        "href": "/125/124/06/12512406.json", 
        "name": "Puerto Bolivar Airport"
      }
    }, 
    {
      "geometry": {
        "type": "Point", 
        "coordinates": [
          -73.611702, 
          4.170800
        ]
      }, 
      "id": 12512423, 
      "properties": {
        "woe:id": 12512423, 
        "href": "/125/124/23/12512423.json", 
        "name": "Vanguardia Airport"
      }
    }, 
    {
      "geometry": {
        "type": "Point", 
        "coordinates": [
          -73.809196, 
          7.025000
        ]
      }, 
      "id": 12512424, 
      "properties": {
        "woe:id": 12512424, 
        "href": "/125/124/24/12512424.json", 
        "name": "Yariguies Airport", 
        "iata:code": "EJA"
      }
    }, 
    {
      "geometry": {
        "type": "Point", 
        "coordinates": [
          -74.762199, 
          2.146400
        ]
      }, 
      "id": 12512411, 
      "properties": {
        "woe:id": 12512411, 
        "href": "/125/124/11/12512411.json", 
        "name": "San Vicente del Caguan Airport", 
        "iata:code": "SVI"
      }
    }, 
    {
      "geometry": {
        "type": "Point", 
        "coordinates": [
          -81.709198, 
          12.581100
        ]
      }, 
      "id": 12512417, 
      "properties": {
        "woe:id": 12512417, 
        "href": "/125/124/17/12512417.json", 
        "name": "Sesquicentenario Airport", 
        "iata:code": "ADZ"
      }
    }, 
    {
      "geometry": {
        "type": "Point", 
        "coordinates": [
          -73.103302, 
          5.767800
        ]
      }, 
      "id": 12512400, 
      "properties": {
        "woe:id": 12512400, 
        "href": "/125/124/00/12512400.json", 
        "name": "Paipa Airport"
      }
    }, 
    {
      "geometry": {
        "type": "Point", 
        "coordinates": [
          -70.740601, 
          7.070300
        ]
      }, 
      "id": 12512414, 
      "properties": {
        "woe:id": 12512414, 
        "href": "/125/124/14/12512414.json", 
        "name": "Santiago Perez Airport", 
        "iata:code": "AUC"
      }
    }, 
    {
      "geometry": {
        "type": "Point", 
        "coordinates": [
          -74.226196, 
          11.122100
        ]
      }, 
      "id": 12512418, 
      "properties": {
        "woe:id": 12512418, 
        "href": "/125/124/18/12512418.json", 
        "name": "Simon Bolivar Airport", 
        "iata:code": "SMR"
      }
    }, 
    {
      "geometry": {
        "type": "Point", 
        "coordinates": [
          -73.188301, 
          7.121700
        ]
      }, 
      "id": 12512401, 
      "properties": {
        "woe:id": 12512401, 
        "href": "/125/124/01/12512401.json", 
        "name": "Palonegro Airport", 
        "iata:code": "BGA"
      }
    }, 
    {
      "geometry": {
        "type": "Point", 
        "coordinates": [
          -75.139397, 
          4.425000
        ]
      }, 
      "id": 12512402, 
      "properties": {
        "woe:id": 12512402, 
        "href": "/125/124/02/12512402.json", 
        "name": "Perales Airport", 
        "iata:code": "IBE"
      }
    }, 
    {
      "geometry": {
        "type": "Point", 
        "coordinates": [
          -72.726097, 
          8.628900
        ]
      }, 
      "id": 12512420, 
      "properties": {
        "woe:id": 12512420, 
        "href": "/125/124/20/12512420.json", 
        "name": "Tibu Airport"
      }
    }, 
    {
      "geometry": {
        "type": "Point", 
        "coordinates": [
          -75.682800, 
          5.089700
        ]
      }, 
      "id": 12512413, 
      "properties": {
        "woe:id": 12512413, 
        "href": "/125/124/13/12512413.json", 
        "name": "Santagueda Airport"
      }
    }, 
    {
      "geometry": {
        "type": "Point", 
        "coordinates": [
          -77.668098, 
          0.861100
        ]
      }, 
      "id": 12512410, 
      "properties": {
        "woe:id": 12512410, 
        "href": "/125/124/10/12512410.json", 
        "name": "San Luis Airport", 
        "iata:code": "IPI"
      }
    }, 
    {
      "geometry": {
        "type": "Point", 
        "coordinates": [
          -76.502197, 
          0.506100
        ]
      }, 
      "id": 12512405, 
      "properties": {
        "woe:id": 12512405, 
        "href": "/125/124/05/12512405.json", 
        "name": "Puerto Asis Airport", 
        "iata:code": "PUU"
      }
    }, 
    {
      "geometry": {
        "type": "Point", 
        "coordinates": [
          -81.353500, 
          13.357700
        ]
      }, 
      "id": 12512404, 
      "properties": {
        "woe:id": 12512404, 
        "href": "/125/124/04/12512404.json", 
        "name": "Providencia Island Airport", 
        "iata:code": "PVA"
      }
    }, 
    {
      "geometry": {
        "type": "Point", 
        "coordinates": [
          -74.653297, 
          4.246700
        ]
      }, 
      "id": 12512421, 
      "properties": {
        "woe:id": 12512421, 
        "href": "/125/124/21/12512421.json", 
        "name": "Tolemaida Airport"
      }
    }, 
    {
      "geometry": {
        "type": "Point", 
        "coordinates": [
          -76.714996, 
          7.812500
        ]
      }, 
      "id": 12512422, 
      "properties": {
        "woe:id": 12512422, 
        "href": "/125/124/22/12512422.json", 
        "name": "Uraba Airport"
      }
    }, 
    {
      "geometry": {
        "type": "Point", 
        "coordinates": [
          -76.616402, 
          2.450000
        ]
      }, 
      "id": 12512381, 
      "properties": {
        "woe:id": 12512381, 
        "href": "/125/123/81/12512381.json", 
        "name": "Guillermo Leon Valencia Airport", 
        "iata:code": "PPN"
      }
    }, 
    {
      "geometry": {
        "type": "Point", 
        "coordinates": [
          -75.061096, 
          10.575000
        ]
      }, 
      "id": 12512383, 
      "properties": {
        "woe:id": 12512383, 
        "href": "/125/123/83/12512383.json", 
        "name": "Hacienda Veracruz Airport"
      }
    }, 
    {
      "geometry": {
        "type": "Point", 
        "coordinates": [
          -73.560799, 
          4.079700
        ]
      }, 
      "id": 12512378, 
      "properties": {
        "woe:id": 12512378, 
        "href": "/125/123/78/12512378.json", 
        "name": "Luis F. Gomez Nino Air Force Base", 
        "iata:code": "API"
      }
    }, 
    {
      "geometry": {
        "type": "Point", 
        "coordinates": [
          -72.968102, 
          5.680000
        ]
      }, 
      "id": 12512359, 
      "properties": {
        "woe:id": 12512359, 
        "href": "/125/123/59/12512359.json", 
        "name": "Alberto Lleras Camargo Airport", 
        "iata:code": "SOX"
      }
    }, 
    {
      "geometry": {
        "type": "Point", 
        "coordinates": [
          -75.745003, 
          4.814700
        ]
      }, 
      "id": 12512397, 
      "properties": {
        "woe:id": 12512397, 
        "href": "/125/123/97/12512397.json", 
        "name": "Matecana Airport", 
        "iata:code": "PEI"
      }
    }, 
    {
      "geometry": {
        "type": "Point", 
        "coordinates": [
          -73.495796, 
          7.391700
        ]
      }, 
      "id": 12512391, 
      "properties": {
        "woe:id": 12512391, 
        "href": "/125/123/91/12512391.json", 
        "name": "Las Cruces Airport"
      }
    }, 
    {
      "geometry": {
        "type": "Point", 
        "coordinates": [
          -74.778900, 
          10.896100
        ]
      }, 
      "id": 12512376, 
      "properties": {
        "woe:id": 12512376, 
        "href": "/125/123/76/12512376.json", 
        "name": "Ernesto Cortissoz Airport", 
        "iata:code": "BAQ"
      }
    }, 
    {
      "geometry": {
        "type": "Point", 
        "coordinates": [
          -72.493599, 
          11.235300
        ]
      }, 
      "id": 12512388, 
      "properties": {
        "woe:id": 12512388, 
        "href": "/125/123/88/12512388.json", 
        "name": "La Mina Airport"
      }
    }, 
    {
      "geometry": {
        "type": "Point", 
        "coordinates": [
          -74.845001, 
          9.288100
        ]
      }, 
      "id": 12512364, 
      "properties": {
        "woe:id": 12512364, 
        "href": "/125/123/64/12512364.json", 
        "name": "Baracoa Airport"
      }
    }, 
    {
      "geometry": {
        "type": "Point", 
        "coordinates": [
          -74.456100, 
          5.958600
        ]
      }, 
      "id": 12512369, 
      "properties": {
        "woe:id": 12512369, 
        "href": "/125/123/69/12512369.json", 
        "name": "Calderon Airport"
      }
    }, 
    {
      "geometry": {
        "type": "Point", 
        "coordinates": [
          -74.881699, 
          5.216100
        ]
      }, 
      "id": 12512396, 
      "properties": {
        "woe:id": 12512396, 
        "href": "/125/123/96/12512396.json", 
        "name": "Mariquita Airport", 
        "iata:code": "MQU"
      }
    }, 
    {
      "geometry": {
        "type": "Point", 
        "coordinates": [
          -75.588600, 
          6.223100
        ]
      }, 
      "id": 12512399, 
      "properties": {
        "woe:id": 12512399, 
        "href": "/125/123/99/12512399.json", 
        "name": "Olaya Herrera Airport"
      }
    }, 
    {
      "geometry": {
        "type": "Point", 
        "coordinates": [
          -75.470802, 
          5.032200
        ]
      }, 
      "id": 12512389, 
      "properties": {
        "woe:id": 12512389, 
        "href": "/125/123/89/12512389.json", 
        "name": "La Nubia Airport", 
        "iata:code": "MZL"
      }
    }, 
    {
      "geometry": {
        "type": "Point", 
        "coordinates": [
          -76.385002, 
          3.546100
        ]
      }, 
      "id": 12512360, 
      "properties": {
        "woe:id": 12512360, 
        "href": "/125/123/60/12512360.json", 
        "name": "Alfonso Bonilla Aragon International Airport", 
        "iata:code": "CLO"
      }
    }, 
    {
      "geometry": {
        "type": "Point", 
        "coordinates": [
          -74.144206, 
          4.699761
        ]
      }, 
      "id": 12512375, 
      "properties": {
        "woe:id": 12512375, 
        "href": "/125/123/75/12512375.json", 
        "name": "Eldorado International Airport", 
        "iata:code": "BOG"
      }
    }, 
    {
      "geometry": {
        "type": "Point", 
        "coordinates": [
          -78.752800, 
          1.820800
        ]
      }, 
      "id": 12512387, 
      "properties": {
        "woe:id": 12512387, 
        "href": "/125/123/87/12512387.json", 
        "name": "La Florida Airport", 
        "iata:code": "TCO"
      }
    }, 
    {
      "geometry": {
        "type": "Point", 
        "coordinates": [
          -73.245003, 
          10.443300
        ]
      }, 
      "id": 12512361, 
      "properties": {
        "woe:id": 12512361, 
        "href": "/125/123/61/12512361.json", 
        "name": "Alfonso Lopez Airport"
      }
    }, 
    {
      "geometry": {
        "type": "Point", 
        "coordinates": [
          -75.297203, 
          2.952800
        ]
      }, 
      "id": 12512365, 
      "properties": {
        "woe:id": 12512365, 
        "href": "/125/123/65/12512365.json", 
        "name": "Benito Salas Airport"
      }
    }, 
    {
      "geometry": {
        "type": "Point", 
        "coordinates": [
          -75.768097, 
          4.456400
        ]
      }, 
      "id": 12512374, 
      "properties": {
        "woe:id": 12512374, 
        "href": "/125/123/74/12512374.json", 
        "name": "El Eden Airport", 
        "iata:code": "AXM"
      }
    }, 
    {
      "geometry": {
        "type": "Point", 
        "coordinates": [
          -76.993103, 
          3.818300
        ]
      }, 
      "id": 12512367, 
      "properties": {
        "woe:id": 12512367, 
        "href": "/125/123/67/12512367.json", 
        "name": "Buenaventura Airport", 
        "iata:code": "BUN"
      }
    }, 
    {
      "geometry": {
        "type": "Point", 
        "coordinates": [
          -72.924400, 
          11.529200
        ]
      }, 
      "id": 12512362, 
      "properties": {
        "woe:id": 12512362, 
        "href": "/125/123/62/12512362.json", 
        "name": "Almirante Padilla Airport", 
        "iata:code": "RCH"
      }
    }, 
    {
      "geometry": {
        "type": "Point", 
        "coordinates": [
          -75.282799, 
          9.337500
        ]
      }, 
      "id": 12512390, 
      "properties": {
        "woe:id": 12512390, 
        "href": "/125/123/90/12512390.json", 
        "name": "Las Brujas Airport", 
        "iata:code": "CZU"
      }
    }, 
    {
      "geometry": {
        "type": "Point", 
        "coordinates": [
          -76.646400, 
          5.690300
        ]
      }, 
      "id": 12512373, 
      "properties": {
        "woe:id": 12512373, 
        "href": "/125/123/73/12512373.json", 
        "name": "El Carano Airport"
      }
    }, 
    {
      "geometry": {
        "type": "Point", 
        "coordinates": [
          -72.509399, 
          7.930000
        ]
      }, 
      "id": 12512370, 
      "properties": {
        "woe:id": 12512370, 
        "href": "/125/123/70/12512370.json", 
        "name": "Camilo Daza Airport", 
        "iata:code": "CUC"
      }
    }, 
    {
      "geometry": {
        "type": "Point", 
        "coordinates": [
          -75.411102, 
          7.979200
        ]
      }, 
      "id": 12512398, 
      "properties": {
        "woe:id": 12512398, 
        "href": "/125/123/98/12512398.json", 
        "name": "Montelibano Airport"
      }
    }, 
    {
      "geometry": {
        "type": "Point", 
        "coordinates": [
          -74.638901, 
          4.218900
        ]
      }, 
      "id": 12512393, 
      "properties": {
        "woe:id": 12512393, 
        "href": "/125/123/93/12512393.json", 
        "name": "Luis F Pinto Airport"
      }
    }, 
    {
      "geometry": {
        "type": "Point", 
        "coordinates": [
          -75.564400, 
          1.584700
        ]
      }, 
      "id": 12512382, 
      "properties": {
        "woe:id": 12512382, 
        "href": "/125/123/82/12512382.json", 
        "name": "Gustavo Artunduaga Paredes Airport"
      }
    }, 
    {
      "geometry": {
        "type": "Point", 
        "coordinates": [
          -74.650597, 
          9.272800
        ]
      }, 
      "id": 12512371, 
      "properties": {
        "woe:id": 12512371, 
        "href": "/125/123/71/12512371.json", 
        "name": "Campamento Petrolero Airport"
      }
    }, 
    {
      "geometry": {
        "type": "Point", 
        "coordinates": [
          -74.655602, 
          5.488900
        ]
      }, 
      "id": 12512377, 
      "properties": {
        "woe:id": 12512377, 
        "href": "/125/123/77/12512377.json", 
        "name": "German Olano Airport", 
        "iata:code": "PAL"
      }
    }, 
    {
      "geometry": {
        "type": "Point", 
        "coordinates": [
          -75.691704, 
          9.402500
        ]
      }, 
      "id": 12512372, 
      "properties": {
        "woe:id": 12512372, 
        "href": "/125/123/72/12512372.json", 
        "name": "Covenas Naval Base"
      }
    }, 
    {
      "geometry": {
        "type": "Point", 
        "coordinates": [
          -75.426697, 
          6.167500
        ]
      }, 
      "id": 12512386, 
      "properties": {
        "woe:id": 12512386, 
        "href": "/125/123/86/12512386.json", 
        "name": "Jose Maria Cordova Airport", 
        "iata:code": "MDE"
      }
    }, 
    {
      "geometry": {
        "type": "Point", 
        "coordinates": [
          -75.824699, 
          8.830600
        ]
      }, 
      "id": 12512392, 
      "properties": {
        "woe:id": 12512392, 
        "href": "/125/123/92/12512392.json", 
        "name": "Los Garzones Airport", 
        "iata:code": "MTR"
      }
    }, 
    {
      "geometry": {
        "type": "Point", 
        "coordinates": [
          -76.501099, 
          3.460300
        ]
      }, 
      "id": 12512395, 
      "properties": {
        "woe:id": 12512395, 
        "href": "/125/123/95/12512395.json", 
        "name": "Marco Fidel Suarez Air Base"
      }
    }, 
    {
      "geometry": {
        "type": "Point", 
        "coordinates": [
          -69.433296, 
          -1.437500
        ]
      }, 
      "id": 12512366, 
      "properties": {
        "woe:id": 12512366, 
        "href": "/125/123/66/12512366.json", 
        "name": "Bittencourt Airport"
      }
    }, 
    {
      "geometry": {
        "type": "Point", 
        "coordinates": [
          -72.898903, 
          10.891100
        ]
      }, 
      "id": 12512368, 
      "properties": {
        "woe:id": 12512368, 
        "href": "/125/123/68/12512368.json", 
        "name": "Buenavista Airport"
      }
    }, 
    {
      "geometry": {
        "type": "Point", 
        "coordinates": [
          -77.908302, 
          2.580600
        ]
      }, 
      "id": 12512379, 
      "properties": {
        "woe:id": 12512379, 
        "href": "/125/123/79/12512379.json", 
        "name": "Guapi Airport"
      }
    }, 
    {
      "geometry": {
        "type": "Point", 
        "coordinates": [
          -77.395599, 
          6.178600
        ]
      }, 
      "id": 12512385, 
      "properties": {
        "woe:id": 12512385, 
        "href": "/125/123/85/12512385.json", 
        "name": "Jose Celestino Mutis Airport", 
        "iata:code": "BSC"
      }
    }, 
    {
      "geometry": {
        "type": "Point", 
        "coordinates": [
          -77.292198, 
          1.410800
        ]
      }, 
      "id": 12512363, 
      "properties": {
        "woe:id": 12512363, 
        "href": "/125/123/63/12512363.json", 
        "name": "Antonio Narino Airport", 
        "iata:code": "PSO"
      }
    }, 
    {
      "geometry": {
        "type": "Point", 
        "coordinates": [
          -74.063904, 
          4.815800
        ]
      }, 
      "id": 12512380, 
      "properties": {
        "woe:id": 12512380, 
        "href": "/125/123/80/12512380.json", 
        "name": "Guaymaral Airport"
      }
    }, 
    {
      "geometry": {
        "type": "Point", 
        "coordinates": [
          -74.273903, 
          4.732200
        ]
      }, 
      "id": 12512394, 
      "properties": {
        "woe:id": 12512394, 
        "href": "/125/123/94/12512394.json", 
        "name": "Madrid Air Base"
      }
    }, 
    {
      "geometry": {
        "type": "Point", 
        "coordinates": [
          -67.784012, 
          3.956070
        ]
      }, 
      "id": 12523681, 
      "properties": {
        "woe:id": 12523681, 
        "href": "/125/236/81/12523681.json", 
        "name": "Puerto Inirida Airport", 
        "iata:code": "PDA"
      }
    }, 
    {
      "geometry": {
        "type": "Point", 
        "coordinates": [
          -74.050003, 
          4.750000
        ]
      }, 
      "id": 12523609, 
      "properties": {
        "woe:id": 12523609, 
        "href": "/125/236/09/12523609.json", 
        "name": "La Uribe Airport", 
        "iata:code": "LAT"
      }
    }, 
    {
      "geometry": {
        "type": "Point", 
        "coordinates": [
          -73.283302, 
          4.516670
        ]
      }, 
      "id": 12523631, 
      "properties": {
        "woe:id": 12523631, 
        "href": "/125/236/31/12523631.json", 
        "name": "Medina Airport", 
        "iata:code": "MND"
      }
    }, 
    {
      "geometry": {
        "type": "Point", 
        "coordinates": [
          -70.050003, 
          1.133330
        ]
      }, 
      "id": 12523635, 
      "properties": {
        "woe:id": 12523635, 
        "href": "/125/236/35/12523635.json", 
        "name": "Mitu Airport"
      }
    }, 
    {
      "geometry": {
        "type": "Point", 
        "coordinates": [
          -76.783302, 
          8.450000
        ]
      }, 
      "id": 12523640, 
      "properties": {
        "woe:id": 12523640, 
        "href": "/125/236/40/12523640.json", 
        "name": "Necocli Airport", 
        "iata:code": "NCI"
      }
    }, 
    {
      "geometry": {
        "type": "Point", 
        "coordinates": [
          -72.233421, 
          11.383740
        ]
      }, 
      "id": 12523627, 
      "properties": {
        "woe:id": 12523627, 
        "href": "/125/236/27/12523627.json", 
        "name": "Maicao Airport"
      }
    }, 
    {
      "geometry": {
        "type": "Point", 
        "coordinates": [
          -75.599998, 
          8.400000
        ]
      }, 
      "id": 12523667, 
      "properties": {
        "woe:id": 12523667, 
        "href": "/125/236/67/12523667.json", 
        "name": "Planeta Rica Airport", 
        "iata:code": "PLC"
      }
    }, 
    {
      "geometry": {
        "type": "Point", 
        "coordinates": [
          -72.199997, 
          5.650000
        ]
      }, 
      "id": 12523643, 
      "properties": {
        "woe:id": 12523643, 
        "href": "/125/236/43/12523643.json", 
        "name": "Nunchia Airport", 
        "iata:code": "NUH"
      }
    }, 
    {
      "geometry": {
        "type": "Point", 
        "coordinates": [
          -74.716698, 
          6.983330
        ]
      }, 
      "id": 12523647, 
      "properties": {
        "woe:id": 12523647, 
        "href": "/125/236/47/12523647.json", 
        "name": "Otu Airport"
      }
    }, 
    {
      "geometry": {
        "type": "Point", 
        "coordinates": [
          -74.483299, 
          6.483330
        ]
      }, 
      "id": 12523679, 
      "properties": {
        "woe:id": 12523679, 
        "href": "/125/236/79/12523679.json", 
        "name": "Puerto Berrio Airport", 
        "iata:code": "PBE"
      }
    }, 
    {
      "geometry": {
        "type": "Point", 
        "coordinates": [
          -71.816704, 
          5.783330
        ]
      }, 
      "id": 12523658, 
      "properties": {
        "woe:id": 12523658, 
        "href": "/125/236/58/12523658.json", 
        "name": "Casanare Airport"
      }
    }, 
    {
      "geometry": {
        "type": "Point", 
        "coordinates": [
          -69.750000, 
          0.633330
        ]
      }, 
      "id": 12523636, 
      "properties": {
        "woe:id": 12523636, 
        "href": "/125/236/36/12523636.json", 
        "name": "Monfort Airport", 
        "iata:code": "MFB"
      }
    }, 
    {
      "geometry": {
        "type": "Point", 
        "coordinates": [
          -77.276520, 
          5.698890
        ]
      }, 
      "id": 12523644, 
      "properties": {
        "woe:id": 12523644, 
        "href": "/125/236/44/12523644.json", 
        "name": "Nuqui Airport", 
        "iata:code": "NQU"
      }
    }, 
    {
      "geometry": {
        "type": "Point", 
        "coordinates": [
          -67.633301, 
          6.183330
        ]
      }, 
      "id": 12523680, 
      "properties": {
        "woe:id": 12523680, 
        "href": "/125/236/80/12523680.json", 
        "name": "Puerto Carreno Airport", 
        "iata:code": "PCR"
      }
    }, 
    {
      "geometry": {
        "type": "Point", 
        "coordinates": [
          -77.083298, 
          8.033330
        ]
      }, 
      "id": 12523748, 
      "properties": {
        "woe:id": 12523748, 
        "href": "/125/237/48/12523748.json", 
        "name": "Unguia Airport", 
        "iata:code": "UNC"
      }
    }, 
    {
      "geometry": {
        "type": "Point", 
        "coordinates": [
          -75.586159, 
          9.498080
        ]
      }, 
      "id": 12523738, 
      "properties": {
        "woe:id": 12523738, 
        "href": "/125/237/38/12523738.json", 
        "name": "Tolu Airport", 
        "iata:code": "TLU"
      }
    }, 
    {
      "geometry": {
        "type": "Point", 
        "coordinates": [
          -70.866699, 
          5.116700
        ]
      }, 
      "id": 12523707, 
      "properties": {
        "woe:id": 12523707, 
        "href": "/125/237/07/12523707.json", 
        "name": "Santa Rosalia Airport", 
        "iata:code": "SSL"
      }
    }, 
    {
      "geometry": {
        "type": "Point", 
        "coordinates": [
          -69.210449, 
          0.614830
        ]
      }, 
      "id": 12523769, 
      "properties": {
        "woe:id": 12523769, 
        "href": "/125/237/69/12523769.json", 
        "name": "Yavarate Airport", 
        "iata:code": "VAB"
      }
    }, 
    {
      "geometry": {
        "type": "Point", 
        "coordinates": [
          -76.716698, 
          1.066670
        ]
      }, 
      "id": 12523760, 
      "properties": {
        "woe:id": 12523760, 
        "href": "/125/237/60/12523760.json", 
        "name": "Villagarzon Airport"
      }
    }, 
    {
      "geometry": {
        "type": "Point", 
        "coordinates": [
          -75.266701, 
          0.716670
        ]
      }, 
      "id": 12523726, 
      "properties": {
        "woe:id": 12523726, 
        "href": "/125/237/26/12523726.json", 
        "name": "Solano Airport"
      }
    }, 
    {
      "geometry": {
        "type": "Point", 
        "coordinates": [
          -75.501289, 
          0.828040
        ]
      }, 
      "id": 12523727, 
      "properties": {
        "woe:id": 12523727, 
        "href": "/125/237/27/12523727.json", 
        "name": "Solita Airport", 
        "iata:code": "SOH"
      }
    }, 
    {
      "geometry": {
        "type": "Point", 
        "coordinates": [
          -73.283302, 
          6.816670
        ]
      }, 
      "id": 12523770, 
      "properties": {
        "woe:id": 12523770, 
        "href": "/125/237/70/12523770.json", 
        "name": "Zapatoca Airport", 
        "iata:code": "AZT"
      }
    }, 
    {
      "geometry": {
        "type": "Point", 
        "coordinates": [
          -73.528801, 
          7.419770
        ]
      }, 
      "id": 12523702, 
      "properties": {
        "woe:id": 12523702, 
        "href": "/125/237/02/12523702.json", 
        "name": "Sabana de Torres Airport"
      }
    }, 
    {
      "geometry": {
        "type": "Point", 
        "coordinates": [
          -76.733299, 
          8.100000
        ]
      }, 
      "id": 12523746, 
      "properties": {
        "woe:id": 12523746, 
        "href": "/125/237/46/12523746.json", 
        "name": "Gonzalo Airport"
      }
    }, 
    {
      "geometry": {
        "type": "Point", 
        "coordinates": [
          -72.733299, 
          5.000000
        ]
      }, 
      "id": 12523733, 
      "properties": {
        "woe:id": 12523733, 
        "href": "/125/237/33/12523733.json", 
        "name": "Tauramena Airport", 
        "iata:code": "TAU"
      }
    }, 
    {
      "geometry": {
        "type": "Point", 
        "coordinates": [
          -76.183296, 
          6.333330
        ]
      }, 
      "id": 12523751, 
      "properties": {
        "woe:id": 12523751, 
        "href": "/125/237/51/12523751.json", 
        "name": "Urrao Airport", 
        "iata:code": "URR"
      }
    }, 
    {
      "geometry": {
        "type": "Point", 
        "coordinates": [
          -78.616699, 
          2.083300
        ]
      }, 
      "id": 12523768, 
      "properties": {
        "woe:id": 12523768, 
        "href": "/125/237/68/12523768.json", 
        "name": "Yari Airport", 
        "iata:code": "AYI"
      }
    }, 
    {
      "geometry": {
        "type": "Point", 
        "coordinates": [
          -73.016701, 
          10.766700
        ]
      }, 
      "id": 12523705, 
      "properties": {
        "woe:id": 12523705, 
        "href": "/125/237/05/12523705.json", 
        "name": "San Juan del Cesar Airport", 
        "iata:code": "SJH"
      }
    }, 
    {
      "geometry": {
        "type": "Point", 
        "coordinates": [
          -77.650002, 
          2.766670
        ]
      }, 
      "id": 12523736, 
      "properties": {
        "woe:id": 12523736, 
        "href": "/125/237/36/12523736.json", 
        "name": "Timbiqui Airport", 
        "iata:code": "TBD"
      }
    }, 
    {
      "geometry": {
        "type": "Point", 
        "coordinates": [
          -76.233299, 
          4.100000
        ]
      }, 
      "id": 12523744, 
      "properties": {
        "woe:id": 12523744, 
        "href": "/125/237/44/12523744.json", 
        "name": "Farfan Airport"
      }
    }, 
    {
      "geometry": {
        "type": "Point", 
        "coordinates": [
          -76.316673, 
          8.566670
        ]
      }, 
      "id": 12523216, 
      "properties": {
        "woe:id": 12523216, 
        "href": "/125/232/16/12523216.json", 
        "name": "Santa Catalina Airport", 
        "iata:code": "SCA"
      }
    }, 
    {
      "geometry": {
        "type": "Point", 
        "coordinates": [
          -74.580116, 
          6.002320
        ]
      }, 
      "id": 12524508, 
      "properties": {
        "woe:id": 12524508, 
        "href": "/125/245/08/12524508.json", 
        "name": "Puerto Boyaca Airport", 
        "iata:code": "PYA"
      }
    }, 
    {
      "geometry": {
        "type": "Point", 
        "coordinates": [
          -73.783302, 
          8.250000
        ]
      }, 
      "id": 12524503, 
      "properties": {
        "woe:id": 12524503, 
        "href": "/125/245/03/12524503.json", 
        "name": "Aguasclaras Airport", 
        "iata:code": "OCV"
      }
    }, 
    {
      "geometry": {
        "type": "Point", 
        "coordinates": [
          -71.983299, 
          5.733330
        ]
      }, 
      "id": 12524507, 
      "properties": {
        "woe:id": 12524507, 
        "href": "/125/245/07/12524507.json", 
        "name": "Pore Airport", 
        "iata:code": "PRE"
      }
    }, 
    {
      "geometry": {
        "type": "Point", 
        "coordinates": [
          -71.699997, 
          5.400000
        ]
      }, 
      "id": 12524515, 
      "properties": {
        "woe:id": 12524515, 
        "href": "/125/245/15/12524515.json", 
        "name": "San Luis de Palenque Airport"
      }
    }, 
    {
      "geometry": {
        "type": "Point", 
        "coordinates": [
          -78.166702, 
          1.800000
        ]
      }, 
      "id": 12524509, 
      "properties": {
        "woe:id": 12524509, 
        "href": "/125/245/09/12524509.json", 
        "name": "Payan Airport", 
        "iata:code": "PYN"
      }
    }, 
    {
      "geometry": {
        "type": "Point", 
        "coordinates": [
          -69.741653, 
          -2.866840
        ]
      }, 
      "id": 12524519, 
      "properties": {
        "woe:id": 12524519, 
        "href": "/125/245/19/12524519.json", 
        "name": "Tarapaca Airport", 
        "iata:code": "TCD"
      }
    }, 
    {
      "geometry": {
        "type": "Point", 
        "coordinates": [
          -73.333298, 
          4.650000
        ]
      }, 
      "id": 12524512, 
      "properties": {
        "woe:id": 12524512, 
        "href": "/125/245/12/12524512.json", 
        "name": "San Pedro Jagua Airport"
      }
    }, 
    {
      "geometry": {
        "type": "Point", 
        "coordinates": [
          -75.250000, 
          2.216670
        ]
      }, 
      "id": 12524516, 
      "properties": {
        "woe:id": 12524516, 
        "href": "/125/245/16/12524516.json", 
        "name": "Santana Ramos Airport", 
        "iata:code": "SRO"
      }
    }, 
    {
      "geometry": {
        "type": "Point", 
        "coordinates": [
          -74.783302, 
          9.800000
        ]
      }, 
      "id": 12524506, 
      "properties": {
        "woe:id": 12524506, 
        "href": "/125/245/06/12524506.json", 
        "name": "Plato Airport", 
        "iata:code": "PLT"
      }
    }, 
    {
      "geometry": {
        "type": "Point", 
        "coordinates": [
          -74.400002, 
          3.216670
        ]
      }, 
      "id": 12524523, 
      "properties": {
        "woe:id": 12524523, 
        "href": "/125/245/23/12524523.json", 
        "name": "Uribe Airport"
      }
    }, 
    {
      "geometry": {
        "type": "Point", 
        "coordinates": [
          -72.608093, 
          2.593280
        ]
      }, 
      "id": 12524511, 
      "properties": {
        "woe:id": 12524511, 
        "href": "/125/245/11/12524511.json", 
        "name": "San Jose del Guaviaro Airport", 
        "iata:code": "SJE"
      }
    }, 
    {
      "geometry": {
        "type": "Point", 
        "coordinates": [
          -75.166702, 
          8.683330
        ]
      }, 
      "id": 12524517, 
      "properties": {
        "woe:id": 12524517, 
        "href": "/125/245/17/12524517.json", 
        "name": "San Marcos Airport", 
        "iata:code": "SRS"
      }
    }, 
    {
      "geometry": {
        "type": "Point", 
        "coordinates": [
          -74.616699, 
          6.200000
        ]
      }, 
      "id": 12524500, 
      "properties": {
        "woe:id": 12524500, 
        "href": "/125/245/00/12524500.json", 
        "name": "Nare Airport"
      }
    }, 
    {
      "geometry": {
        "type": "Point", 
        "coordinates": [
          -77.050003, 
          8.166670
        ]
      }, 
      "id": 12524514, 
      "properties": {
        "woe:id": 12524514, 
        "href": "/125/245/14/12524514.json", 
        "name": "Santa Maria Airport", 
        "iata:code": "SMC"
      }
    }, 
    {
      "geometry": {
        "type": "Point", 
        "coordinates": [
          -67.099998, 
          1.916670
        ]
      }, 
      "id": 12524518, 
      "properties": {
        "woe:id": 12524518, 
        "href": "/125/245/18/12524518.json", 
        "name": "San Felipe Airport", 
        "iata:code": "SSD"
      }
    }, 
    {
      "geometry": {
        "type": "Point", 
        "coordinates": [
          -70.333298, 
          3.333330
        ]
      }, 
      "id": 12524501, 
      "properties": {
        "woe:id": 12524501, 
        "href": "/125/245/01/12524501.json", 
        "name": "Barrancominas Airport", 
        "iata:code": "NBB"
      }
    }, 
    {
      "geometry": {
        "type": "Point", 
        "coordinates": [
          -75.283302, 
          2.933330
        ]
      }, 
      "id": 12524502, 
      "properties": {
        "woe:id": 12524502, 
        "href": "/125/245/02/12524502.json", 
        "name": "Neiva Lamarguita Airport", 
        "iata:code": "NVA"
      }
    }, 
    {
      "geometry": {
        "type": "Point", 
        "coordinates": [
          -71.633301, 
          5.266670
        ]
      }, 
      "id": 12524520, 
      "properties": {
        "woe:id": 12524520, 
        "href": "/125/245/20/12524520.json", 
        "name": "Trinidad Airport", 
        "iata:code": "TDA"
      }
    }, 
    {
      "geometry": {
        "type": "Point", 
        "coordinates": [
          -76.533302, 
          8.766670
        ]
      }, 
      "id": 12524513, 
      "properties": {
        "woe:id": 12524513, 
        "href": "/125/245/13/12524513.json", 
        "name": "San Juan de Uraba Airport"
      }
    }, 
    {
      "geometry": {
        "type": "Point", 
        "coordinates": [
          -71.083298, 
          6.300000
        ]
      }, 
      "id": 12524510, 
      "properties": {
        "woe:id": 12524510, 
        "href": "/125/245/10/12524510.json", 
        "name": "Rondon Airport", 
        "iata:code": "RON"
      }
    }, 
    {
      "geometry": {
        "type": "Point", 
        "coordinates": [
          -75.699997, 
          3.300000
        ]
      }, 
      "id": 12524505, 
      "properties": {
        "woe:id": 12524505, 
        "href": "/125/245/05/12524505.json", 
        "name": "Planadas Airport", 
        "iata:code": "PLA"
      }
    }, 
    {
      "geometry": {
        "type": "Point", 
        "coordinates": [
          -75.128548, 
          1.856190
        ]
      }, 
      "id": 12524504, 
      "properties": {
        "woe:id": 12524504, 
        "href": "/125/245/04/12524504.json", 
        "name": "Puerto Rico Airport", 
        "iata:code": "PCC"
      }
    }, 
    {
      "geometry": {
        "type": "Point", 
        "coordinates": [
          -75.219261, 
          0.753650
        ]
      }, 
      "id": 12524521, 
      "properties": {
        "woe:id": 12524521, 
        "href": "/125/245/21/12524521.json", 
        "name": "Tres Esquinas Airport"
      }
    }, 
    {
      "geometry": {
        "type": "Point", 
        "coordinates": [
          -72.099998, 
          5.716670
        ]
      }, 
      "id": 12524522, 
      "properties": {
        "woe:id": 12524522, 
        "href": "/125/245/22/12524522.json", 
        "name": "Tablon de Tamara Airport", 
        "iata:code": "TTM"
      }
    }, 
    {
      "geometry": {
        "type": "Point", 
        "coordinates": [
          -73.701576, 
          8.343820
        ]
      }, 
      "id": 12524481, 
      "properties": {
        "woe:id": 12524481, 
        "href": "/125/244/81/12524481.json", 
        "name": "Gamarra Airport", 
        "iata:code": "GRA"
      }
    }, 
    {
      "geometry": {
        "type": "Point", 
        "coordinates": [
          -77.966698, 
          2.441670
        ]
      }, 
      "id": 12524483, 
      "properties": {
        "woe:id": 12524483, 
        "href": "/125/244/83/12524483.json", 
        "name": "Iscuande Airport"
      }
    }, 
    {
      "geometry": {
        "type": "Point", 
        "coordinates": [
          -74.949997, 
          2.283330
        ]
      }, 
      "id": 12524478, 
      "properties": {
        "woe:id": 12524478, 
        "href": "/125/244/78/12524478.json", 
        "name": "Guacamayas Airport", 
        "iata:code": "GCA"
      }
    }, 
    {
      "geometry": {
        "type": "Point", 
        "coordinates": [
          -75.883301, 
          5.666670
        ]
      }, 
      "id": 12524459, 
      "properties": {
        "woe:id": 12524459, 
        "href": "/125/244/59/12524459.json", 
        "name": "Andes Airport", 
        "iata:code": "ADN"
      }
    }, 
    {
      "geometry": {
        "type": "Point", 
        "coordinates": [
          -72.849998, 
          4.916670
        ]
      }, 
      "id": 12524497, 
      "properties": {
        "woe:id": 12524497, 
        "href": "/125/244/97/12524497.json", 
        "name": "Monterrey Airport", 
        "iata:code": "MOY"
      }
    }, 
    {
      "geometry": {
        "type": "Point", 
        "coordinates": [
          -74.820381, 
          -0.120030
        ]
      }, 
      "id": 12524491, 
      "properties": {
        "woe:id": 12524491, 
        "href": "/125/244/91/12524491.json", 
        "name": "Puerto Leguizamo Airport"
      }
    }, 
    {
      "geometry": {
        "type": "Point", 
        "coordinates": [
          -72.383301, 
          5.350000
        ]
      }, 
      "id": 12524476, 
      "properties": {
        "woe:id": 12524476, 
        "href": "/125/244/76/12524476.json", 
        "name": "El Yopal Airport"
      }
    }, 
    {
      "geometry": {
        "type": "Point", 
        "coordinates": [
          -77.544197, 
          3.041340
        ]
      }, 
      "id": 12524488, 
      "properties": {
        "woe:id": 12524488, 
        "href": "/125/244/88/12524488.json", 
        "name": "Lopez de Micay Airport"
      }
    }, 
    {
      "geometry": {
        "type": "Point", 
        "coordinates": [
          -74.583298, 
          2.066670
        ]
      }, 
      "id": 12524464, 
      "properties": {
        "woe:id": 12524464, 
        "href": "/125/244/64/12524464.json", 
        "name": "Candilejas Airport", 
        "iata:code": "CJD"
      }
    }, 
    {
      "geometry": {
        "type": "Point", 
        "coordinates": [
          -71.233299, 
          1.033330
        ]
      }, 
      "id": 12524469, 
      "properties": {
        "woe:id": 12524469, 
        "href": "/125/244/69/12524469.json", 
        "name": "Caruru Airport", 
        "iata:code": "CUO"
      }
    }, 
    {
      "geometry": {
        "type": "Point", 
        "coordinates": [
          -74.433296, 
          9.250000
        ]
      }, 
      "id": 12524496, 
      "properties": {
        "woe:id": 12524496, 
        "href": "/125/244/96/12524496.json", 
        "name": "Mompos Airport"
      }
    }, 
    {
      "geometry": {
        "type": "Point", 
        "coordinates": [
          -67.583298, 
          2.566670
        ]
      }, 
      "id": 12524499, 
      "properties": {
        "woe:id": 12524499, 
        "href": "/125/244/99/12524499.json", 
        "name": "Macanal Airport", 
        "iata:code": "NAD"
      }
    }, 
    {
      "geometry": {
        "type": "Point", 
        "coordinates": [
          -69.716698, 
          -1.300000
        ]
      }, 
      "id": 12524489, 
      "properties": {
        "woe:id": 12524489, 
        "href": "/125/244/89/12524489.json", 
        "name": "La Pedrera Airport"
      }
    }, 
    {
      "geometry": {
        "type": "Point", 
        "coordinates": [
          -73.616699, 
          8.600000
        ]
      }, 
      "id": 12524460, 
      "properties": {
        "woe:id": 12524460, 
        "href": "/125/244/60/12524460.json", 
        "name": "Ayacucho Airport", 
        "iata:code": "AYC"
      }
    }, 
    {
      "geometry": {
        "type": "Point", 
        "coordinates": [
          -74.133301, 
          2.000000
        ]
      }, 
      "id": 12524475, 
      "properties": {
        "woe:id": 12524475, 
        "href": "/125/244/75/12524475.json", 
        "name": "El Recreo Airport", 
        "iata:code": "ELJ"
      }
    }, 
    {
      "geometry": {
        "type": "Point", 
        "coordinates": [
          -73.900002, 
          3.316670
        ]
      }, 
      "id": 12524487, 
      "properties": {
        "woe:id": 12524487, 
        "href": "/125/244/87/12524487.json", 
        "name": "Lamacarena Airport"
      }
    }, 
    {
      "geometry": {
        "type": "Point", 
        "coordinates": [
          -75.516701, 
          2.666670
        ]
      }, 
      "id": 12524461, 
      "properties": {
        "woe:id": 12524461, 
        "href": "/125/244/61/12524461.json", 
        "name": "Yaguara Airport", 
        "iata:code": "AYG"
      }
    }, 
    {
      "geometry": {
        "type": "Point", 
        "coordinates": [
          -75.750000, 
          3.700000
        ]
      }, 
      "id": 12524465, 
      "properties": {
        "woe:id": 12524465, 
        "href": "/125/244/65/12524465.json", 
        "name": "Chaparral Airport", 
        "iata:code": "CPL"
      }
    }, 
    {
      "geometry": {
        "type": "Point", 
        "coordinates": [
          -73.966698, 
          9.050000
        ]
      }, 
      "id": 12524474, 
      "properties": {
        "woe:id": 12524474, 
        "href": "/125/244/74/12524474.json", 
        "name": "San Bernad Airport", 
        "iata:code": "ELB"
      }
    }, 
    {
      "geometry": {
        "type": "Point", 
        "coordinates": [
          -75.933296, 
          4.766670
        ]
      }, 
      "id": 12524467, 
      "properties": {
        "woe:id": 12524467, 
        "href": "/125/244/67/12524467.json", 
        "name": "Cartago Airport", 
        "iata:code": "CRC"
      }
    }, 
    {
      "geometry": {
        "type": "Point", 
        "coordinates": [
          -77.325363, 
          6.551010
        ]
      }, 
      "id": 12524462, 
      "properties": {
        "woe:id": 12524462, 
        "href": "/125/244/62/12524462.json", 
        "name": "Bahia Cupica Airport", 
        "iata:code": "BHF"
      }
    }, 
    {
      "geometry": {
        "type": "Point", 
        "coordinates": [
          -76.216698, 
          3.733330
        ]
      }, 
      "id": 12524490, 
      "properties": {
        "woe:id": 12524490, 
        "href": "/125/244/90/12524490.json", 
        "name": "La Primavera Airport"
      }
    }, 
    {
      "geometry": {
        "type": "Point", 
        "coordinates": [
          -78.008301, 
          2.500000
        ]
      }, 
      "id": 12524473, 
      "properties": {
        "woe:id": 12524473, 
        "href": "/125/244/73/12524473.json", 
        "name": "El Charco Airport", 
        "iata:code": "ECR"
      }
    }, 
    {
      "geometry": {
        "type": "Point", 
        "coordinates": [
          -73.449997, 
          9.600000
        ]
      }, 
      "id": 12524470, 
      "properties": {
        "woe:id": 12524470, 
        "href": "/125/244/70/12524470.json", 
        "name": "Codazzi Airport", 
        "iata:code": "DZI"
      }
    }, 
    {
      "geometry": {
        "type": "Point", 
        "coordinates": [
          -78.416481, 
          2.507800
        ]
      }, 
      "id": 12524498, 
      "properties": {
        "woe:id": 12524498, 
        "href": "/125/244/98/12524498.json", 
        "name": "Mosquera Airport"
      }
    }, 
    {
      "geometry": {
        "type": "Point", 
        "coordinates": [
          -72.133301, 
          1.033330
        ]
      }, 
      "id": 12524493, 
      "properties": {
        "woe:id": 12524493, 
        "href": "/125/244/93/12524493.json", 
        "name": "Miraflores Airport", 
        "iata:code": "MFS"
      }
    }, 
    {
      "geometry": {
        "type": "Point", 
        "coordinates": [
          -75.849998, 
          3.216670
        ]
      }, 
      "id": 12524482, 
      "properties": {
        "woe:id": 12524482, 
        "href": "/125/244/82/12524482.json", 
        "name": "Herrera Airport"
      }
    }, 
    {
      "geometry": {
        "type": "Point", 
        "coordinates": [
          -74.816704, 
          7.616670
        ]
      }, 
      "id": 12524471, 
      "properties": {
        "woe:id": 12524471, 
        "href": "/125/244/71/12524471.json", 
        "name": "El Bagre Airport", 
        "iata:code": "EBG"
      }
    }, 
    {
      "geometry": {
        "type": "Point", 
        "coordinates": [
          -74.233299, 
          9.150000
        ]
      }, 
      "id": 12524477, 
      "properties": {
        "woe:id": 12524477, 
        "href": "/125/244/77/12524477.json", 
        "name": "Guamal Airport", 
        "iata:code": "GAA"
      }
    }, 
    {
      "geometry": {
        "type": "Point", 
        "coordinates": [
          -73.233299, 
          -1.616670
        ]
      }, 
      "id": 12524472, 
      "properties": {
        "woe:id": 12524472, 
        "href": "/125/244/72/12524472.json", 
        "name": "El Encanto Airport", 
        "iata:code": "ECO"
      }
    }, 
    {
      "geometry": {
        "type": "Point", 
        "coordinates": [
          -70.833298, 
          4.583330
        ]
      }, 
      "id": 12524486, 
      "properties": {
        "woe:id": 12524486, 
        "href": "/125/244/86/12524486.json", 
        "name": "Las Gaviotas Airport"
      }
    }, 
    {
      "geometry": {
        "type": "Point", 
        "coordinates": [
          -75.847839, 
          9.269180
        ]
      }, 
      "id": 12524492, 
      "properties": {
        "woe:id": 12524492, 
        "href": "/125/244/92/12524492.json", 
        "name": "Lorica Airport", 
        "iata:code": "LRI"
      }
    }, 
    {
      "geometry": {
        "type": "Point", 
        "coordinates": [
          -70.250000, 
          -1.133330
        ]
      }, 
      "id": 12524495, 
      "properties": {
        "woe:id": 12524495, 
        "href": "/125/244/95/12524495.json", 
        "name": "Miriti Airport"
      }
    }, 
    {
      "geometry": {
        "type": "Point", 
        "coordinates": [
          -76.599998, 
          6.516670
        ]
      }, 
      "id": 12524484, 
      "properties": {
        "woe:id": 12524484, 
        "href": "/125/244/84/12524484.json", 
        "name": "Jurado Airport"
      }
    }, 
    {
      "geometry": {
        "type": "Point", 
        "coordinates": [
          -74.216698, 
          2.033330
        ]
      }, 
      "id": 12524466, 
      "properties": {
        "woe:id": 12524466, 
        "href": "/125/244/66/12524466.json", 
        "name": "Caquetania Airport", 
        "iata:code": "CQT"
      }
    }, 
    {
      "geometry": {
        "type": "Point", 
        "coordinates": [
          -72.000000, 
          4.666670
        ]
      }, 
      "id": 12524468, 
      "properties": {
        "woe:id": 12524468, 
        "href": "/125/244/68/12524468.json", 
        "name": "Currillo Airport", 
        "iata:code": "CUI"
      }
    }, 
    {
      "geometry": {
        "type": "Point", 
        "coordinates": [
          -77.083298, 
          8.333330
        ]
      }, 
      "id": 12524479, 
      "properties": {
        "woe:id": 12524479, 
        "href": "/125/244/79/12524479.json", 
        "name": "Gilgal Airport"
      }
    }, 
    {
      "geometry": {
        "type": "Point", 
        "coordinates": [
          -73.016701, 
          -0.733330
        ]
      }, 
      "id": 12524485, 
      "properties": {
        "woe:id": 12524485, 
        "href": "/125/244/85/12524485.json", 
        "name": "La Chorrera Airport"
      }
    }, 
    {
      "geometry": {
        "type": "Point", 
        "coordinates": [
          -74.033302, 
          6.483330
        ]
      }, 
      "id": 12524463, 
      "properties": {
        "woe:id": 12524463, 
        "href": "/125/244/63/12524463.json", 
        "name": "Cimitarra Airport", 
        "iata:code": "CIM"
      }
    }, 
    {
      "geometry": {
        "type": "Point", 
        "coordinates": [
          -71.166702, 
          3.633330
        ]
      }, 
      "id": 12524480, 
      "properties": {
        "woe:id": 12524480, 
        "href": "/125/244/80/12524480.json", 
        "name": "Guerima Airport"
      }
    }, 
    {
      "geometry": {
        "type": "Point", 
        "coordinates": [
          -70.108727, 
          2.130420
        ]
      }, 
      "id": 12524494, 
      "properties": {
        "woe:id": 12524494, 
        "href": "/125/244/94/12524494.json", 
        "name": "Morichal Airport", 
        "iata:code": "MHF"
      }
    }, 
    {
      "geometry": {
        "type": "Point", 
        "coordinates": [
          -74.683296, 
          10.016700
        ]
      }, 
      "id": 12523538, 
      "properties": {
        "woe:id": 12523538, 
        "href": "/125/235/38/12523538.json", 
        "name": "Chivolo Airport", 
        "iata:code": "IVO"
      }
    }, 
    {
      "geometry": {
        "type": "Point", 
        "coordinates": [
          -71.750000, 
          6.166670
        ]
      }, 
      "id": 12523576, 
      "properties": {
        "woe:id": 12523576, 
        "href": "/125/235/76/12523576.json", 
        "name": "Hato Corozal Airport", 
        "iata:code": "HTZ"
      }
    }, 
    {
      "geometry": {
        "type": "Point", 
        "coordinates": [
          -75.206146, 
          7.993070
        ]
      }, 
      "id": 12523531, 
      "properties": {
        "woe:id": 12523531, 
        "href": "/125/235/31/12523531.json", 
        "name": "Caucasia Airport", 
        "iata:code": "CAQ"
      }
    }, 
    {
      "geometry": {
        "type": "Point", 
        "coordinates": [
          -67.654579, 
          5.676890
        ]
      }, 
      "id": 12523528, 
      "properties": {
        "woe:id": 12523528, 
        "href": "/125/235/28/12523528.json", 
        "name": "Casuarito Airport", 
        "iata:code": "CSR"
      }
    }, 
    {
      "geometry": {
        "type": "Point", 
        "coordinates": [
          -77.349998, 
          8.633300
        ]
      }, 
      "id": 12523517, 
      "properties": {
        "woe:id": 12523517, 
        "href": "/125/235/17/12523517.json", 
        "name": "Capurgana Airport", 
        "iata:code": "CPB"
      }
    }, 
    {
      "geometry": {
        "type": "Point", 
        "coordinates": [
          -76.642227, 
          5.070400
        ]
      }, 
      "id": 12523547, 
      "properties": {
        "woe:id": 12523547, 
        "href": "/125/235/47/12523547.json", 
        "name": "Mandinga Airport", 
        "iata:code": "COG"
      }
    }, 
    {
      "geometry": {
        "type": "Point", 
        "coordinates": [
          -70.183296, 
          6.316670
        ]
      }, 
      "id": 12523551, 
      "properties": {
        "woe:id": 12523551, 
        "href": "/125/235/51/12523551.json", 
        "name": "Cravo Norte Airport", 
        "iata:code": "RAV"
      }
    }, 
    {
      "geometry": {
        "type": "Point", 
        "coordinates": [
          -76.694702, 
          7.685000
        ]
      }, 
      "id": 12523536, 
      "properties": {
        "woe:id": 12523536, 
        "href": "/125/235/36/12523536.json", 
        "name": "Chigorodo Airport", 
        "iata:code": "IGO"
      }
    }
  ], 
  "properties": {
    "iso": "CO", 
    "woe:country": 23424787
  }
}