{
  "type": "FeatureCollection", 
  "features": [
    {
      "geometry": {
        "type": "Point", 
        "coordinates": [
          -80.052803, 
          22.801701
        ]
      }, 
      "id": 12512481, 
      "properties": {
        "woe:id": 12512481, 
        "href": "/125/124/81/12512481.json", 
        "name": "Sagua la Grande Airport"
      }
    }, 
    {
      "geometry": {
        "type": "Point", 
        "coordinates": [
          -82.133301, 
          22.980301
        ]
      }, 
      "id": 12512483, 
      "properties": {
        "woe:id": 12512483, 
        "href": "/125/124/83/12512483.json", 
        "name": "San Jose de Las Lajas Highway Airport"
      }
    }, 
    {
      "geometry": {
        "type": "Point", 
        "coordinates": [
          -76.619202, 
          20.397200
        ]
      }, 
      "id": 12512453, 
      "properties": {
        "woe:id": 12512453, 
        "href": "/125/124/53/12512453.json", 
        "name": "Bayamo Airport", 
        "iata:code": "BYM"
      }
    }, 
    {
      "geometry": {
        "type": "Point", 
        "coordinates": [
          -82.779999, 
          21.837500
        ]
      }, 
      "id": 12512478, 
      "properties": {
        "woe:id": 12512478, 
        "href": "/125/124/78/12512478.json", 
        "name": "Nueva Gerona Airport", 
        "iata:code": "GER"
      }
    }, 
    {
      "geometry": {
        "type": "Point", 
        "coordinates": [
          -78.452202, 
          21.314699
        ]
      }, 
      "id": 12512459, 
      "properties": {
        "woe:id": 12512459, 
        "href": "/125/124/59/12512459.json", 
        "name": "El Caney Airport"
      }
    }, 
    {
      "geometry": {
        "type": "Point", 
        "coordinates": [
          -74.921898, 
          20.655001
        ]
      }, 
      "id": 12512476, 
      "properties": {
        "woe:id": 12512476, 
        "href": "/125/124/76/12512476.json", 
        "name": "Orestes Acosta Airport", 
        "iata:code": "MOA"
      }
    }, 
    {
      "geometry": {
        "type": "Point", 
        "coordinates": [
          -79.940804, 
          22.492201
        ]
      }, 
      "id": 12512488, 
      "properties": {
        "woe:id": 12512488, 
        "href": "/125/124/88/12512488.json", 
        "name": "Santa Clara Airport", 
        "iata:code": "SNU"
      }
    }, 
    {
      "geometry": {
        "type": "Point", 
        "coordinates": [
          -76.315002, 
          20.785299
        ]
      }, 
      "id": 12512464, 
      "properties": {
        "woe:id": 12512464, 
        "href": "/125/124/64/12512464.json", 
        "name": "Holguin Airport", 
        "iata:code": "HOG"
      }
    }, 
    {
      "geometry": {
        "type": "Point", 
        "coordinates": [
          -78.465599, 
          21.467800
        ]
      }, 
      "id": 12512469, 
      "properties": {
        "woe:id": 12512469, 
        "href": "/125/124/69/12512469.json", 
        "name": "La Olivia Airport"
      }
    }, 
    {
      "geometry": {
        "type": "Point", 
        "coordinates": [
          -81.436699, 
          23.030600
        ]
      }, 
      "id": 12512489, 
      "properties": {
        "woe:id": 12512489, 
        "href": "/125/124/89/12512489.json", 
        "name": "Varadero Airport", 
        "iata:code": "VRA"
      }
    }, 
    {
      "geometry": {
        "type": "Point", 
        "coordinates": [
          -82.932198, 
          22.618099
        ]
      }, 
      "id": 12512460, 
      "properties": {
        "woe:id": 12512460, 
        "href": "/125/124/60/12512460.json", 
        "name": "El Frances Airport"
      }
    }, 
    {
      "geometry": {
        "type": "Point", 
        "coordinates": [
          -82.767799, 
          23.006901
        ]
      }, 
      "id": 12512475, 
      "properties": {
        "woe:id": 12512475, 
        "href": "/125/124/75/12512475.json", 
        "name": "Mariel Cnas Airport"
      }
    }, 
    {
      "geometry": {
        "type": "Point", 
        "coordinates": [
          -82.470596, 
          22.975000
        ]
      }, 
      "id": 12512487, 
      "properties": {
        "woe:id": 12512487, 
        "href": "/125/124/87/12512487.json", 
        "name": "San Pedro Highway Strip Airport"
      }
    }, 
    {
      "geometry": {
        "type": "Point", 
        "coordinates": [
          -78.203300, 
          21.498899
        ]
      }, 
      "id": 12512461, 
      "properties": {
        "woe:id": 12512461, 
        "href": "/125/124/61/12512461.json", 
        "name": "Florida Airport"
      }
    }, 
    {
      "geometry": {
        "type": "Point", 
        "coordinates": [
          -77.845802, 
          21.418600
        ]
      }, 
      "id": 12512465, 
      "properties": {
        "woe:id": 12512465, 
        "href": "/125/124/65/12512465.json", 
        "name": "Ignacio Agramonte Airport", 
        "iata:code": "CMW"
      }
    }, 
    {
      "geometry": {
        "type": "Point", 
        "coordinates": [
          -81.542198, 
          21.616899
        ]
      }, 
      "id": 12512455, 
      "properties": {
        "woe:id": 12512455, 
        "href": "/125/124/55/12512455.json", 
        "icao:code": "KCYO", 
        "name": "Cayo Largo del sur Airport", 
        "iata:code": "CYO"
      }
    }, 
    {
      "geometry": {
        "type": "Point", 
        "coordinates": [
          -77.086403, 
          20.286100
        ]
      }, 
      "id": 12512474, 
      "properties": {
        "woe:id": 12512474, 
        "href": "/125/124/74/12512474.json", 
        "name": "Manzanillo Airport"
      }
    }, 
    {
      "geometry": {
        "type": "Point", 
        "coordinates": [
          -82.039398, 
          22.691099
        ]
      }, 
      "id": 12512467, 
      "properties": {
        "woe:id": 12512467, 
        "href": "/125/124/67/12512467.json", 
        "name": "Juan de la Cruz Airport"
      }
    }, 
    {
      "geometry": {
        "type": "Point", 
        "coordinates": [
          -75.158096, 
          20.081100
        ]
      }, 
      "id": 12512462, 
      "properties": {
        "woe:id": 12512462, 
        "href": "/125/124/62/12512462.json", 
        "name": "Guantanamo Airport", 
        "iata:code": "GAO"
      }
    }, 
    {
      "geometry": {
        "type": "Point", 
        "coordinates": [
          -84.311096, 
          22.255600
        ]
      }, 
      "id": 12512473, 
      "properties": {
        "woe:id": 12512473, 
        "href": "/125/124/73/12512473.json", 
        "name": "Mantua Airport"
      }
    }, 
    {
      "geometry": {
        "type": "Point", 
        "coordinates": [
          -75.836403, 
          19.970800
        ]
      }, 
      "id": 12512450, 
      "properties": {
        "woe:id": 12512450, 
        "href": "/125/124/50/12512450.json", 
        "name": "Antonio Maceo Airport", 
        "iata:code": "SCU"
      }
    }, 
    {
      "geometry": {
        "type": "Point", 
        "coordinates": [
          -76.936096, 
          20.989401
        ]
      }, 
      "id": 12512470, 
      "properties": {
        "woe:id": 12512470, 
        "href": "/125/124/70/12512470.json", 
        "name": "Las Tunas Airport", 
        "iata:code": "VTU"
      }
    }, 
    {
      "geometry": {
        "type": "Point", 
        "coordinates": [
          -82.509399, 
          22.871099
        ]
      }, 
      "id": 12512482, 
      "properties": {
        "woe:id": 12512482, 
        "href": "/125/124/82/12512482.json", 
        "name": "San Antonio de Los Banos Airport"
      }
    }, 
    {
      "geometry": {
        "type": "Point", 
        "coordinates": [
          -75.989197, 
          20.446100
        ]
      }, 
      "id": 12512471, 
      "properties": {
        "woe:id": 12512471, 
        "href": "/125/124/71/12512471.json", 
        "name": "Los Mangos de Baragua Airport"
      }
    }, 
    {
      "geometry": {
        "type": "Point", 
        "coordinates": [
          -75.529999, 
          20.686100
        ]
      }, 
      "id": 12512477, 
      "properties": {
        "woe:id": 12512477, 
        "href": "/125/124/77/12512477.json", 
        "name": "Nicaro Airport"
      }
    }, 
    {
      "geometry": {
        "type": "Point", 
        "coordinates": [
          -82.258301, 
          22.968100
        ]
      }, 
      "id": 12512472, 
      "properties": {
        "woe:id": 12512472, 
        "href": "/125/124/72/12512472.json", 
        "name": "Managua Airport"
      }
    }, 
    {
      "geometry": {
        "type": "Point", 
        "coordinates": [
          -79.779999, 
          21.739700
        ]
      }, 
      "id": 12512486, 
      "properties": {
        "woe:id": 12512486, 
        "href": "/125/124/86/12512486.json", 
        "name": "San Pedro Airport"
      }
    }, 
    {
      "geometry": {
        "type": "Point", 
        "coordinates": [
          -84.153603, 
          22.094999
        ]
      }, 
      "id": 12512484, 
      "properties": {
        "woe:id": 12512484, 
        "href": "/125/124/84/12512484.json", 
        "name": "San Julian Airport", 
        "iata:code": "SNJ"
      }
    }, 
    {
      "geometry": {
        "type": "Point", 
        "coordinates": [
          -74.506401, 
          20.364401
        ]
      }, 
      "id": 12512452, 
      "properties": {
        "woe:id": 12512452, 
        "href": "/125/124/52/12512452.json", 
        "name": "Baracoa Airport", 
        "iata:code": "BCA"
      }
    }, 
    {
      "geometry": {
        "type": "Point", 
        "coordinates": [
          -82.734703, 
          22.752199
        ]
      }, 
      "id": 12512451, 
      "properties": {
        "woe:id": 12512451, 
        "href": "/125/124/51/12512451.json", 
        "name": "Artemisa Airport"
      }
    }, 
    {
      "geometry": {
        "type": "Point", 
        "coordinates": [
          -82.407443, 
          22.995187
        ]
      }, 
      "id": 12512466, 
      "properties": {
        "woe:id": 12512466, 
        "href": "/125/124/66/12512466.json", 
        "name": "Jose Marti International Airport", 
        "iata:code": "HAV"
      }
    }, 
    {
      "geometry": {
        "type": "Point", 
        "coordinates": [
          -79.470001, 
          22.506100
        ]
      }, 
      "id": 12512454, 
      "properties": {
        "woe:id": 12512454, 
        "href": "/125/124/54/12512454.json", 
        "name": "Caibarien Airport", 
        "iata:code": "CBN"
      }
    }, 
    {
      "geometry": {
        "type": "Point", 
        "coordinates": [
          -83.644402, 
          22.334700
        ]
      }, 
      "id": 12512468, 
      "properties": {
        "woe:id": 12512468, 
        "href": "/125/124/68/12512468.json", 
        "name": "La Coloma Airport"
      }
    }, 
    {
      "geometry": {
        "type": "Point", 
        "coordinates": [
          -83.678101, 
          22.420601
        ]
      }, 
      "id": 12512479, 
      "properties": {
        "woe:id": 12512479, 
        "href": "/125/124/79/12512479.json", 
        "name": "Pinar del Rio Norte Airport"
      }
    }, 
    {
      "geometry": {
        "type": "Point", 
        "coordinates": [
          -81.920799, 
          22.756701
        ]
      }, 
      "id": 12512485, 
      "properties": {
        "woe:id": 12512485, 
        "href": "/125/124/85/12512485.json", 
        "name": "San Nicolas Airport"
      }
    }, 
    {
      "geometry": {
        "type": "Point", 
        "coordinates": [
          -75.207603, 
          19.909300
        ]
      }, 
      "id": 12512463, 
      "properties": {
        "woe:id": 12512463, 
        "href": "/125/124/63/12512463.json", 
        "name": "Guantanamo Bay Naval Air Station", 
        "iata:code": "NBW"
      }
    }, 
    {
      "geometry": {
        "type": "Point", 
        "coordinates": [
          -82.440102, 
          23.095900
        ]
      }, 
      "id": 12512458, 
      "properties": {
        "woe:id": 12512458, 
        "href": "/125/124/58/12512458.json", 
        "name": "Ciudad Libertad Airport"
      }
    }, 
    {
      "geometry": {
        "type": "Point", 
        "coordinates": [
          -78.791397, 
          22.026100
        ]
      }, 
      "id": 12512456, 
      "properties": {
        "woe:id": 12512456, 
        "href": "/125/124/56/12512456.json", 
        "name": "Ciego de Avila Airport", 
        "iata:code": "AVI"
      }
    }, 
    {
      "geometry": {
        "type": "Point", 
        "coordinates": [
          -80.414398, 
          22.149200
        ]
      }, 
      "id": 12512457, 
      "properties": {
        "woe:id": 12512457, 
        "href": "/125/124/57/12512457.json", 
        "name": "Cienfuegos Airport", 
        "iata:code": "CFG"
      }
    }, 
    {
      "geometry": {
        "type": "Point", 
        "coordinates": [
          -82.574402, 
          23.033600
        ]
      }, 
      "id": 12512480, 
      "properties": {
        "woe:id": 12512480, 
        "href": "/125/124/80/12512480.json", 
        "name": "Playa Baracoa Airport"
      }
    }, 
    {
      "geometry": {
        "type": "Point", 
        "coordinates": [
          -79.121773, 
          22.190760
        ]
      }, 
      "id": 12524325, 
      "properties": {
        "woe:id": 12524325, 
        "href": "/125/243/25/12524325.json", 
        "name": "Mayajigua Airport", 
        "iata:code": "MJG"
      }
    }, 
    {
      "geometry": {
        "type": "Point", 
        "coordinates": [
          -74.151169, 
          20.251169
        ]
      }, 
      "id": 12524328, 
      "properties": {
        "woe:id": 12524328, 
        "href": "/125/243/28/12524328.json", 
        "name": "Punta de Maisi Airport", 
        "iata:code": "UMA"
      }
    }, 
    {
      "geometry": {
        "type": "Point", 
        "coordinates": [
          -75.644608, 
          20.748110
        ]
      }, 
      "id": 12524326, 
      "properties": {
        "woe:id": 12524326, 
        "href": "/125/243/26/12524326.json", 
        "name": "Preston Airport", 
        "iata:code": "PST"
      }
    }, 
    {
      "geometry": {
        "type": "Point", 
        "coordinates": [
          -80.000000, 
          21.799999
        ]
      }, 
      "id": 12524327, 
      "properties": {
        "woe:id": 12524327, 
        "href": "/125/243/27/12524327.json", 
        "name": "Trinidad Airport", 
        "iata:code": "TND"
      }
    }, 
    {
      "geometry": {
        "type": "Point", 
        "coordinates": [
          -79.446899, 
          21.972200
        ]
      }, 
      "id": 12524330, 
      "properties": {
        "woe:id": 12524330, 
        "href": "/125/243/30/12524330.json", 
        "name": "Sancti Spiritus Airport", 
        "iata:code": "USS"
      }
    }, 
    {
      "geometry": {
        "type": "Point", 
        "coordinates": [
          -78.816704, 
          22.383301
        ]
      }, 
      "id": 12524329, 
      "properties": {
        "woe:id": 12524329, 
        "href": "/125/243/29/12524329.json", 
        "name": "Punta Alegre Airport"
      }
    }
  ], 
  "properties": {
    "iso": "CU", 
    "woe:country": 23424793
  }
}