{
  "type": "FeatureCollection", 
  "features": [
    {
      "geometry": {
        "type": "Point", 
        "coordinates": [
          -23.503099, 
          14.925300
        ]
      }, 
      "id": 12512491, 
      "properties": {
        "woe:id": 12512491, 
        "href": "/125/124/91/12512491.json", 
        "name": "Francisco Mendes Airport", 
        "iata:code": "RAI"
      }
    }, 
    {
      "geometry": {
        "type": "Point", 
        "coordinates": [
          -22.958547, 
          16.739290
        ]
      }, 
      "id": 12512490, 
      "properties": {
        "woe:id": 12512490, 
        "href": "/125/124/90/12512490.json", 
        "name": "Amilcar Cabral International Airport", 
        "iata:code": "SID"
      }
    }, 
    {
      "geometry": {
        "type": "Point", 
        "coordinates": [
          -24.288601, 
          16.586901
        ]
      }, 
      "id": 12512493, 
      "properties": {
        "woe:id": 12512493, 
        "href": "/125/124/93/12512493.json", 
        "name": "Preguica Airport"
      }
    }, 
    {
      "geometry": {
        "type": "Point", 
        "coordinates": [
          -23.176201, 
          15.220900
        ]
      }, 
      "id": 12512492, 
      "properties": {
        "woe:id": 12512492, 
        "href": "/125/124/92/12512492.json", 
        "name": "Maio Airport"
      }
    }, 
    {
      "geometry": {
        "type": "Point", 
        "coordinates": [
          -25.063601, 
          16.830601
        ]
      }, 
      "id": 12512495, 
      "properties": {
        "woe:id": 12512495, 
        "href": "/125/124/95/12512495.json", 
        "name": "San Pedro Airport", 
        "iata:code": "VXE"
      }
    }, 
    {
      "geometry": {
        "type": "Point", 
        "coordinates": [
          -22.817200, 
          16.096100
        ]
      }, 
      "id": 12512494, 
      "properties": {
        "woe:id": 12512494, 
        "href": "/125/124/94/12512494.json", 
        "name": "Boa Vista Airport", 
        "iata:code": "BVC"
      }
    }
  ], 
  "properties": {
    "iso": "CV", 
    "woe:country": 23424794
  }
}