{
  "type": "FeatureCollection", 
  "features": [
    {
      "geometry": {
        "type": "Point", 
        "coordinates": [
          -23.503, 
          14.925
        ]
      }, 
      "id": 12512491, 
      "properties": {
        "woe:id": 12512491, 
        "href": "/125/124/91/12512491.json", 
        "name": "Francisco Mendes Airport", 
        "iata:code": "RAI"
      }
    }, 
    {
      "geometry": {
        "type": "Point", 
        "coordinates": [
          -22.959, 
          16.739
        ]
      }, 
      "id": 12512490, 
      "properties": {
        "woe:id": 12512490, 
        "href": "/125/124/90/12512490.json", 
        "name": "Amilcar Cabral International Airport", 
        "iata:code": "SID"
      }
    }, 
    {
      "geometry": {
        "type": "Point", 
        "coordinates": [
          -24.289, 
          16.587
        ]
      }, 
      "id": 12512493, 
      "properties": {
        "woe:id": 12512493, 
        "href": "/125/124/93/12512493.json", 
        "name": "Preguica Airport"
      }
    }, 
    {
      "geometry": {
        "type": "Point", 
        "coordinates": [
          -23.176, 
          15.221
        ]
      }, 
      "id": 12512492, 
      "properties": {
        "woe:id": 12512492, 
        "href": "/125/124/92/12512492.json", 
        "name": "Maio Airport"
      }
    }, 
    {
      "geometry": {
        "type": "Point", 
        "coordinates": [
          -25.064, 
          16.831
        ]
      }, 
      "id": 12512495, 
      "properties": {
        "woe:id": 12512495, 
        "href": "/125/124/95/12512495.json", 
        "name": "San Pedro Airport", 
        "iata:code": "VXE"
      }
    }, 
    {
      "geometry": {
        "type": "Point", 
        "coordinates": [
          -22.817, 
          16.096
        ]
      }, 
      "id": 12512494, 
      "properties": {
        "woe:id": 12512494, 
        "href": "/125/124/94/12512494.json", 
        "name": "Boa Vista Airport", 
        "iata:code": "BVC"
      }
    }
  ], 
  "properties": {
    "woe:id": 23424794, 
    "iso": "CV"
  }
}