{
  "type": "FeatureCollection", 
  "features": [
    {
      "geometry": {
        "type": "Point", 
        "coordinates": [
          33.277, 
          35.155
        ]
      }, 
      "id": 23388394, 
      "properties": {
        "woe:id": 23388394, 
        "href": "/233/883/94/23388394.json", 
        "name": "Lefcosia"
      }
    }, 
    {
      "geometry": {
        "type": "Point", 
        "coordinates": [
          33.490, 
          35.160
        ]
      }, 
      "id": 12512497, 
      "properties": {
        "woe:id": 12512497, 
        "href": "/125/124/97/12512497.json", 
        "name": "Ercan Airport", 
        "iata:code": "ECN"
      }
    }, 
    {
      "geometry": {
        "type": "Point", 
        "coordinates": [
          32.988, 
          34.592
        ]
      }, 
      "id": 12512496, 
      "properties": {
        "woe:id": 12512496, 
        "href": "/125/124/96/12512496.json", 
        "name": "Akrotiri Airport", 
        "iata:code": "AKT"
      }
    }, 
    {
      "geometry": {
        "type": "Point", 
        "coordinates": [
          33.404, 
          34.911
        ]
      }, 
      "id": 12512499, 
      "properties": {
        "woe:id": 12512499, 
        "href": "/125/124/99/12512499.json", 
        "name": "Kornos Highway Strip Airport"
      }
    }, 
    {
      "geometry": {
        "type": "Point", 
        "coordinates": [
          33.723, 
          35.236
        ]
      }, 
      "id": 12512498, 
      "properties": {
        "woe:id": 12512498, 
        "href": "/125/124/98/12512498.json", 
        "name": "Gecitkale Airport", 
        "iata:code": "GEC"
      }
    }, 
    {
      "geometry": {
        "type": "Point", 
        "coordinates": [
          32.900, 
          34.667
        ]
      }, 
      "id": 12523783, 
      "properties": {
        "woe:id": 12523783, 
        "href": "/125/237/83/12523783.json", 
        "name": "Episkopi Airport", 
        "iata:code": "EPK"
      }
    }, 
    {
      "geometry": {
        "type": "Point", 
        "coordinates": [
          33.270, 
          35.276
        ]
      }, 
      "id": 12512503, 
      "properties": {
        "woe:id": 12512503, 
        "href": "/125/125/03/12512503.json", 
        "name": "Pinarbashi Airport"
      }
    }, 
    {
      "geometry": {
        "type": "Point", 
        "coordinates": [
          33.321, 
          35.107
        ]
      }, 
      "id": 12512500, 
      "properties": {
        "woe:id": 12512500, 
        "href": "/125/125/00/12512500.json", 
        "name": "Lakatamia Airport"
      }
    }, 
    {
      "geometry": {
        "type": "Point", 
        "coordinates": [
          33.627, 
          34.887
        ]
      }, 
      "id": 12512501, 
      "properties": {
        "woe:id": 12512501, 
        "href": "/125/125/01/12512501.json", 
        "name": "Larnaca Airport"
      }
    }, 
    {
      "geometry": {
        "type": "Point", 
        "coordinates": [
          32.486, 
          34.715
        ]
      }, 
      "id": 12512502, 
      "properties": {
        "woe:id": 12512502, 
        "href": "/125/125/02/12512502.json", 
        "name": "Paphos International Airport", 
        "iata:code": "PFO"
      }
    }
  ], 
  "properties": {
    "iso": "CY", 
    "woe:country": 26812346
  }
}