{
  "type": "FeatureCollection", 
  "features": [
    {
      "geometry": {
        "type": "Point", 
        "coordinates": [
          33.277020, 
          35.155220
        ]
      }, 
      "id": 23388394, 
      "properties": {
        "woe:id": 23388394, 
        "href": "/233/883/94/23388394.json", 
        "name": "Lefcosia"
      }
    }, 
    {
      "geometry": {
        "type": "Point", 
        "coordinates": [
          33.489700, 
          35.159698
        ]
      }, 
      "id": 12512497, 
      "properties": {
        "woe:id": 12512497, 
        "href": "/125/124/97/12512497.json", 
        "name": "Ercan Airport", 
        "iata:code": "ECN"
      }
    }, 
    {
      "geometry": {
        "type": "Point", 
        "coordinates": [
          32.987801, 
          34.591702
        ]
      }, 
      "id": 12512496, 
      "properties": {
        "woe:id": 12512496, 
        "href": "/125/124/96/12512496.json", 
        "name": "Akrotiri Airport", 
        "iata:code": "AKT"
      }
    }, 
    {
      "geometry": {
        "type": "Point", 
        "coordinates": [
          33.404400, 
          34.910599
        ]
      }, 
      "id": 12512499, 
      "properties": {
        "woe:id": 12512499, 
        "href": "/125/124/99/12512499.json", 
        "name": "Kornos Highway Strip Airport"
      }
    }, 
    {
      "geometry": {
        "type": "Point", 
        "coordinates": [
          33.723301, 
          35.236099
        ]
      }, 
      "id": 12512498, 
      "properties": {
        "woe:id": 12512498, 
        "href": "/125/124/98/12512498.json", 
        "name": "Gecitkale Airport", 
        "iata:code": "GEC"
      }
    }, 
    {
      "geometry": {
        "type": "Point", 
        "coordinates": [
          32.900002, 
          34.666698
        ]
      }, 
      "id": 12523783, 
      "properties": {
        "woe:id": 12523783, 
        "href": "/125/237/83/12523783.json", 
        "name": "Episkopi Airport", 
        "iata:code": "EPK"
      }
    }, 
    {
      "geometry": {
        "type": "Point", 
        "coordinates": [
          33.270302, 
          35.276402
        ]
      }, 
      "id": 12512503, 
      "properties": {
        "woe:id": 12512503, 
        "href": "/125/125/03/12512503.json", 
        "name": "Pinarbashi Airport"
      }
    }, 
    {
      "geometry": {
        "type": "Point", 
        "coordinates": [
          33.321129, 
          35.106758
        ]
      }, 
      "id": 12512500, 
      "properties": {
        "woe:id": 12512500, 
        "href": "/125/125/00/12512500.json", 
        "name": "Lakatamia Airport"
      }
    }, 
    {
      "geometry": {
        "type": "Point", 
        "coordinates": [
          33.627244, 
          34.886734
        ]
      }, 
      "id": 12512501, 
      "properties": {
        "woe:id": 12512501, 
        "href": "/125/125/01/12512501.json", 
        "name": "Larnaca Airport"
      }
    }, 
    {
      "geometry": {
        "type": "Point", 
        "coordinates": [
          32.486064, 
          34.714597
        ]
      }, 
      "id": 12512502, 
      "properties": {
        "woe:id": 12512502, 
        "href": "/125/125/02/12512502.json", 
        "name": "Paphos International Airport", 
        "iata:code": "PFO"
      }
    }
  ], 
  "properties": {
    "iso": "CY", 
    "woe:country": 26812346
  }
}