{
  "type": "FeatureCollection", 
  "features": [
    {
      "geometry": {
        "type": "Point", 
        "coordinates": [
          12.127724, 
          55.589899
        ]
      }, 
      "id": 22852271, 
      "properties": {
        "woe:id": 22852271, 
        "href": "/228/522/71/22852271.json", 
        "name": "Roskilde Lufthavn", 
        "iata:code": "RKE"
      }
    }, 
    {
      "geometry": {
        "type": "Point", 
        "coordinates": [
          12.648661, 
          55.622898
        ]
      }, 
      "id": 22851127, 
      "properties": {
        "woe:id": 22851127, 
        "href": "/228/511/27/22851127.json", 
        "name": "K\u00f8benhavns Lufthavn", 
        "iata:code": "ZGH"
      }
    }, 
    {
      "geometry": {
        "type": "Point", 
        "coordinates": [
          11.007650, 
          57.275589
        ]
      }, 
      "id": 12523788, 
      "properties": {
        "woe:id": 12523788, 
        "href": "/125/237/88/12523788.json", 
        "name": "L\u00e6s\u00f8 Lufthavn", 
        "iata:code": "BYR"
      }
    }, 
    {
      "geometry": {
        "type": "Point", 
        "coordinates": [
          9.533330, 
          55.700001
        ]
      }, 
      "id": 12523335, 
      "properties": {
        "woe:id": 12523335, 
        "href": "/125/233/35/12523335.json", 
        "name": "Vejle Lufthavn", 
        "iata:code": "VEJ"
      }
    }, 
    {
      "geometry": {
        "type": "Point", 
        "coordinates": [
          9.523900, 
          55.302799
        ]
      }, 
      "id": 12512591, 
      "properties": {
        "woe:id": 12512591, 
        "href": "/125/125/91/12512591.json", 
        "name": "Vojens Lufthavn"
      }
    }, 
    {
      "geometry": {
        "type": "Point", 
        "coordinates": [
          10.329600, 
          55.473999
        ]
      }, 
      "id": 12512588, 
      "properties": {
        "woe:id": 12512588, 
        "href": "/125/125/88/12512588.json", 
        "name": "Beldringe Lufthavn"
      }
    }, 
    {
      "geometry": {
        "type": "Point", 
        "coordinates": [
          14.749290, 
          55.069981
        ]
      }, 
      "id": 12512596, 
      "properties": {
        "woe:id": 12512596, 
        "href": "/125/125/96/12512596.json", 
        "name": "Bornholm Lufthavn", 
        "iata:code": "RNN"
      }
    }, 
    {
      "geometry": {
        "type": "Point", 
        "coordinates": [
          9.174400, 
          56.550800
        ]
      }, 
      "id": 12512599, 
      "properties": {
        "woe:id": 12512599, 
        "href": "/125/125/99/12512599.json", 
        "name": "Skive Lufthavn"
      }
    }, 
    {
      "geometry": {
        "type": "Point", 
        "coordinates": [
          9.137388, 
          55.737022
        ]
      }, 
      "id": 12512589, 
      "properties": {
        "woe:id": 12512589, 
        "href": "/125/125/89/12512589.json", 
        "name": "Billund Airport", 
        "iata:code": "BLL"
      }
    }, 
    {
      "geometry": {
        "type": "Point", 
        "coordinates": [
          9.872130, 
          57.086689
        ]
      }, 
      "id": 12512587, 
      "properties": {
        "woe:id": 12512587, 
        "href": "/125/125/87/12512587.json", 
        "name": "\u00c5lborg Lufthavn", 
        "iata:code": "AAL"
      }
    }, 
    {
      "geometry": {
        "type": "Point", 
        "coordinates": [
          8.548910, 
          55.521400
        ]
      }, 
      "id": 12512590, 
      "properties": {
        "woe:id": 12512590, 
        "href": "/125/125/90/12512590.json", 
        "name": "Esbjerg Airport"
      }
    }, 
    {
      "geometry": {
        "type": "Point", 
        "coordinates": [
          10.221960, 
          57.504669
        ]
      }, 
      "id": 12512598, 
      "properties": {
        "woe:id": 12512598, 
        "href": "/125/125/98/12512598.json", 
        "name": "Sindal Airport", 
        "iata:code": "CNL"
      }
    }, 
    {
      "geometry": {
        "type": "Point", 
        "coordinates": [
          9.120640, 
          56.310291
        ]
      }, 
      "id": 12512592, 
      "properties": {
        "woe:id": 12512592, 
        "href": "/125/125/92/12512592.json", 
        "name": "K\u00e5rup Lufthavn"
      }
    }, 
    {
      "geometry": {
        "type": "Point", 
        "coordinates": [
          11.437200, 
          54.700298
        ]
      }, 
      "id": 12512595, 
      "properties": {
        "woe:id": 12512595, 
        "href": "/125/125/95/12512595.json", 
        "name": "Lolland Falster Maribo Lufthavn", 
        "iata:code": "MRW"
      }
    }, 
    {
      "geometry": {
        "type": "Point", 
        "coordinates": [
          8.446700, 
          56.399700
        ]
      }, 
      "id": 12512594, 
      "properties": {
        "woe:id": 12512594, 
        "href": "/125/125/94/12512594.json", 
        "name": "Holstebro Lufthavn"
      }
    }, 
    {
      "geometry": {
        "type": "Point", 
        "coordinates": [
          8.692540, 
          57.071899
        ]
      }, 
      "id": 12512603, 
      "properties": {
        "woe:id": 12512603, 
        "href": "/125/126/03/12512603.json", 
        "name": "Thisted Airport", 
        "iata:code": "TED"
      }
    }, 
    {
      "geometry": {
        "type": "Point", 
        "coordinates": [
          9.215000, 
          55.701698
        ]
      }, 
      "id": 12512607, 
      "properties": {
        "woe:id": 12512607, 
        "href": "/125/126/07/12512607.json", 
        "name": "Vandel Airport"
      }
    }, 
    {
      "geometry": {
        "type": "Point", 
        "coordinates": [
          9.331100, 
          55.437500
        ]
      }, 
      "id": 12512606, 
      "properties": {
        "woe:id": 12512606, 
        "href": "/125/126/06/12512606.json", 
        "name": "Kolding Vamdrup Airport"
      }
    }, 
    {
      "geometry": {
        "type": "Point", 
        "coordinates": [
          9.265300, 
          55.226898
        ]
      }, 
      "id": 12512600, 
      "properties": {
        "woe:id": 12512600, 
        "href": "/125/126/00/12512600.json", 
        "name": "Vojens Lufthavn"
      }
    }, 
    {
      "geometry": {
        "type": "Point", 
        "coordinates": [
          9.789590, 
          54.963685
        ]
      }, 
      "id": 12512601, 
      "properties": {
        "woe:id": 12512601, 
        "href": "/125/126/01/12512601.json", 
        "name": "Sonderborg Airport", 
        "iata:code": "SGD"
      }
    }, 
    {
      "geometry": {
        "type": "Point", 
        "coordinates": [
          8.350291, 
          55.991108
        ]
      }, 
      "id": 12512602, 
      "properties": {
        "woe:id": 12512602, 
        "href": "/125/126/02/12512602.json", 
        "name": "Stauning Vestjyllands Airport", 
        "iata:code": "STA"
      }
    }, 
    {
      "geometry": {
        "type": "Point", 
        "coordinates": [
          12.327171, 
          55.767570
        ]
      }, 
      "id": 12512605, 
      "properties": {
        "woe:id": 12512605, 
        "href": "/125/126/05/12512605.json", 
        "name": "V\u00e6rl\u00f8se Lufthavn"
      }
    }, 
    {
      "geometry": {
        "type": "Point", 
        "coordinates": [
          10.627190, 
          56.308121
        ]
      }, 
      "id": 12512604, 
      "properties": {
        "woe:id": 12512604, 
        "href": "/125/126/04/12512604.json", 
        "name": "Tirstrup Lufthavn", 
        "iata:code": "AAR"
      }
    }
  ], 
  "properties": {
    "iso": "DK", 
    "woe:country": 23424796
  }
}