{
  "type": "FeatureCollection", 
  "features": [
    {
      "geometry": {
        "type": "Point", 
        "coordinates": [
          -88.250000, 
          14.933330
        ]
      }, 
      "id": 12523237, 
      "properties": {
        "woe:id": 12523237, 
        "href": "/125/232/37/12523237.json", 
        "name": "Santa Barbara Airport"
      }
    }, 
    {
      "geometry": {
        "type": "Point", 
        "coordinates": [
          -85.903397, 
          16.459101
        ]
      }, 
      "id": 12513359, 
      "properties": {
        "woe:id": 12513359, 
        "href": "/125/133/59/12513359.json", 
        "name": "Guanaja Airport", 
        "iata:code": "GJA"
      }
    }, 
    {
      "geometry": {
        "type": "Point", 
        "coordinates": [
          -87.226657, 
          14.036077
        ]
      }, 
      "id": 12513364, 
      "properties": {
        "woe:id": 12513364, 
        "href": "/125/133/64/12513364.json", 
        "name": "Toncontin International Airport", 
        "iata:code": "TGU"
      }
    }, 
    {
      "geometry": {
        "type": "Point", 
        "coordinates": [
          -87.898903, 
          15.443100
        ]
      }, 
      "id": 12513360, 
      "properties": {
        "woe:id": 12513360, 
        "href": "/125/133/60/12513360.json", 
        "name": "Las Limas Airport", 
        "iata:code": "LLH"
      }
    }, 
    {
      "geometry": {
        "type": "Point", 
        "coordinates": [
          -87.925682, 
          15.457044
        ]
      }, 
      "id": 12513361, 
      "properties": {
        "woe:id": 12513361, 
        "href": "/125/133/61/12513361.json", 
        "name": "La Mesa International Airport", 
        "iata:code": "SAP"
      }
    }, 
    {
      "geometry": {
        "type": "Point", 
        "coordinates": [
          -85.933998, 
          15.923600
        ]
      }, 
      "id": 12513365, 
      "properties": {
        "woe:id": 12513365, 
        "href": "/125/133/65/12513365.json", 
        "name": "Capiro Airport"
      }
    }, 
    {
      "geometry": {
        "type": "Point", 
        "coordinates": [
          -86.534432, 
          16.320769
        ]
      }, 
      "id": 12513362, 
      "properties": {
        "woe:id": 12513362, 
        "href": "/125/133/62/12513362.json", 
        "name": "Roatan Island Airport", 
        "iata:code": "RTB"
      }
    }, 
    {
      "geometry": {
        "type": "Point", 
        "coordinates": [
          -86.933701, 
          16.096901
        ]
      }, 
      "id": 12513366, 
      "properties": {
        "woe:id": 12513366, 
        "href": "/125/133/66/12513366.json", 
        "name": "Utila Airport", 
        "iata:code": "UII"
      }
    }, 
    {
      "geometry": {
        "type": "Point", 
        "coordinates": [
          -87.451523, 
          15.767210
        ]
      }, 
      "id": 12513363, 
      "properties": {
        "woe:id": 12513363, 
        "href": "/125/133/63/12513363.json", 
        "name": "Tela Airport", 
        "iata:code": "TEA"
      }
    }, 
    {
      "geometry": {
        "type": "Point", 
        "coordinates": [
          -86.852798, 
          15.743300
        ]
      }, 
      "id": 12513358, 
      "properties": {
        "woe:id": 12513358, 
        "href": "/125/133/58/12513358.json", 
        "name": "Goloson International Airport"
      }
    }, 
    {
      "geometry": {
        "type": "Point", 
        "coordinates": [
          -87.620300, 
          14.380300
        ]
      }, 
      "id": 12513357, 
      "properties": {
        "woe:id": 12513357, 
        "href": "/125/133/57/12513357.json", 
        "name": "Coronel Enrique Soto Cano Air Base", 
        "iata:code": "ENQ"
      }
    }, 
    {
      "geometry": {
        "type": "Point", 
        "coordinates": [
          -85.883301, 
          14.883300
        ]
      }, 
      "id": 12524353, 
      "properties": {
        "woe:id": 12524353, 
        "href": "/125/243/53/12524353.json", 
        "name": "Catacamas Airport", 
        "iata:code": "CAA"
      }
    }, 
    {
      "geometry": {
        "type": "Point", 
        "coordinates": [
          -86.189362, 
          14.691060
        ]
      }, 
      "id": 12524359, 
      "properties": {
        "woe:id": 12524359, 
        "href": "/125/243/59/12524359.json", 
        "name": "Justicalpa Airport"
      }
    }, 
    {
      "geometry": {
        "type": "Point", 
        "coordinates": [
          -87.141701, 
          15.125000
        ]
      }, 
      "id": 12524364, 
      "properties": {
        "woe:id": 12524364, 
        "href": "/125/243/64/12524364.json", 
        "name": "Yoro Airport", 
        "iata:code": "ORO"
      }
    }, 
    {
      "geometry": {
        "type": "Point", 
        "coordinates": [
          -85.913902, 
          15.171320
        ]
      }, 
      "id": 12524369, 
      "properties": {
        "woe:id": 12524369, 
        "href": "/125/243/69/12524369.json", 
        "name": "San Esteban Airport"
      }
    }, 
    {
      "geometry": {
        "type": "Point", 
        "coordinates": [
          -88.178352, 
          14.241670
        ]
      }, 
      "id": 12524360, 
      "properties": {
        "woe:id": 12524360, 
        "href": "/125/243/60/12524360.json", 
        "name": "La Esperanza Airport"
      }
    }, 
    {
      "geometry": {
        "type": "Point", 
        "coordinates": [
          -85.550003, 
          15.866700
        ]
      }, 
      "id": 12524361, 
      "properties": {
        "woe:id": 12524361, 
        "href": "/125/243/61/12524361.json", 
        "name": "Limon Airport", 
        "iata:code": "LMH"
      }
    }, 
    {
      "geometry": {
        "type": "Point", 
        "coordinates": [
          -84.972153, 
          15.921090
        ]
      }, 
      "id": 12524365, 
      "properties": {
        "woe:id": 12524365, 
        "href": "/125/243/65/12524365.json", 
        "name": "Palacios Airport", 
        "iata:code": "PCH"
      }
    }, 
    {
      "geometry": {
        "type": "Point", 
        "coordinates": [
          -88.460403, 
          14.221360
        ]
      }, 
      "id": 12524355, 
      "properties": {
        "woe:id": 12524355, 
        "href": "/125/243/55/12524355.json", 
        "name": "Erandique Airport", 
        "iata:code": "EDQ"
      }
    }, 
    {
      "geometry": {
        "type": "Point", 
        "coordinates": [
          -89.137161, 
          14.830460
        ]
      }, 
      "id": 12524367, 
      "properties": {
        "woe:id": 12524367, 
        "href": "/125/243/67/12524367.json", 
        "name": "Copan Airport", 
        "iata:code": "RUY"
      }
    }, 
    {
      "geometry": {
        "type": "Point", 
        "coordinates": [
          -86.672462, 
          15.070900
        ]
      }, 
      "id": 12524362, 
      "properties": {
        "woe:id": 12524362, 
        "href": "/125/243/62/12524362.json", 
        "name": "La Union Airport", 
        "iata:code": "LUI"
      }
    }, 
    {
      "geometry": {
        "type": "Point", 
        "coordinates": [
          -86.007896, 
          15.685100
        ]
      }, 
      "id": 12524370, 
      "properties": {
        "woe:id": 12524370, 
        "href": "/125/243/70/12524370.json", 
        "name": "Tocoa Airport", 
        "iata:code": "TCF"
      }
    }, 
    {
      "geometry": {
        "type": "Point", 
        "coordinates": [
          -87.404747, 
          14.931840
        ]
      }, 
      "id": 12524371, 
      "properties": {
        "woe:id": 12524371, 
        "href": "/125/243/71/12524371.json", 
        "name": "Victoria Airport", 
        "iata:code": "VTA"
      }
    }, 
    {
      "geometry": {
        "type": "Point", 
        "coordinates": [
          -87.617203, 
          14.468900
        ]
      }, 
      "id": 12524372, 
      "properties": {
        "woe:id": 12524372, 
        "href": "/125/243/72/12524372.json", 
        "name": "Palmerola Air Base"
      }
    }, 
    {
      "geometry": {
        "type": "Point", 
        "coordinates": [
          -84.550987, 
          15.763610
        ]
      }, 
      "id": 12524352, 
      "properties": {
        "woe:id": 12524352, 
        "href": "/125/243/52/12524352.json", 
        "name": "Brus Laguna Airport", 
        "iata:code": "BHG"
      }
    }, 
    {
      "geometry": {
        "type": "Point", 
        "coordinates": [
          -84.404060, 
          15.453350
        ]
      }, 
      "id": 12524351, 
      "properties": {
        "woe:id": 12524351, 
        "href": "/125/243/51/12524351.json", 
        "name": "Ahuas Airport", 
        "iata:code": "AHS"
      }
    }, 
    {
      "geometry": {
        "type": "Point", 
        "coordinates": [
          -83.779442, 
          15.240410
        ]
      }, 
      "id": 12524366, 
      "properties": {
        "woe:id": 12524366, 
        "href": "/125/243/66/12524366.json", 
        "name": "Puerto Lempira Airport", 
        "iata:code": "PEU"
      }
    }, 
    {
      "geometry": {
        "type": "Point", 
        "coordinates": [
          -86.683296, 
          15.483300
        ]
      }, 
      "id": 12524354, 
      "properties": {
        "woe:id": 12524354, 
        "href": "/125/243/54/12524354.json", 
        "name": "Coyoles Airport", 
        "iata:code": "CYL"
      }
    }, 
    {
      "geometry": {
        "type": "Point", 
        "coordinates": [
          -88.755959, 
          14.788100
        ]
      }, 
      "id": 12524368, 
      "properties": {
        "woe:id": 12524368, 
        "href": "/125/243/68/12524368.json", 
        "name": "Santa Rosa de Copan Airport"
      }
    }, 
    {
      "geometry": {
        "type": "Point", 
        "coordinates": [
          -86.595131, 
          15.509380
        ]
      }, 
      "id": 12524363, 
      "properties": {
        "woe:id": 12524363, 
        "href": "/125/243/63/12524363.json", 
        "name": "Olanchito Airport", 
        "iata:code": "OAN"
      }
    }, 
    {
      "geometry": {
        "type": "Point", 
        "coordinates": [
          -85.206261, 
          15.882110
        ]
      }, 
      "id": 12524358, 
      "properties": {
        "woe:id": 12524358, 
        "href": "/125/243/58/12524358.json", 
        "name": "Iriona Airport", 
        "iata:code": "IRN"
      }
    }, 
    {
      "geometry": {
        "type": "Point", 
        "coordinates": [
          -88.561081, 
          14.543890
        ]
      }, 
      "id": 12524356, 
      "properties": {
        "woe:id": 12524356, 
        "href": "/125/243/56/12524356.json", 
        "name": "Gracias Airport", 
        "iata:code": "GAC"
      }
    }, 
    {
      "geometry": {
        "type": "Point", 
        "coordinates": [
          -86.033302, 
          15.083300
        ]
      }, 
      "id": 12524357, 
      "properties": {
        "woe:id": 12524357, 
        "href": "/125/243/57/12524357.json", 
        "name": "Gualaco Airport", 
        "iata:code": "GUO"
      }
    }
  ], 
  "properties": {
    "iso": "HN", 
    "woe:country": 23424841
  }
}