{
  "type": "FeatureCollection", 
  "features": [
    {
      "geometry": {
        "type": "Point", 
        "coordinates": [
          16.059383, 
          45.733603
        ]
      }, 
      "id": 12513376, 
      "properties": {
        "woe:id": 12513376, 
        "href": "/125/133/76/12513376.json", 
        "name": "Zagreb Airport", 
        "iata:code": "ZAG"
      }
    }, 
    {
      "geometry": {
        "type": "Point", 
        "coordinates": [
          13.923050, 
          44.899448
        ]
      }, 
      "id": 12513369, 
      "properties": {
        "woe:id": 12513369, 
        "href": "/125/133/69/12513369.json", 
        "name": "Pula Airport", 
        "iata:code": "PUY"
      }
    }, 
    {
      "geometry": {
        "type": "Point", 
        "coordinates": [
          15.352960, 
          44.097179
        ]
      }, 
      "id": 12513375, 
      "properties": {
        "woe:id": 12513375, 
        "href": "/125/133/75/12513375.json", 
        "name": "Zadar Airport", 
        "iata:code": "ZAD"
      }
    }, 
    {
      "geometry": {
        "type": "Point", 
        "coordinates": [
          16.380600, 
          46.295300
        ]
      }, 
      "id": 12513374, 
      "properties": {
        "woe:id": 12513374, 
        "href": "/125/133/74/12513374.json", 
        "name": "Varazdin Airport"
      }
    }, 
    {
      "geometry": {
        "type": "Point", 
        "coordinates": [
          18.265438, 
          42.560873
        ]
      }, 
      "id": 12513367, 
      "properties": {
        "woe:id": 12513367, 
        "href": "/125/133/67/12513367.json", 
        "name": "Dubrovnik Airport", 
        "iata:code": "DBV"
      }
    }, 
    {
      "geometry": {
        "type": "Point", 
        "coordinates": [
          15.770000, 
          44.556400
        ]
      }, 
      "id": 12513373, 
      "properties": {
        "woe:id": 12513373, 
        "href": "/125/133/73/12513373.json", 
        "name": "Udbina Airport"
      }
    }, 
    {
      "geometry": {
        "type": "Point", 
        "coordinates": [
          14.510000, 
          45.378899
        ]
      }, 
      "id": 12513370, 
      "properties": {
        "woe:id": 12513370, 
        "href": "/125/133/70/12513370.json", 
        "name": "Rijeka Airport"
      }
    }, 
    {
      "geometry": {
        "type": "Point", 
        "coordinates": [
          14.571950, 
          45.219952
        ]
      }, 
      "id": 12513371, 
      "properties": {
        "woe:id": 12513371, 
        "href": "/125/133/71/12513371.json", 
        "name": "Rijeka Krk Airport", 
        "iata:code": "RJK"
      }
    }, 
    {
      "geometry": {
        "type": "Point", 
        "coordinates": [
          16.299889, 
          43.542193
        ]
      }, 
      "id": 12513372, 
      "properties": {
        "woe:id": 12513372, 
        "href": "/125/133/72/12513372.json", 
        "name": "Split Airport", 
        "iata:code": "SPU"
      }
    }, 
    {
      "geometry": {
        "type": "Point", 
        "coordinates": [
          18.808300, 
          45.463902
        ]
      }, 
      "id": 12513368, 
      "properties": {
        "woe:id": 12513368, 
        "href": "/125/133/68/12513368.json", 
        "name": "Osijek Airport", 
        "iata:code": "OSI"
      }
    }, 
    {
      "geometry": {
        "type": "Point", 
        "coordinates": [
          14.391090, 
          44.569241
        ]
      }, 
      "id": 12523874, 
      "properties": {
        "woe:id": 12523874, 
        "href": "/125/238/74/12523874.json", 
        "name": "Mali Losinj Airport"
      }
    }
  ], 
  "properties": {
    "iso": "HR", 
    "woe:country": 23424843
  }
}