{
  "type": "FeatureCollection", 
  "features": [
    {
      "geometry": {
        "type": "Point", 
        "coordinates": [
          -72.293, 
          18.579
        ]
      }, 
      "id": 12513353, 
      "properties": {
        "woe:id": 12513353, 
        "href": "/125/133/53/12513353.json", 
        "name": "Mais Gate International Airport", 
        "iata:code": "PAP"
      }
    }, 
    {
      "geometry": {
        "type": "Point", 
        "coordinates": [
          -72.195, 
          19.733
        ]
      }, 
      "id": 12513352, 
      "properties": {
        "woe:id": 12513352, 
        "href": "/125/133/52/12513352.json", 
        "name": "Cap Haitien Airport", 
        "iata:code": "CAP"
      }
    }, 
    {
      "geometry": {
        "type": "Point", 
        "coordinates": [
          -72.330, 
          18.561
        ]
      }, 
      "id": 12513351, 
      "properties": {
        "woe:id": 12513351, 
        "href": "/125/133/51/12513351.json", 
        "name": "Bowen Airport"
      }
    }, 
    {
      "geometry": {
        "type": "Point", 
        "coordinates": [
          -72.517, 
          18.250
        ]
      }, 
      "id": 12524348, 
      "properties": {
        "woe:id": 12524348, 
        "href": "/125/243/48/12524348.json", 
        "name": "Jacmel Airport", 
        "iata:code": "JAK"
      }
    }, 
    {
      "geometry": {
        "type": "Point", 
        "coordinates": [
          -72.842, 
          19.933
        ]
      }, 
      "id": 12524350, 
      "properties": {
        "woe:id": 12524350, 
        "href": "/125/243/50/12524350.json", 
        "name": "Port-De-Paix Airport", 
        "iata:code": "PAX"
      }
    }, 
    {
      "geometry": {
        "type": "Point", 
        "coordinates": [
          -73.776, 
          18.261
        ]
      }, 
      "id": 12524347, 
      "properties": {
        "woe:id": 12524347, 
        "href": "/125/243/47/12524347.json", 
        "name": "Les Cayes Airport", 
        "iata:code": "CYA"
      }
    }, 
    {
      "geometry": {
        "type": "Point", 
        "coordinates": [
          -74.167, 
          18.667
        ]
      }, 
      "id": 12524349, 
      "properties": {
        "woe:id": 12524349, 
        "href": "/125/243/49/12524349.json", 
        "name": "Jeremie Airport", 
        "iata:code": "JEE"
      }
    }
  ], 
  "properties": {
    "iso": "HT", 
    "woe:country": 23424839
  }
}