{
  "type": "FeatureCollection", 
  "features": [
    {
      "geometry": {
        "type": "Point", 
        "coordinates": [
          34.782, 
          32.110
        ]
      }, 
      "id": 23388293, 
      "properties": {
        "woe:id": 23388293, 
        "href": "/233/882/93/23388293.json", 
        "name": "Sde Dov Airport"
      }
    }, 
    {
      "geometry": {
        "type": "Point", 
        "coordinates": [
          35.386, 
          31.328
        ]
      }, 
      "id": 12513781, 
      "properties": {
        "woe:id": 12513781, 
        "href": "/125/137/81/12513781.json", 
        "name": "I Bar Yehuda Airport"
      }
    }, 
    {
      "geometry": {
        "type": "Point", 
        "coordinates": [
          34.959, 
          32.766
        ]
      }, 
      "id": 12513783, 
      "properties": {
        "woe:id": 12513783, 
        "href": "/125/137/83/12513783.json", 
        "name": "Kefar Gallim Highway Strip Airport"
      }
    }, 
    {
      "geometry": {
        "type": "Point", 
        "coordinates": [
          34.662, 
          31.234
        ]
      }, 
      "id": 12513778, 
      "properties": {
        "woe:id": 12513778, 
        "href": "/125/137/78/12513778.json", 
        "name": "Hatserim Airport"
      }
    }, 
    {
      "geometry": {
        "type": "Point", 
        "coordinates": [
          34.668, 
          30.773
        ]
      }, 
      "id": 12513791, 
      "properties": {
        "woe:id": 12513791, 
        "href": "/125/137/91/12513791.json", 
        "name": "Ramon Airport"
      }
    }, 
    {
      "geometry": {
        "type": "Point", 
        "coordinates": [
          35.203, 
          30.622
        ]
      }, 
      "id": 12513776, 
      "properties": {
        "woe:id": 12513776, 
        "href": "/125/137/76/12513776.json", 
        "name": "En Yahav Airport"
      }
    }, 
    {
      "geometry": {
        "type": "Point", 
        "coordinates": [
          34.958, 
          29.953
        ]
      }, 
      "id": 12513788, 
      "properties": {
        "woe:id": 12513788, 
        "href": "/125/137/88/12513788.json", 
        "name": "Ovda Airport", 
        "iata:code": "VDA"
      }
    }, 
    {
      "geometry": {
        "type": "Point", 
        "coordinates": [
          34.696, 
          31.904
        ]
      }, 
      "id": 12513789, 
      "properties": {
        "woe:id": 12513789, 
        "href": "/125/137/89/12513789.json", 
        "name": "Palmahim Air Base"
      }
    }, 
    {
      "geometry": {
        "type": "Point", 
        "coordinates": [
          34.882, 
          32.004
        ]
      }, 
      "id": 12513775, 
      "properties": {
        "woe:id": 12513775, 
        "href": "/125/137/75/12513775.json", 
        "name": "Ben Gurion Airport", 
        "iata:code": "TLV"
      }
    }, 
    {
      "geometry": {
        "type": "Point", 
        "coordinates": [
          34.444, 
          30.860
        ]
      }, 
      "id": 12513787, 
      "properties": {
        "woe:id": 12513787, 
        "href": "/125/137/87/12513787.json", 
        "name": "Nizzana West Airport"
      }
    }, 
    {
      "geometry": {
        "type": "Point", 
        "coordinates": [
          35.179, 
          32.665
        ]
      }, 
      "id": 12513790, 
      "properties": {
        "woe:id": 12513790, 
        "href": "/125/137/90/12513790.json", 
        "name": "Ramat David Airport"
      }
    }, 
    {
      "geometry": {
        "type": "Point", 
        "coordinates": [
          34.816, 
          31.836
        ]
      }, 
      "id": 12513793, 
      "properties": {
        "woe:id": 12513793, 
        "href": "/125/137/93/12513793.json", 
        "name": "Tel Nov Airport"
      }
    }, 
    {
      "geometry": {
        "type": "Point", 
        "coordinates": [
          34.956, 
          29.548
        ]
      }, 
      "id": 12513782, 
      "properties": {
        "woe:id": 12513782, 
        "href": "/125/137/82/12513782.json", 
        "name": "J Hozman Airport"
      }
    }, 
    {
      "geometry": {
        "type": "Point", 
        "coordinates": [
          35.001, 
          32.443
        ]
      }, 
      "id": 12513777, 
      "properties": {
        "woe:id": 12513777, 
        "href": "/125/137/77/12513777.json", 
        "name": "Eyn Shemer Airport"
      }
    }, 
    {
      "geometry": {
        "type": "Point", 
        "coordinates": [
          35.011, 
          31.212
        ]
      }, 
      "id": 12513786, 
      "properties": {
        "woe:id": 12513786, 
        "href": "/125/137/86/12513786.json", 
        "name": "Nevatim Air Base"
      }
    }, 
    {
      "geometry": {
        "type": "Point", 
        "coordinates": [
          35.042, 
          32.811
        ]
      }, 
      "id": 12513795, 
      "properties": {
        "woe:id": 12513795, 
        "href": "/125/137/95/12513795.json", 
        "name": "U Michaeli Airport", 
        "iata:code": "HFA"
      }
    }, 
    {
      "geometry": {
        "type": "Point", 
        "coordinates": [
          35.572, 
          32.980
        ]
      }, 
      "id": 12513784, 
      "properties": {
        "woe:id": 12513784, 
        "href": "/125/137/84/12513784.json", 
        "name": "Mahanaim I Ben Yaakov Airport"
      }
    }, 
    {
      "geometry": {
        "type": "Point", 
        "coordinates": [
          34.643, 
          31.262
        ]
      }, 
      "id": 12513779, 
      "properties": {
        "woe:id": 12513779, 
        "href": "/125/137/79/12513779.json", 
        "name": "Hatserim Northwest Airport"
      }
    }, 
    {
      "geometry": {
        "type": "Point", 
        "coordinates": [
          35.236, 
          32.597
        ]
      }, 
      "id": 12513785, 
      "properties": {
        "woe:id": 12513785, 
        "href": "/125/137/85/12513785.json", 
        "name": "Megiddo Airport"
      }
    }, 
    {
      "geometry": {
        "type": "Point", 
        "coordinates": [
          34.727, 
          31.763
        ]
      }, 
      "id": 12513780, 
      "properties": {
        "woe:id": 12513780, 
        "href": "/125/137/80/12513780.json", 
        "name": "Hatzor Airport"
      }
    }, 
    {
      "geometry": {
        "type": "Point", 
        "coordinates": [
          34.722, 
          31.286
        ]
      }, 
      "id": 12513794, 
      "properties": {
        "woe:id": 12513794, 
        "href": "/125/137/94/12513794.json", 
        "name": "Teyman Airport", 
        "iata:code": "BEV"
      }
    }
  ], 
  "properties": {
    "woe:id": 23424852, 
    "iso": "IL"
  }
}