{
  "type": "FeatureCollection", 
  "features": [
    {
      "geometry": {
        "type": "Point", 
        "coordinates": [
          34.782261, 
          32.110390
        ]
      }, 
      "id": 23388293, 
      "properties": {
        "woe:id": 23388293, 
        "href": "/233/882/93/23388293.json", 
        "name": "Sde Dov Airport"
      }
    }, 
    {
      "geometry": {
        "type": "Point", 
        "coordinates": [
          35.385601, 
          31.328300
        ]
      }, 
      "id": 12513781, 
      "properties": {
        "woe:id": 12513781, 
        "href": "/125/137/81/12513781.json", 
        "name": "I Bar Yehuda Airport"
      }
    }, 
    {
      "geometry": {
        "type": "Point", 
        "coordinates": [
          34.959400, 
          32.766300
        ]
      }, 
      "id": 12513783, 
      "properties": {
        "woe:id": 12513783, 
        "href": "/125/137/83/12513783.json", 
        "name": "Kefar Gallim Highway Strip Airport"
      }
    }, 
    {
      "geometry": {
        "type": "Point", 
        "coordinates": [
          34.662201, 
          31.234400
        ]
      }, 
      "id": 12513778, 
      "properties": {
        "woe:id": 12513778, 
        "href": "/125/137/78/12513778.json", 
        "name": "Hatserim Airport"
      }
    }, 
    {
      "geometry": {
        "type": "Point", 
        "coordinates": [
          34.668301, 
          30.773300
        ]
      }, 
      "id": 12513791, 
      "properties": {
        "woe:id": 12513791, 
        "href": "/125/137/91/12513791.json", 
        "name": "Ramon Airport"
      }
    }, 
    {
      "geometry": {
        "type": "Point", 
        "coordinates": [
          35.202801, 
          30.622499
        ]
      }, 
      "id": 12513776, 
      "properties": {
        "woe:id": 12513776, 
        "href": "/125/137/76/12513776.json", 
        "name": "En Yahav Airport"
      }
    }, 
    {
      "geometry": {
        "type": "Point", 
        "coordinates": [
          34.958302, 
          29.952801
        ]
      }, 
      "id": 12513788, 
      "properties": {
        "woe:id": 12513788, 
        "href": "/125/137/88/12513788.json", 
        "name": "Ovda Airport", 
        "iata:code": "VDA"
      }
    }, 
    {
      "geometry": {
        "type": "Point", 
        "coordinates": [
          34.695599, 
          31.903601
        ]
      }, 
      "id": 12513789, 
      "properties": {
        "woe:id": 12513789, 
        "href": "/125/137/89/12513789.json", 
        "name": "Palmahim Air Base"
      }
    }, 
    {
      "geometry": {
        "type": "Point", 
        "coordinates": [
          34.881781, 
          32.003683
        ]
      }, 
      "id": 12513775, 
      "properties": {
        "woe:id": 12513775, 
        "href": "/125/137/75/12513775.json", 
        "name": "Ben Gurion Airport", 
        "iata:code": "TLV"
      }
    }, 
    {
      "geometry": {
        "type": "Point", 
        "coordinates": [
          34.443901, 
          30.860001
        ]
      }, 
      "id": 12513787, 
      "properties": {
        "woe:id": 12513787, 
        "href": "/125/137/87/12513787.json", 
        "name": "Nizzana West Airport"
      }
    }, 
    {
      "geometry": {
        "type": "Point", 
        "coordinates": [
          35.179199, 
          32.665001
        ]
      }, 
      "id": 12513790, 
      "properties": {
        "woe:id": 12513790, 
        "href": "/125/137/90/12513790.json", 
        "name": "Ramat David Airport"
      }
    }, 
    {
      "geometry": {
        "type": "Point", 
        "coordinates": [
          34.816101, 
          31.835600
        ]
      }, 
      "id": 12513793, 
      "properties": {
        "woe:id": 12513793, 
        "href": "/125/137/93/12513793.json", 
        "name": "Tel Nov Airport"
      }
    }, 
    {
      "geometry": {
        "type": "Point", 
        "coordinates": [
          34.956310, 
          29.547608
        ]
      }, 
      "id": 12513782, 
      "properties": {
        "woe:id": 12513782, 
        "href": "/125/137/82/12513782.json", 
        "name": "J Hozman Airport"
      }
    }, 
    {
      "geometry": {
        "type": "Point", 
        "coordinates": [
          35.001400, 
          32.443100
        ]
      }, 
      "id": 12513777, 
      "properties": {
        "woe:id": 12513777, 
        "href": "/125/137/77/12513777.json", 
        "name": "Eyn Shemer Airport"
      }
    }, 
    {
      "geometry": {
        "type": "Point", 
        "coordinates": [
          35.010601, 
          31.211700
        ]
      }, 
      "id": 12513786, 
      "properties": {
        "woe:id": 12513786, 
        "href": "/125/137/86/12513786.json", 
        "name": "Nevatim Air Base"
      }
    }, 
    {
      "geometry": {
        "type": "Point", 
        "coordinates": [
          35.041698, 
          32.811100
        ]
      }, 
      "id": 12513795, 
      "properties": {
        "woe:id": 12513795, 
        "href": "/125/137/95/12513795.json", 
        "name": "U Michaeli Airport", 
        "iata:code": "HFA"
      }
    }, 
    {
      "geometry": {
        "type": "Point", 
        "coordinates": [
          35.572201, 
          32.980000
        ]
      }, 
      "id": 12513784, 
      "properties": {
        "woe:id": 12513784, 
        "href": "/125/137/84/12513784.json", 
        "name": "Mahanaim I Ben Yaakov Airport"
      }
    }, 
    {
      "geometry": {
        "type": "Point", 
        "coordinates": [
          34.642502, 
          31.261700
        ]
      }, 
      "id": 12513779, 
      "properties": {
        "woe:id": 12513779, 
        "href": "/125/137/79/12513779.json", 
        "name": "Hatserim Northwest Airport"
      }
    }, 
    {
      "geometry": {
        "type": "Point", 
        "coordinates": [
          35.236099, 
          32.596699
        ]
      }, 
      "id": 12513785, 
      "properties": {
        "woe:id": 12513785, 
        "href": "/125/137/85/12513785.json", 
        "name": "Megiddo Airport"
      }
    }, 
    {
      "geometry": {
        "type": "Point", 
        "coordinates": [
          34.726700, 
          31.763100
        ]
      }, 
      "id": 12513780, 
      "properties": {
        "woe:id": 12513780, 
        "href": "/125/137/80/12513780.json", 
        "name": "Hatzor Airport"
      }
    }, 
    {
      "geometry": {
        "type": "Point", 
        "coordinates": [
          34.721901, 
          31.286400
        ]
      }, 
      "id": 12513794, 
      "properties": {
        "woe:id": 12513794, 
        "href": "/125/137/94/12513794.json", 
        "name": "Teyman Airport", 
        "iata:code": "BEV"
      }
    }
  ], 
  "properties": {
    "iso": "IL", 
    "woe:country": 23424852
  }
}