{
  "type": "FeatureCollection", 
  "features": [
    {
      "geometry": {
        "type": "Point", 
        "coordinates": [
          40.833, 
          -2.250
        ]
      }, 
      "id": 12523159, 
      "properties": {
        "woe:id": 12523159, 
        "href": "/125/231/59/12523159.json", 
        "name": "Lamu Airport"
      }
    }, 
    {
      "geometry": {
        "type": "Point", 
        "coordinates": [
          41.228, 
          3.924
        ]
      }, 
      "id": 12514081, 
      "properties": {
        "woe:id": 12514081, 
        "href": "/125/140/81/12514081.json", 
        "name": "Rhamu Airport"
      }
    }, 
    {
      "geometry": {
        "type": "Point", 
        "coordinates": [
          34.725, 
          0.603
        ]
      }, 
      "id": 12514083, 
      "properties": {
        "woe:id": 12514083, 
        "href": "/125/140/83/12514083.json", 
        "name": "Webuye Airport"
      }
    }, 
    {
      "geometry": {
        "type": "Point", 
        "coordinates": [
          36.816, 
          -1.319
        ]
      }, 
      "id": 12514078, 
      "properties": {
        "woe:id": 12514078, 
        "href": "/125/140/78/12514078.json", 
        "name": "Nairobi Wilson Airport", 
        "iata:code": "WIL"
      }
    }, 
    {
      "geometry": {
        "type": "Point", 
        "coordinates": [
          35.061, 
          -1.297
        ]
      }, 
      "id": 12514076, 
      "properties": {
        "woe:id": 12514076, 
        "href": "/125/140/76/12514076.json", 
        "name": "Musiara Airport"
      }
    }, 
    {
      "geometry": {
        "type": "Point", 
        "coordinates": [
          35.963, 
          -0.186
        ]
      }, 
      "id": 12514064, 
      "properties": {
        "woe:id": 12514064, 
        "href": "/125/140/64/12514064.json", 
        "name": "Barclays Airport"
      }
    }, 
    {
      "geometry": {
        "type": "Point", 
        "coordinates": [
          37.024, 
          0.033
        ]
      }, 
      "id": 12514069, 
      "properties": {
        "woe:id": 12514069, 
        "href": "/125/140/69/12514069.json", 
        "name": "Laikipia Air Base"
      }
    }, 
    {
      "geometry": {
        "type": "Point", 
        "coordinates": [
          38.170, 
          0.233
        ]
      }, 
      "id": 12514075, 
      "properties": {
        "woe:id": 12514075, 
        "href": "/125/140/75/12514075.json", 
        "name": "Mulika Airport"
      }
    }, 
    {
      "geometry": {
        "type": "Point", 
        "coordinates": [
          35.278, 
          0.537
        ]
      }, 
      "id": 12514065, 
      "properties": {
        "woe:id": 12514065, 
        "href": "/125/140/65/12514065.json", 
        "name": "Eldoret Airport", 
        "iata:code": "EDL"
      }
    }, 
    {
      "geometry": {
        "type": "Point", 
        "coordinates": [
          39.111, 
          3.468
        ]
      }, 
      "id": 12514074, 
      "properties": {
        "woe:id": 12514074, 
        "href": "/125/140/74/12514074.json", 
        "name": "Moyale Lower Airport"
      }
    }, 
    {
      "geometry": {
        "type": "Point", 
        "coordinates": [
          36.924, 
          -1.319
        ]
      }, 
      "id": 12514067, 
      "properties": {
        "woe:id": 12514067, 
        "href": "/125/140/67/12514067.json", 
        "name": "Jomo Kenyatta International Airport"
      }
    }, 
    {
      "geometry": {
        "type": "Point", 
        "coordinates": [
          39.594, 
          -4.031
        ]
      }, 
      "id": 12514073, 
      "properties": {
        "woe:id": 12514073, 
        "href": "/125/140/73/12514073.json", 
        "name": "Moi International Airport"
      }
    }, 
    {
      "geometry": {
        "type": "Point", 
        "coordinates": [
          40.101, 
          -3.226
        ]
      }, 
      "id": 12514070, 
      "properties": {
        "woe:id": 12514070, 
        "href": "/125/140/70/12514070.json", 
        "name": "Malindi Airport", 
        "iata:code": "MYD"
      }
    }, 
    {
      "geometry": {
        "type": "Point", 
        "coordinates": [
          40.097, 
          1.733
        ]
      }, 
      "id": 12514082, 
      "properties": {
        "woe:id": 12514082, 
        "href": "/125/140/82/12514082.json", 
        "name": "Wajir Airport"
      }
    }, 
    {
      "geometry": {
        "type": "Point", 
        "coordinates": [
          35.009, 
          -1.394
        ]
      }, 
      "id": 12514071, 
      "properties": {
        "woe:id": 12514071, 
        "href": "/125/140/71/12514071.json", 
        "name": "Mara Serena Airport"
      }
    }, 
    {
      "geometry": {
        "type": "Point", 
        "coordinates": [
          36.862, 
          -1.276
        ]
      }, 
      "id": 12514077, 
      "properties": {
        "woe:id": 12514077, 
        "href": "/125/140/77/12514077.json", 
        "name": "Nairobi Eastleigh Airport"
      }
    }, 
    {
      "geometry": {
        "type": "Point", 
        "coordinates": [
          37.622, 
          -0.881
        ]
      }, 
      "id": 12514072, 
      "properties": {
        "woe:id": 12514072, 
        "href": "/125/140/72/12514072.json", 
        "name": "Masinga Airport"
      }
    }, 
    {
      "geometry": {
        "type": "Point", 
        "coordinates": [
          37.588, 
          0.344
        ]
      }, 
      "id": 12514066, 
      "properties": {
        "woe:id": 12514066, 
        "href": "/125/140/66/12514066.json", 
        "name": "Isiolo Airport"
      }
    }, 
    {
      "geometry": {
        "type": "Point", 
        "coordinates": [
          34.728, 
          -0.086
        ]
      }, 
      "id": 12514068, 
      "properties": {
        "woe:id": 12514068, 
        "href": "/125/140/68/12514068.json", 
        "name": "Kisumu Airport"
      }
    }, 
    {
      "geometry": {
        "type": "Point", 
        "coordinates": [
          37.037, 
          -0.058
        ]
      }, 
      "id": 12514079, 
      "properties": {
        "woe:id": 12514079, 
        "href": "/125/140/79/12514079.json", 
        "name": "Nanyuki Airport", 
        "iata:code": "NYK"
      }
    }, 
    {
      "geometry": {
        "type": "Point", 
        "coordinates": [
          36.978, 
          -0.365
        ]
      }, 
      "id": 12514080, 
      "properties": {
        "woe:id": 12514080, 
        "href": "/125/140/80/12514080.json", 
        "name": "Nyeri Airport", 
        "iata:code": "NYE"
      }
    }
  ], 
  "properties": {
    "iso": "KE", 
    "woe:country": 23424863
  }
}