{
  "type": "FeatureCollection", 
  "features": [
    {
      "geometry": {
        "type": "Point", 
        "coordinates": [
          79.885, 
          7.178
        ]
      }, 
      "id": 12511941, 
      "properties": {
        "woe:id": 12511941, 
        "href": "/125/119/41/12511941.json", 
        "name": "Katunayake International Airport", 
        "iata:code": "CMB"
      }
    }, 
    {
      "geometry": {
        "type": "Point", 
        "coordinates": [
          79.887, 
          6.819
        ]
      }, 
      "id": 12511938, 
      "properties": {
        "woe:id": 12511938, 
        "href": "/125/119/38/12511938.json", 
        "name": "Colombo Ratmalana Airport", 
        "iata:code": "RML"
      }
    }, 
    {
      "geometry": {
        "type": "Point", 
        "coordinates": [
          80.324, 
          5.993
        ]
      }, 
      "id": 12511942, 
      "properties": {
        "woe:id": 12511942, 
        "href": "/125/119/42/12511942.json", 
        "name": "Koggala Airport"
      }
    }, 
    {
      "geometry": {
        "type": "Point", 
        "coordinates": [
          80.426, 
          8.300
        ]
      }, 
      "id": 12511935, 
      "properties": {
        "woe:id": 12511935, 
        "href": "/125/119/35/12511935.json", 
        "name": "Anuradhapura Airport"
      }
    }, 
    {
      "geometry": {
        "type": "Point", 
        "coordinates": [
          80.075, 
          9.792
        ]
      }, 
      "id": 12511939, 
      "properties": {
        "woe:id": 12511939, 
        "href": "/125/119/39/12511939.json", 
        "name": "Kankesanturai Airport", 
        "iata:code": "JAF"
      }
    }, 
    {
      "geometry": {
        "type": "Point", 
        "coordinates": [
          81.183, 
          8.537
        ]
      }, 
      "id": 12511937, 
      "properties": {
        "woe:id": 12511937, 
        "href": "/125/119/37/12511937.json", 
        "name": "China Bay Airport", 
        "iata:code": "TRR"
      }
    }, 
    {
      "geometry": {
        "type": "Point", 
        "coordinates": [
          79.976, 
          6.550
        ]
      }, 
      "id": 12511940, 
      "properties": {
        "woe:id": 12511940, 
        "href": "/125/119/40/12511940.json", 
        "name": "Katukurunda Airport"
      }
    }, 
    {
      "geometry": {
        "type": "Point", 
        "coordinates": [
          80.983, 
          8.048
        ]
      }, 
      "id": 12511943, 
      "properties": {
        "woe:id": 12511943, 
        "href": "/125/119/43/12511943.json", 
        "name": "Minneriya Airport"
      }
    }, 
    {
      "geometry": {
        "type": "Point", 
        "coordinates": [
          81.628, 
          7.337
        ]
      }, 
      "id": 12511934, 
      "properties": {
        "woe:id": 12511934, 
        "href": "/125/119/34/12511934.json", 
        "name": "Amparai Airport"
      }
    }, 
    {
      "geometry": {
        "type": "Point", 
        "coordinates": [
          81.679, 
          7.703
        ]
      }, 
      "id": 12511936, 
      "properties": {
        "woe:id": 12511936, 
        "href": "/125/119/36/12511936.json", 
        "name": "Batticaloa Airport"
      }
    }, 
    {
      "geometry": {
        "type": "Point", 
        "coordinates": [
          81.239, 
          6.251
        ]
      }, 
      "id": 12511944, 
      "properties": {
        "woe:id": 12511944, 
        "href": "/125/119/44/12511944.json", 
        "name": "Wirawila Airport"
      }
    }
  ], 
  "properties": {
    "iso": "LK", 
    "woe:country": 23424778
  }
}