{
  "type": "FeatureCollection", 
  "features": [
    {
      "geometry": {
        "type": "Point", 
        "coordinates": [
          23.619801, 
          55.876301
        ]
      }, 
      "id": 12514581, 
      "properties": {
        "woe:id": 12514581, 
        "href": "/125/145/81/12514581.json", 
        "name": "Aukstelkai Pirmieji Airport"
      }
    }, 
    {
      "geometry": {
        "type": "Point", 
        "coordinates": [
          24.845699, 
          54.396500
        ]
      }, 
      "id": 12514583, 
      "properties": {
        "woe:id": 12514583, 
        "href": "/125/145/83/12514583.json", 
        "name": "Darguziai Airport"
      }
    }, 
    {
      "geometry": {
        "type": "Point", 
        "coordinates": [
          21.328400, 
          55.292198
        ]
      }, 
      "id": 12514597, 
      "properties": {
        "woe:id": 12514597, 
        "href": "/125/145/97/12514597.json", 
        "name": "Rusne Airport"
      }
    }, 
    {
      "geometry": {
        "type": "Point", 
        "coordinates": [
          21.212700, 
          55.720100
        ]
      }, 
      "id": 12514591, 
      "properties": {
        "woe:id": 12514591, 
        "href": "/125/145/91/12514591.json", 
        "name": "Klaipeda East Airport"
      }
    }, 
    {
      "geometry": {
        "type": "Point", 
        "coordinates": [
          21.561600, 
          55.939098
        ]
      }, 
      "id": 12514588, 
      "properties": {
        "woe:id": 12514588, 
        "href": "/125/145/88/12514588.json", 
        "name": "Kartena Highway Strip Airport"
      }
    }, 
    {
      "geometry": {
        "type": "Point", 
        "coordinates": [
          24.061701, 
          54.667500
        ]
      }, 
      "id": 12514596, 
      "properties": {
        "woe:id": 12514596, 
        "href": "/125/145/96/12514596.json", 
        "name": "Prienai Airport"
      }
    }, 
    {
      "geometry": {
        "type": "Point", 
        "coordinates": [
          23.926800, 
          55.435902
        ]
      }, 
      "id": 12514599, 
      "properties": {
        "woe:id": 12514599, 
        "href": "/125/145/99/12514599.json", 
        "name": "Surviliskis Airport"
      }
    }, 
    {
      "geometry": {
        "type": "Point", 
        "coordinates": [
          23.494200, 
          54.809700
        ]
      }, 
      "id": 12514589, 
      "properties": {
        "woe:id": 12514589, 
        "href": "/125/145/89/12514589.json", 
        "name": "Kazly Ruda Airport"
      }
    }, 
    {
      "geometry": {
        "type": "Point", 
        "coordinates": [
          24.051201, 
          54.986301
        ]
      }, 
      "id": 12514587, 
      "properties": {
        "woe:id": 12514587, 
        "href": "/125/145/87/12514587.json", 
        "name": "Karmilava Airport"
      }
    }, 
    {
      "geometry": {
        "type": "Point", 
        "coordinates": [
          21.295099, 
          55.400799
        ]
      }, 
      "id": 12514590, 
      "properties": {
        "woe:id": 12514590, 
        "href": "/125/145/90/12514590.json", 
        "name": "Kintai Airport"
      }
    }, 
    {
      "geometry": {
        "type": "Point", 
        "coordinates": [
          21.526100, 
          55.349098
        ]
      }, 
      "id": 12514598, 
      "properties": {
        "woe:id": 12514598, 
        "href": "/125/145/98/12514598.json", 
        "name": "Silute Airport"
      }
    }, 
    {
      "geometry": {
        "type": "Point", 
        "coordinates": [
          23.569799, 
          56.073799
        ]
      }, 
      "id": 12514593, 
      "properties": {
        "woe:id": 12514593, 
        "href": "/125/145/93/12514593.json", 
        "name": "Meskuiciai Airport"
      }
    }, 
    {
      "geometry": {
        "type": "Point", 
        "coordinates": [
          24.954800, 
          56.121498
        ]
      }, 
      "id": 12514582, 
      "properties": {
        "woe:id": 12514582, 
        "href": "/125/145/82/12514582.json", 
        "name": "Birzai Highway Strip Airport"
      }
    }, 
    {
      "geometry": {
        "type": "Point", 
        "coordinates": [
          24.336000, 
          55.026501
        ]
      }, 
      "id": 12514586, 
      "properties": {
        "woe:id": 12514586, 
        "href": "/125/145/86/12514586.json", 
        "name": "Jonava Southeast Airport"
      }
    }, 
    {
      "geometry": {
        "type": "Point", 
        "coordinates": [
          23.319201, 
          54.558899
        ]
      }, 
      "id": 12514592, 
      "properties": {
        "woe:id": 12514592, 
        "href": "/125/145/92/12514592.json", 
        "name": "Marijampole Airport"
      }
    }, 
    {
      "geometry": {
        "type": "Point", 
        "coordinates": [
          23.502399, 
          55.348598
        ]
      }, 
      "id": 12514595, 
      "properties": {
        "woe:id": 12514595, 
        "href": "/125/145/95/12514595.json", 
        "name": "Paliepiai Airport"
      }
    }, 
    {
      "geometry": {
        "type": "Point", 
        "coordinates": [
          23.951799, 
          54.028301
        ]
      }, 
      "id": 12514584, 
      "properties": {
        "woe:id": 12514584, 
        "href": "/125/145/84/12514584.json", 
        "name": "Druskininkai Airport"
      }
    }, 
    {
      "geometry": {
        "type": "Point", 
        "coordinates": [
          24.417200, 
          55.117100
        ]
      }, 
      "id": 12514585, 
      "properties": {
        "woe:id": 12514585, 
        "href": "/125/145/85/12514585.json", 
        "name": "Jonava East Airport"
      }
    }, 
    {
      "geometry": {
        "type": "Point", 
        "coordinates": [
          24.066500, 
          54.436001
        ]
      }, 
      "id": 12514580, 
      "properties": {
        "woe:id": 12514580, 
        "href": "/125/145/80/12514580.json", 
        "name": "Alytus Airport"
      }
    }, 
    {
      "geometry": {
        "type": "Point", 
        "coordinates": [
          21.040800, 
          55.338200
        ]
      }, 
      "id": 12514594, 
      "properties": {
        "woe:id": 12514594, 
        "href": "/125/145/94/12514594.json", 
        "name": "Nida Northeast Airport"
      }
    }, 
    {
      "geometry": {
        "type": "Point", 
        "coordinates": [
          25.295658, 
          54.639199
        ]
      }, 
      "id": 12523042, 
      "properties": {
        "woe:id": 12523042, 
        "href": "/125/230/42/12523042.json", 
        "name": "Vilnius Airport"
      }
    }, 
    {
      "geometry": {
        "type": "Point", 
        "coordinates": [
          22.046900, 
          55.121300
        ]
      }, 
      "id": 12514600, 
      "properties": {
        "woe:id": 12514600, 
        "href": "/125/146/00/12514600.json", 
        "name": "Uzbiciac Airport"
      }
    }, 
    {
      "geometry": {
        "type": "Point", 
        "coordinates": [
          25.512699, 
          54.678101
        ]
      }, 
      "id": 12514601, 
      "properties": {
        "woe:id": 12514601, 
        "href": "/125/146/01/12514601.json", 
        "name": "Vilnius East Airport"
      }
    }, 
    {
      "geometry": {
        "type": "Point", 
        "coordinates": [
          21.097960, 
          55.971699
        ]
      }, 
      "id": 56051554, 
      "properties": {
        "woe:id": 56051554, 
        "href": "/560/515/54/56051554.json", 
        "name": "Palanga International Airport"
      }
    }
  ], 
  "properties": {
    "iso": "LT", 
    "woe:country": 23424875
  }
}