{
  "type": "FeatureCollection", 
  "features": [
    {
      "geometry": {
        "type": "Point", 
        "coordinates": [
          23.620, 
          55.876
        ]
      }, 
      "id": 12514581, 
      "properties": {
        "woe:id": 12514581, 
        "href": "/125/145/81/12514581.json", 
        "name": "Aukstelkai Pirmieji Airport"
      }
    }, 
    {
      "geometry": {
        "type": "Point", 
        "coordinates": [
          24.846, 
          54.397
        ]
      }, 
      "id": 12514583, 
      "properties": {
        "woe:id": 12514583, 
        "href": "/125/145/83/12514583.json", 
        "name": "Darguziai Airport"
      }
    }, 
    {
      "geometry": {
        "type": "Point", 
        "coordinates": [
          21.328, 
          55.292
        ]
      }, 
      "id": 12514597, 
      "properties": {
        "woe:id": 12514597, 
        "href": "/125/145/97/12514597.json", 
        "name": "Rusne Airport"
      }
    }, 
    {
      "geometry": {
        "type": "Point", 
        "coordinates": [
          21.213, 
          55.720
        ]
      }, 
      "id": 12514591, 
      "properties": {
        "woe:id": 12514591, 
        "href": "/125/145/91/12514591.json", 
        "name": "Klaipeda East Airport"
      }
    }, 
    {
      "geometry": {
        "type": "Point", 
        "coordinates": [
          21.562, 
          55.939
        ]
      }, 
      "id": 12514588, 
      "properties": {
        "woe:id": 12514588, 
        "href": "/125/145/88/12514588.json", 
        "name": "Kartena Highway Strip Airport"
      }
    }, 
    {
      "geometry": {
        "type": "Point", 
        "coordinates": [
          24.062, 
          54.667
        ]
      }, 
      "id": 12514596, 
      "properties": {
        "woe:id": 12514596, 
        "href": "/125/145/96/12514596.json", 
        "name": "Prienai Airport"
      }
    }, 
    {
      "geometry": {
        "type": "Point", 
        "coordinates": [
          23.927, 
          55.436
        ]
      }, 
      "id": 12514599, 
      "properties": {
        "woe:id": 12514599, 
        "href": "/125/145/99/12514599.json", 
        "name": "Surviliskis Airport"
      }
    }, 
    {
      "geometry": {
        "type": "Point", 
        "coordinates": [
          23.494, 
          54.810
        ]
      }, 
      "id": 12514589, 
      "properties": {
        "woe:id": 12514589, 
        "href": "/125/145/89/12514589.json", 
        "name": "Kazly Ruda Airport"
      }
    }, 
    {
      "geometry": {
        "type": "Point", 
        "coordinates": [
          24.051, 
          54.986
        ]
      }, 
      "id": 12514587, 
      "properties": {
        "woe:id": 12514587, 
        "href": "/125/145/87/12514587.json", 
        "name": "Karmilava Airport"
      }
    }, 
    {
      "geometry": {
        "type": "Point", 
        "coordinates": [
          21.295, 
          55.401
        ]
      }, 
      "id": 12514590, 
      "properties": {
        "woe:id": 12514590, 
        "href": "/125/145/90/12514590.json", 
        "name": "Kintai Airport"
      }
    }, 
    {
      "geometry": {
        "type": "Point", 
        "coordinates": [
          21.526, 
          55.349
        ]
      }, 
      "id": 12514598, 
      "properties": {
        "woe:id": 12514598, 
        "href": "/125/145/98/12514598.json", 
        "name": "Silute Airport"
      }
    }, 
    {
      "geometry": {
        "type": "Point", 
        "coordinates": [
          23.570, 
          56.074
        ]
      }, 
      "id": 12514593, 
      "properties": {
        "woe:id": 12514593, 
        "href": "/125/145/93/12514593.json", 
        "name": "Meskuiciai Airport"
      }
    }, 
    {
      "geometry": {
        "type": "Point", 
        "coordinates": [
          24.955, 
          56.121
        ]
      }, 
      "id": 12514582, 
      "properties": {
        "woe:id": 12514582, 
        "href": "/125/145/82/12514582.json", 
        "name": "Birzai Highway Strip Airport"
      }
    }, 
    {
      "geometry": {
        "type": "Point", 
        "coordinates": [
          24.336, 
          55.027
        ]
      }, 
      "id": 12514586, 
      "properties": {
        "woe:id": 12514586, 
        "href": "/125/145/86/12514586.json", 
        "name": "Jonava Southeast Airport"
      }
    }, 
    {
      "geometry": {
        "type": "Point", 
        "coordinates": [
          23.319, 
          54.559
        ]
      }, 
      "id": 12514592, 
      "properties": {
        "woe:id": 12514592, 
        "href": "/125/145/92/12514592.json", 
        "name": "Marijampole Airport"
      }
    }, 
    {
      "geometry": {
        "type": "Point", 
        "coordinates": [
          23.502, 
          55.349
        ]
      }, 
      "id": 12514595, 
      "properties": {
        "woe:id": 12514595, 
        "href": "/125/145/95/12514595.json", 
        "name": "Paliepiai Airport"
      }
    }, 
    {
      "geometry": {
        "type": "Point", 
        "coordinates": [
          23.952, 
          54.028
        ]
      }, 
      "id": 12514584, 
      "properties": {
        "woe:id": 12514584, 
        "href": "/125/145/84/12514584.json", 
        "name": "Druskininkai Airport"
      }
    }, 
    {
      "geometry": {
        "type": "Point", 
        "coordinates": [
          24.417, 
          55.117
        ]
      }, 
      "id": 12514585, 
      "properties": {
        "woe:id": 12514585, 
        "href": "/125/145/85/12514585.json", 
        "name": "Jonava East Airport"
      }
    }, 
    {
      "geometry": {
        "type": "Point", 
        "coordinates": [
          24.067, 
          54.436
        ]
      }, 
      "id": 12514580, 
      "properties": {
        "woe:id": 12514580, 
        "href": "/125/145/80/12514580.json", 
        "name": "Alytus Airport"
      }
    }, 
    {
      "geometry": {
        "type": "Point", 
        "coordinates": [
          21.041, 
          55.338
        ]
      }, 
      "id": 12514594, 
      "properties": {
        "woe:id": 12514594, 
        "href": "/125/145/94/12514594.json", 
        "name": "Nida Northeast Airport"
      }
    }, 
    {
      "geometry": {
        "type": "Point", 
        "coordinates": [
          25.296, 
          54.639
        ]
      }, 
      "id": 12523042, 
      "properties": {
        "woe:id": 12523042, 
        "href": "/125/230/42/12523042.json", 
        "name": "Vilnius Airport"
      }
    }, 
    {
      "geometry": {
        "type": "Point", 
        "coordinates": [
          22.047, 
          55.121
        ]
      }, 
      "id": 12514600, 
      "properties": {
        "woe:id": 12514600, 
        "href": "/125/146/00/12514600.json", 
        "name": "Uzbiciac Airport"
      }
    }, 
    {
      "geometry": {
        "type": "Point", 
        "coordinates": [
          25.513, 
          54.678
        ]
      }, 
      "id": 12514601, 
      "properties": {
        "woe:id": 12514601, 
        "href": "/125/146/01/12514601.json", 
        "name": "Vilnius East Airport"
      }
    }, 
    {
      "geometry": {
        "type": "Point", 
        "coordinates": [
          21.098, 
          55.972
        ]
      }, 
      "id": 56051554, 
      "properties": {
        "woe:id": 56051554, 
        "href": "/560/515/54/56051554.json", 
        "name": "Palanga International Airport"
      }
    }
  ], 
  "properties": {
    "iso": "LT", 
    "woe:country": 23424875
  }
}