{
  "type": "FeatureCollection", 
  "features": [
    {
      "geometry": {
        "type": "Point", 
        "coordinates": [
          19.769, 
          28.964
        ]
      }, 
      "id": 12514681, 
      "properties": {
        "woe:id": 12514681, 
        "href": "/125/146/81/12514681.json", 
        "name": "Zelten C6 Airport"
      }
    }, 
    {
      "geometry": {
        "type": "Point", 
        "coordinates": [
          12.017, 
          32.954
        ]
      }, 
      "id": 12514683, 
      "properties": {
        "woe:id": 12514683, 
        "href": "/125/146/83/12514683.json", 
        "name": "Zuwarah Airport"
      }
    }, 
    {
      "geometry": {
        "type": "Point", 
        "coordinates": [
          16.601, 
          31.064
        ]
      }, 
      "id": 12514653, 
      "properties": {
        "woe:id": 12514653, 
        "href": "/125/146/53/12514653.json", 
        "name": "Ghurdabiyah Airport"
      }
    }, 
    {
      "geometry": {
        "type": "Point", 
        "coordinates": [
          21.458, 
          28.637
        ]
      }, 
      "id": 12514678, 
      "properties": {
        "woe:id": 12514678, 
        "href": "/125/146/78/12514678.json", 
        "name": "Warehouse 59e Airport"
      }
    }, 
    {
      "geometry": {
        "type": "Point", 
        "coordinates": [
          14.533, 
          24.186
        ]
      }, 
      "id": 12514641, 
      "properties": {
        "woe:id": 12514641, 
        "href": "/125/146/41/12514641.json", 
        "name": "Al Wigh Airport"
      }
    }, 
    {
      "geometry": {
        "type": "Point", 
        "coordinates": [
          22.081, 
          28.797
        ]
      }, 
      "id": 12514648, 
      "properties": {
        "woe:id": 12514648, 
        "href": "/125/146/48/12514648.json", 
        "name": "Bu Attifel Airport"
      }
    }, 
    {
      "geometry": {
        "type": "Point", 
        "coordinates": [
          12.939, 
          29.551
        ]
      }, 
      "id": 12514638, 
      "properties": {
        "woe:id": 12514638, 
        "href": "/125/146/38/12514638.json", 
        "name": "Al Hamada Con 66 East Airport"
      }
    }, 
    {
      "geometry": {
        "type": "Point", 
        "coordinates": [
          21.832, 
          21.690
        ]
      }, 
      "id": 12514659, 
      "properties": {
        "woe:id": 12514659, 
        "href": "/125/146/59/12514659.json", 
        "name": "Matan As Sarra Airport"
      }
    }, 
    {
      "geometry": {
        "type": "Point", 
        "coordinates": [
          21.136, 
          29.447
        ]
      }, 
      "id": 12514642, 
      "properties": {
        "woe:id": 12514642, 
        "href": "/125/146/42/12514642.json", 
        "name": "Amal 3 Airport"
      }
    }, 
    {
      "geometry": {
        "type": "Point", 
        "coordinates": [
          17.583, 
          28.957
        ]
      }, 
      "id": 12514676, 
      "properties": {
        "woe:id": 12514676, 
        "href": "/125/146/76/12514676.json", 
        "name": "Wadi Buzanad Sw Airport"
      }
    }, 
    {
      "geometry": {
        "type": "Point", 
        "coordinates": [
          11.899, 
          32.474
        ]
      }, 
      "id": 12514664, 
      "properties": {
        "woe:id": 12514664, 
        "href": "/125/146/64/12514664.json", 
        "name": "Okba Ibn Nafa Airport"
      }
    }, 
    {
      "geometry": {
        "type": "Point", 
        "coordinates": [
          22.504, 
          27.660
        ]
      }, 
      "id": 12514669, 
      "properties": {
        "woe:id": 12514669, 
        "href": "/125/146/69/12514669.json", 
        "name": "Sarir Airport"
      }
    }, 
    {
      "geometry": {
        "type": "Point", 
        "coordinates": [
          15.062, 
          32.333
        ]
      }, 
      "id": 12514660, 
      "properties": {
        "woe:id": 12514660, 
        "href": "/125/146/60/12514660.json", 
        "name": "Misurata Airport", 
        "iata:code": "MRA"
      }
    }, 
    {
      "geometry": {
        "type": "Point", 
        "coordinates": [
          16.002, 
          29.199
        ]
      }, 
      "id": 12514639, 
      "properties": {
        "woe:id": 12514639, 
        "href": "/125/146/39/12514639.json", 
        "name": "Al Jufra Airport"
      }
    }, 
    {
      "geometry": {
        "type": "Point", 
        "coordinates": [
          16.175, 
          29.135
        ]
      }, 
      "id": 12514675, 
      "properties": {
        "woe:id": 12514675, 
        "href": "/125/146/75/12514675.json", 
        "name": "Waddan Airport"
      }
    }, 
    {
      "geometry": {
        "type": "Point", 
        "coordinates": [
          23.348, 
          29.892
        ]
      }, 
      "id": 12514637, 
      "properties": {
        "woe:id": 12514637, 
        "href": "/125/146/37/12514637.json", 
        "name": "Al Booster Airport"
      }
    }, 
    {
      "geometry": {
        "type": "Point", 
        "coordinates": [
          21.621, 
          27.254
        ]
      }, 
      "id": 12514640, 
      "properties": {
        "woe:id": 12514640, 
        "href": "/125/146/40/12514640.json", 
        "name": "Al Khuwaymat Airport"
      }
    }, 
    {
      "geometry": {
        "type": "Point", 
        "coordinates": [
          21.589, 
          29.209
        ]
      }, 
      "id": 12514661, 
      "properties": {
        "woe:id": 12514661, 
        "href": "/125/146/61/12514661.json", 
        "name": "Nafurah 1 Airport"
      }
    }, 
    {
      "geometry": {
        "type": "Point", 
        "coordinates": [
          20.794, 
          29.006
        ]
      }, 
      "id": 12514665, 
      "properties": {
        "woe:id": 12514665, 
        "href": "/125/146/65/12514665.json", 
        "name": "Oxy A 103 Airport"
      }
    }, 
    {
      "geometry": {
        "type": "Point", 
        "coordinates": [
          15.966, 
          29.112
        ]
      }, 
      "id": 12514655, 
      "properties": {
        "woe:id": 12514655, 
        "href": "/125/146/55/12514655.json", 
        "name": "Hon Airport", 
        "iata:code": "HUQ"
      }
    }, 
    {
      "geometry": {
        "type": "Point", 
        "coordinates": [
          13.276, 
          32.896
        ]
      }, 
      "id": 12514674, 
      "properties": {
        "woe:id": 12514674, 
        "href": "/125/146/74/12514674.json", 
        "name": "Umm Aitiqah Airport"
      }
    }, 
    {
      "geometry": {
        "type": "Point", 
        "coordinates": [
          16.427, 
          31.207
        ]
      }, 
      "id": 12514667, 
      "properties": {
        "woe:id": 12514667, 
        "href": "/125/146/67/12514667.json", 
        "name": "Qasr Sirt Highway Strip Airport"
      }
    }, 
    {
      "geometry": {
        "type": "Point", 
        "coordinates": [
          14.915, 
          31.706
        ]
      }, 
      "id": 12514662, 
      "properties": {
        "woe:id": 12514662, 
        "href": "/125/146/62/12514662.json", 
        "name": "Nanur Airport"
      }
    }, 
    {
      "geometry": {
        "type": "Point", 
        "coordinates": [
          12.816, 
          26.568
        ]
      }, 
      "id": 12514673, 
      "properties": {
        "woe:id": 12514673, 
        "href": "/125/146/73/12514673.json", 
        "name": "Ubari Airport"
      }
    }, 
    {
      "geometry": {
        "type": "Point", 
        "coordinates": [
          18.313, 
          30.633
        ]
      }, 
      "id": 12514650, 
      "properties": {
        "woe:id": 12514650, 
        "href": "/125/146/50/12514650.json", 
        "name": "Essider Airport"
      }
    }, 
    {
      "geometry": {
        "type": "Point", 
        "coordinates": [
          14.467, 
          26.993
        ]
      }, 
      "id": 12514670, 
      "properties": {
        "woe:id": 12514670, 
        "href": "/125/146/70/12514670.json", 
        "name": "Sebha Airport", 
        "iata:code": "SEB"
      }
    }, 
    {
      "geometry": {
        "type": "Point", 
        "coordinates": [
          19.008, 
          28.492
        ]
      }, 
      "id": 12514643, 
      "properties": {
        "woe:id": 12514643, 
        "href": "/125/146/43/12514643.json", 
        "name": "Beda M3 Airport"
      }
    }, 
    {
      "geometry": {
        "type": "Point", 
        "coordinates": [
          13.428, 
          26.334
        ]
      }, 
      "id": 12514646, 
      "properties": {
        "woe:id": 12514646, 
        "href": "/125/146/46/12514646.json", 
        "name": "Bir Umran Airport"
      }
    }, 
    {
      "geometry": {
        "type": "Point", 
        "coordinates": [
          20.076, 
          30.871
        ]
      }, 
      "id": 12514682, 
      "properties": {
        "woe:id": 12514682, 
        "href": "/125/146/82/12514682.json", 
        "name": "Zuetina Airport"
      }
    }, 
    {
      "geometry": {
        "type": "Point", 
        "coordinates": [
          14.650, 
          27.239
        ]
      }, 
      "id": 12514671, 
      "properties": {
        "woe:id": 12514671, 
        "href": "/125/146/71/12514671.json", 
        "name": "Taminhint Airport"
      }
    }, 
    {
      "geometry": {
        "type": "Point", 
        "coordinates": [
          14.259, 
          27.683
        ]
      }, 
      "id": 12514647, 
      "properties": {
        "woe:id": 12514647, 
        "href": "/125/146/47/12514647.json", 
        "name": "Brach Airport"
      }
    }, 
    {
      "geometry": {
        "type": "Point", 
        "coordinates": [
          19.931, 
          28.322
        ]
      }, 
      "id": 12514677, 
      "properties": {
        "woe:id": 12514677, 
        "href": "/125/146/77/12514677.json", 
        "name": "Warehouse 59a Airport"
      }
    }, 
    {
      "geometry": {
        "type": "Point", 
        "coordinates": [
          13.160, 
          32.665
        ]
      }, 
      "id": 12514672, 
      "properties": {
        "woe:id": 12514672, 
        "href": "/125/146/72/12514672.json", 
        "name": "Tripoli International Airport"
      }
    }, 
    {
      "geometry": {
        "type": "Point", 
        "coordinates": [
          16.557, 
          30.540
        ]
      }, 
      "id": 12514645, 
      "properties": {
        "woe:id": 12514645, 
        "href": "/125/146/45/12514645.json", 
        "name": "Bir Qaryas Highway Strip Airport"
      }
    }, 
    {
      "geometry": {
        "type": "Point", 
        "coordinates": [
          10.149, 
          25.133
        ]
      }, 
      "id": 12514652, 
      "properties": {
        "woe:id": 12514652, 
        "href": "/125/146/52/12514652.json", 
        "name": "Ghat Airport", 
        "iata:code": "GHT"
      }
    }, 
    {
      "geometry": {
        "type": "Point", 
        "coordinates": [
          23.917, 
          31.854
        ]
      }, 
      "id": 12514651, 
      "properties": {
        "woe:id": 12514651, 
        "href": "/125/146/51/12514651.json", 
        "name": "Gamal Abd El Nasser Airport"
      }
    }, 
    {
      "geometry": {
        "type": "Point", 
        "coordinates": [
          20.027, 
          31.975
        ]
      }, 
      "id": 12514666, 
      "properties": {
        "woe:id": 12514666, 
        "href": "/125/146/66/12514666.json", 
        "name": "Qaryat Al Karmal Airport"
      }
    }, 
    {
      "geometry": {
        "type": "Point", 
        "coordinates": [
          18.008, 
          29.369
        ]
      }, 
      "id": 12514654, 
      "properties": {
        "woe:id": 12514654, 
        "href": "/125/146/54/12514654.json", 
        "name": "Hofra V10 Airport"
      }
    }, 
    {
      "geometry": {
        "type": "Point", 
        "coordinates": [
          18.531, 
          30.500
        ]
      }, 
      "id": 12514668, 
      "properties": {
        "woe:id": 12514668, 
        "href": "/125/146/68/12514668.json", 
        "name": "Ras Lanuf Oil Airport"
      }
    }, 
    {
      "geometry": {
        "type": "Point", 
        "coordinates": [
          16.810, 
          25.351
        ]
      }, 
      "id": 12514679, 
      "properties": {
        "woe:id": 12514679, 
        "href": "/125/146/79/12514679.json", 
        "name": "Waw Al Kabir Airport"
      }
    }, 
    {
      "geometry": {
        "type": "Point", 
        "coordinates": [
          17.927, 
          29.475
        ]
      }, 
      "id": 12514649, 
      "properties": {
        "woe:id": 12514649, 
        "href": "/125/146/49/12514649.json", 
        "name": "Dahra Airport"
      }
    }, 
    {
      "geometry": {
        "type": "Point", 
        "coordinates": [
          9.714, 
          30.134
        ]
      }, 
      "id": 12514663, 
      "properties": {
        "woe:id": 12514663, 
        "href": "/125/146/63/12514663.json", 
        "name": "New Ghadames Airport"
      }
    }, 
    {
      "geometry": {
        "type": "Point", 
        "coordinates": [
          19.577, 
          30.379
        ]
      }, 
      "id": 12514658, 
      "properties": {
        "woe:id": 12514658, 
        "href": "/125/146/58/12514658.json", 
        "name": "Marsa Brega Airport"
      }
    }, 
    {
      "geometry": {
        "type": "Point", 
        "coordinates": [
          20.194, 
          30.766
        ]
      }, 
      "id": 12514636, 
      "properties": {
        "woe:id": 12514636, 
        "href": "/125/146/36/12514636.json", 
        "name": "Agedabia Airport"
      }
    }, 
    {
      "geometry": {
        "type": "Point", 
        "coordinates": [
          23.319, 
          24.182
        ]
      }, 
      "id": 12514656, 
      "properties": {
        "woe:id": 12514656, 
        "href": "/125/146/56/12514656.json", 
        "name": "Kufra Airport", 
        "iata:code": "AKF"
      }
    }, 
    {
      "geometry": {
        "type": "Point", 
        "coordinates": [
          13.955, 
          31.743
        ]
      }, 
      "id": 12514644, 
      "properties": {
        "woe:id": 12514644, 
        "href": "/125/146/44/12514644.json", 
        "name": "Beni Walid Airport"
      }
    }, 
    {
      "geometry": {
        "type": "Point", 
        "coordinates": [
          18.581, 
          30.444
        ]
      }, 
      "id": 12514657, 
      "properties": {
        "woe:id": 12514657, 
        "href": "/125/146/57/12514657.json", 
        "name": "Marble Arch Highway Strip Airport"
      }
    }, 
    {
      "geometry": {
        "type": "Point", 
        "coordinates": [
          17.317, 
          28.584
        ]
      }, 
      "id": 12514680, 
      "properties": {
        "woe:id": 12514680, 
        "href": "/125/146/80/12514680.json", 
        "name": "Zella 74 Airport"
      }
    }
  ], 
  "properties": {
    "woe:id": 23424882, 
    "iso": "LY"
  }
}