{
  "type": "FeatureCollection", 
  "features": [
    {
      "geometry": {
        "type": "Point", 
        "coordinates": [
          -7.316400, 
          16.618099
        ]
      }, 
      "id": 12514803, 
      "properties": {
        "woe:id": 12514803, 
        "href": "/125/148/03/12514803.json", 
        "name": "Nema Airport", 
        "iata:code": "EMN"
      }
    }, 
    {
      "geometry": {
        "type": "Point", 
        "coordinates": [
          -12.206100, 
          15.182200
        ]
      }, 
      "id": 12514807, 
      "properties": {
        "woe:id": 12514807, 
        "href": "/125/148/07/12514807.json", 
        "name": "Selibabi Airport"
      }
    }, 
    {
      "geometry": {
        "type": "Point", 
        "coordinates": [
          -15.947800, 
          18.097500
        ]
      }, 
      "id": 12514806, 
      "properties": {
        "woe:id": 12514806, 
        "href": "/125/148/06/12514806.json", 
        "name": "Nouakchott Airport"
      }
    }, 
    {
      "geometry": {
        "type": "Point", 
        "coordinates": [
          -13.043600, 
          20.506701
        ]
      }, 
      "id": 12514800, 
      "properties": {
        "woe:id": 12514800, 
        "href": "/125/148/00/12514800.json", 
        "name": "Atar Airport", 
        "iata:code": "ATR"
      }
    }, 
    {
      "geometry": {
        "type": "Point", 
        "coordinates": [
          -13.507800, 
          16.161400
        ]
      }, 
      "id": 12514801, 
      "properties": {
        "woe:id": 12514801, 
        "href": "/125/148/01/12514801.json", 
        "name": "Kaedi Airport"
      }
    }, 
    {
      "geometry": {
        "type": "Point", 
        "coordinates": [
          -11.405300, 
          16.588900
        ]
      }, 
      "id": 12514802, 
      "properties": {
        "woe:id": 12514802, 
        "href": "/125/148/02/12514802.json", 
        "name": "Kiffa Airport"
      }
    }, 
    {
      "geometry": {
        "type": "Point", 
        "coordinates": [
          -17.028299, 
          20.934200
        ]
      }, 
      "id": 12514805, 
      "properties": {
        "woe:id": 12514805, 
        "href": "/125/148/05/12514805.json", 
        "name": "Nouadhibou Airport"
      }
    }, 
    {
      "geometry": {
        "type": "Point", 
        "coordinates": [
          -7.316700, 
          16.616699
        ]
      }, 
      "id": 12514804, 
      "properties": {
        "woe:id": 12514804, 
        "href": "/125/148/04/12514804.json", 
        "name": "Nema South Airport"
      }
    }, 
    {
      "geometry": {
        "type": "Point", 
        "coordinates": [
          -9.635600, 
          16.709200
        ]
      }, 
      "id": 12514799, 
      "properties": {
        "woe:id": 12514799, 
        "href": "/125/147/99/12514799.json", 
        "name": "Aioun El Atrouss Airport", 
        "iata:code": "AEO"
      }
    }
  ], 
  "properties": {
    "iso": "MR", 
    "woe:country": 23424896
  }
}