{
  "type": "FeatureCollection", 
  "features": [
    {
      "geometry": {
        "type": "Point", 
        "coordinates": [
          5.222750, 
          60.292068
        ]
      }, 
      "id": 23210056, 
      "properties": {
        "woe:id": 23210056, 
        "href": "/232/100/56/23210056.json", 
        "name": "Bergen Helikopter Lufthavn"
      }
    }, 
    {
      "geometry": {
        "type": "Point", 
        "coordinates": [
          8.756930, 
          63.698639
        ]
      }, 
      "id": 29329626, 
      "properties": {
        "woe:id": 29329626, 
        "href": "/293/296/26/29329626.json", 
        "name": "Fr\u00f8ya Flyplass"
      }
    }, 
    {
      "geometry": {
        "type": "Point", 
        "coordinates": [
          31.039730, 
          70.356499
        ]
      }, 
      "id": 12523953, 
      "properties": {
        "woe:id": 12523953, 
        "href": "/125/239/53/12523953.json", 
        "name": "Vard\u00f8 lufthavn Svartnes", 
        "iata:code": "VAW"
      }
    }, 
    {
      "geometry": {
        "type": "Point", 
        "coordinates": [
          13.217500, 
          65.784340
        ]
      }, 
      "id": 12523941, 
      "properties": {
        "woe:id": 12523941, 
        "href": "/125/239/41/12523941.json", 
        "name": "Mosj\u00f8en lufthavn Kj\u00e6rstad", 
        "iata:code": "MJF"
      }
    }, 
    {
      "geometry": {
        "type": "Point", 
        "coordinates": [
          7.136710, 
          61.158371
        ]
      }, 
      "id": 12523948, 
      "properties": {
        "woe:id": 12523948, 
        "href": "/125/239/48/12523948.json", 
        "name": "Sogndal lufthamn Hauk\u00e5sen", 
        "iata:code": "SOG"
      }
    }, 
    {
      "geometry": {
        "type": "Point", 
        "coordinates": [
          25.976431, 
          71.008858
        ]
      }, 
      "id": 12523938, 
      "properties": {
        "woe:id": 12523938, 
        "href": "/125/239/38/12523938.json", 
        "name": "Honningsv\u00e5g Lufthavn Valan"
      }
    }, 
    {
      "geometry": {
        "type": "Point", 
        "coordinates": [
          14.303390, 
          66.364906
        ]
      }, 
      "id": 12523942, 
      "properties": {
        "woe:id": 12523942, 
        "href": "/125/239/42/12523942.json", 
        "name": "Mo I Rana Lufthavn Rossvoll", 
        "iata:code": "MQN"
      }
    }, 
    {
      "geometry": {
        "type": "Point", 
        "coordinates": [
          9.059000, 
          60.788132
        ]
      }, 
      "id": 12523931, 
      "properties": {
        "woe:id": 12523931, 
        "href": "/125/239/31/12523931.json", 
        "name": "Gol flyplass Klanten", 
        "iata:code": "GLL"
      }
    }, 
    {
      "geometry": {
        "type": "Point", 
        "coordinates": [
          12.215000, 
          65.461769
        ]
      }, 
      "id": 12523928, 
      "properties": {
        "woe:id": 12523928, 
        "href": "/125/239/28/12523928.json", 
        "name": "Br\u00f8nn\u00f8ysund Lufthavn", 
        "iata:code": "BNN"
      }
    }, 
    {
      "geometry": {
        "type": "Point", 
        "coordinates": [
          11.100000, 
          60.799999
        ]
      }, 
      "id": 12523935, 
      "properties": {
        "woe:id": 12523935, 
        "href": "/125/239/35/12523935.json", 
        "name": "Hamar flyplass Stafsberg", 
        "iata:code": "HMR"
      }
    }, 
    {
      "geometry": {
        "type": "Point", 
        "coordinates": [
          13.615090, 
          68.153702
        ]
      }, 
      "id": 12523939, 
      "properties": {
        "woe:id": 12523939, 
        "href": "/125/239/39/12523939.json", 
        "name": "Leknes Lufthavn", 
        "iata:code": "LKN"
      }
    }, 
    {
      "geometry": {
        "type": "Point", 
        "coordinates": [
          27.829821, 
          71.027977
        ]
      }, 
      "id": 12523940, 
      "properties": {
        "woe:id": 12523940, 
        "href": "/125/239/40/12523940.json", 
        "name": "Mehamn lufthavn", 
        "iata:code": "MEH"
      }
    }, 
    {
      "geometry": {
        "type": "Point", 
        "coordinates": [
          29.028950, 
          70.869781
        ]
      }, 
      "id": 12523927, 
      "properties": {
        "woe:id": 12523927, 
        "href": "/125/239/27/12523927.json", 
        "name": "Berlev\u00e5g Lufthavn", 
        "iata:code": "BVG"
      }
    }, 
    {
      "geometry": {
        "type": "Point", 
        "coordinates": [
          12.677810, 
          67.690010
        ]
      }, 
      "id": 12523955, 
      "properties": {
        "woe:id": 12523955, 
        "href": "/125/239/55/12523955.json", 
        "name": "V\u00e6r\u00f8y flyplass", 
        "iata:code": "VRY"
      }
    }, 
    {
      "geometry": {
        "type": "Point", 
        "coordinates": [
          5.500000, 
          59.500000
        ]
      }, 
      "id": 12523950, 
      "properties": {
        "woe:id": 12523950, 
        "href": "/125/239/50/12523950.json", 
        "name": "Stord lufthavn S\u00f8rstokken", 
        "iata:code": "SRP"
      }
    }, 
    {
      "geometry": {
        "type": "Point", 
        "coordinates": [
          5.764680, 
          61.390831
        ]
      }, 
      "id": 12523930, 
      "properties": {
        "woe:id": 12523930, 
        "href": "/125/239/30/12523930.json", 
        "name": "F\u00f8rde lufthamn Bringeland"
      }
    }, 
    {
      "geometry": {
        "type": "Point", 
        "coordinates": [
          17.388710, 
          68.436279
        ]
      }, 
      "id": 12523943, 
      "properties": {
        "woe:id": 12523943, 
        "href": "/125/239/43/12523943.json", 
        "name": "Narvik lufthavn Framnes"
      }
    }, 
    {
      "geometry": {
        "type": "Point", 
        "coordinates": [
          11.144650, 
          64.839447
        ]
      }, 
      "id": 12523946, 
      "properties": {
        "woe:id": 12523946, 
        "href": "/125/239/46/12523946.json", 
        "name": "R\u00f8rvik lufthavn Ryum", 
        "iata:code": "RVK"
      }
    }, 
    {
      "geometry": {
        "type": "Point", 
        "coordinates": [
          5.023990, 
          61.590939
        ]
      }, 
      "id": 12523929, 
      "properties": {
        "woe:id": 12523929, 
        "href": "/125/239/29/12523929.json", 
        "name": "Flor\u00f8 Lufthavn"
      }
    }, 
    {
      "geometry": {
        "type": "Point", 
        "coordinates": [
          22.146130, 
          70.486198
        ]
      }, 
      "id": 12523933, 
      "properties": {
        "woe:id": 12523933, 
        "href": "/125/239/33/12523933.json", 
        "name": "Hasvik lufthavn", 
        "iata:code": "HAA"
      }
    }, 
    {
      "geometry": {
        "type": "Point", 
        "coordinates": [
          6.105880, 
          61.829182
        ]
      }, 
      "id": 12523947, 
      "properties": {
        "woe:id": 12523947, 
        "href": "/125/239/47/12523947.json", 
        "name": "Sandane lufthamn Anda"
      }
    }, 
    {
      "geometry": {
        "type": "Point", 
        "coordinates": [
          12.106070, 
          67.527069
        ]
      }, 
      "id": 12523945, 
      "properties": {
        "woe:id": 12523945, 
        "href": "/125/239/45/12523945.json", 
        "name": "R\u00f8st lufthavn", 
        "iata:code": "RET"
      }
    }, 
    {
      "geometry": {
        "type": "Point", 
        "coordinates": [
          14.666760, 
          68.245354
        ]
      }, 
      "id": 12523952, 
      "properties": {
        "woe:id": 12523952, 
        "href": "/125/239/52/12523952.json", 
        "name": "Svolv\u00e6r Lufthavn"
      }
    }, 
    {
      "geometry": {
        "type": "Point", 
        "coordinates": [
          12.476680, 
          65.959953
        ]
      }, 
      "id": 12523951, 
      "properties": {
        "woe:id": 12523951, 
        "href": "/125/239/51/12523951.json", 
        "name": "Sandnessj\u00f8en Lufthavn Stokka", 
        "iata:code": "SSJ"
      }
    }, 
    {
      "geometry": {
        "type": "Point", 
        "coordinates": [
          23.670170, 
          70.677916
        ]
      }, 
      "id": 12523934, 
      "properties": {
        "woe:id": 12523934, 
        "href": "/125/239/34/12523934.json", 
        "name": "Hammerfest Lufthavn"
      }
    }, 
    {
      "geometry": {
        "type": "Point", 
        "coordinates": [
          29.837170, 
          70.064034
        ]
      }, 
      "id": 12523954, 
      "properties": {
        "woe:id": 12523954, 
        "href": "/125/239/54/12523954.json", 
        "name": "Vads\u00f8 lufthavn", 
        "iata:code": "VDS"
      }
    }, 
    {
      "geometry": {
        "type": "Point", 
        "coordinates": [
          20.957439, 
          69.785294
        ]
      }, 
      "id": 12523949, 
      "properties": {
        "woe:id": 12523949, 
        "href": "/125/239/49/12523949.json", 
        "name": "S\u00f8rkjosen lufthavn", 
        "iata:code": "SOJ"
      }
    }, 
    {
      "geometry": {
        "type": "Point", 
        "coordinates": [
          29.693140, 
          70.602631
        ]
      }, 
      "id": 12523932, 
      "properties": {
        "woe:id": 12523932, 
        "href": "/125/239/32/12523932.json", 
        "name": "B\u00e5tsfjord Lufthavn", 
        "iata:code": "BJF"
      }
    }, 
    {
      "geometry": {
        "type": "Point", 
        "coordinates": [
          6.080210, 
          62.179810
        ]
      }, 
      "id": 12523936, 
      "properties": {
        "woe:id": 12523936, 
        "href": "/125/239/36/12523936.json", 
        "name": "\u00d6rsta Volda Lufthavn", 
        "iata:code": "HOV"
      }
    }, 
    {
      "geometry": {
        "type": "Point", 
        "coordinates": [
          11.570190, 
          64.472382
        ]
      }, 
      "id": 12523944, 
      "properties": {
        "woe:id": 12523944, 
        "href": "/125/239/44/12523944.json", 
        "name": "Namsos lufthavn", 
        "iata:code": "OSY"
      }
    }, 
    {
      "geometry": {
        "type": "Point", 
        "coordinates": [
          23.370960, 
          69.969980
        ]
      }, 
      "id": 12515099, 
      "properties": {
        "woe:id": 12515099, 
        "href": "/125/150/99/12515099.json", 
        "name": "Alta Lufthavn", 
        "iata:code": "ALF"
      }
    }, 
    {
      "geometry": {
        "type": "Point", 
        "coordinates": [
          9.293590, 
          61.006088
        ]
      }, 
      "id": 12515108, 
      "properties": {
        "woe:id": 12515108, 
        "href": "/125/151/08/12515108.json", 
        "name": "Fagernes Lufthavn Leirin", 
        "iata:code": "VDB"
      }
    }, 
    {
      "geometry": {
        "type": "Point", 
        "coordinates": [
          18.539980, 
          69.059479
        ]
      }, 
      "id": 12515103, 
      "properties": {
        "woe:id": 12515103, 
        "href": "/125/151/03/12515103.json", 
        "name": "Bardufoss Lufthavn", 
        "iata:code": "BDU"
      }
    }, 
    {
      "geometry": {
        "type": "Point", 
        "coordinates": [
          16.686991, 
          68.490593
        ]
      }, 
      "id": 12515107, 
      "properties": {
        "woe:id": 12515107, 
        "href": "/125/151/07/12515107.json", 
        "name": "Aeroporto de Harstad/narvik Evenes"
      }
    }, 
    {
      "geometry": {
        "type": "Point", 
        "coordinates": [
          14.993181, 
          68.573563
        ]
      }, 
      "id": 12515125, 
      "properties": {
        "woe:id": 12515125, 
        "href": "/125/151/25/12515125.json", 
        "name": "Stokmarknes Lufthavn", 
        "iata:code": "SKN"
      }
    }, 
    {
      "geometry": {
        "type": "Point", 
        "coordinates": [
          6.626400, 
          58.100800
        ]
      }, 
      "id": 12515115, 
      "properties": {
        "woe:id": 12515115, 
        "href": "/125/151/15/12515115.json", 
        "name": "Farsund lufthavn Lista"
      }
    }, 
    {
      "geometry": {
        "type": "Point", 
        "coordinates": [
          8.088900, 
          59.203098
        ]
      }, 
      "id": 12515109, 
      "properties": {
        "woe:id": 12515109, 
        "href": "/125/151/09/12515109.json", 
        "name": "Fyresdal Flyplass"
      }
    }, 
    {
      "geometry": {
        "type": "Point", 
        "coordinates": [
          11.094505, 
          60.193994
        ]
      }, 
      "id": 12515119, 
      "properties": {
        "woe:id": 12515119, 
        "href": "/125/151/19/12515119.json", 
        "name": "Oslo Lufthavn Gardermoen", 
        "iata:code": "OSL"
      }
    }, 
    {
      "geometry": {
        "type": "Point", 
        "coordinates": [
          11.041100, 
          59.970798
        ]
      }, 
      "id": 12515112, 
      "properties": {
        "woe:id": 12515112, 
        "href": "/125/151/12/12515112.json", 
        "name": "Kjeller flyplass"
      }
    }, 
    {
      "geometry": {
        "type": "Point", 
        "coordinates": [
          9.218800, 
          59.565941
        ]
      }, 
      "id": 12515116, 
      "properties": {
        "woe:id": 12515116, 
        "href": "/125/151/16/12515116.json", 
        "name": "Notodden Lufthavn"
      }
    }, 
    {
      "geometry": {
        "type": "Point", 
        "coordinates": [
          10.916690, 
          63.459158
        ]
      }, 
      "id": 12515128, 
      "properties": {
        "woe:id": 12515128, 
        "href": "/125/151/28/12515128.json", 
        "name": "Trondheim Lufthavn V\u00e6rnes", 
        "iata:code": "TRD"
      }
    }, 
    {
      "geometry": {
        "type": "Point", 
        "coordinates": [
          8.512780, 
          60.416672
        ]
      }, 
      "id": 12515106, 
      "properties": {
        "woe:id": 12515106, 
        "href": "/125/151/06/12515106.json", 
        "name": "Geilo Lufthavn", 
        "iata:code": "DLD"
      }
    }, 
    {
      "geometry": {
        "type": "Point", 
        "coordinates": [
          5.341210, 
          59.790192
        ]
      }, 
      "id": 12515123, 
      "properties": {
        "woe:id": 12515123, 
        "href": "/125/151/23/12515123.json", 
        "name": "S\u00f8rstokken Stord Lufthamn"
      }
    }, 
    {
      "geometry": {
        "type": "Point", 
        "coordinates": [
          5.383341, 
          58.808954
        ]
      }, 
      "id": 12515124, 
      "properties": {
        "woe:id": 12515124, 
        "href": "/125/151/24/12515124.json", 
        "name": "Stavanger Lufthavn S\u00f3la", 
        "iata:code": "SVG"
      }
    }, 
    {
      "geometry": {
        "type": "Point", 
        "coordinates": [
          10.255141, 
          59.180808
        ]
      }, 
      "id": 12515126, 
      "properties": {
        "woe:id": 12515126, 
        "href": "/125/151/26/12515126.json", 
        "name": "Sandfjord Lufthavn Torp", 
        "iata:code": "TRF"
      }
    }, 
    {
      "geometry": {
        "type": "Point", 
        "coordinates": [
          29.889891, 
          69.723633
        ]
      }, 
      "id": 12515111, 
      "properties": {
        "woe:id": 12515111, 
        "href": "/125/151/11/12515111.json", 
        "name": "Kirkenes lufthavn H\u00f8ybuktmoen", 
        "iata:code": "KKN"
      }
    }, 
    {
      "geometry": {
        "type": "Point", 
        "coordinates": [
          9.604630, 
          63.696041
        ]
      }, 
      "id": 12515117, 
      "properties": {
        "woe:id": 12515117, 
        "href": "/125/151/17/12515117.json", 
        "name": "\u00d8rland Lufthavn"
      }
    }, 
    {
      "geometry": {
        "type": "Point", 
        "coordinates": [
          18.844283, 
          69.673581
        ]
      }, 
      "id": 12515127, 
      "properties": {
        "woe:id": 12515127, 
        "href": "/125/151/27/12515127.json", 
        "name": "Troms\u00f8 lufthavn Langnes", 
        "iata:code": "TOS"
      }
    }, 
    {
      "geometry": {
        "type": "Point", 
        "coordinates": [
          16.134917, 
          69.304368
        ]
      }, 
      "id": 12515100, 
      "properties": {
        "woe:id": 12515100, 
        "href": "/125/151/00/12515100.json", 
        "name": "And\u00f8ya Flyplass Andenes", 
        "iata:code": "ANX"
      }
    }, 
    {
      "geometry": {
        "type": "Point", 
        "coordinates": [
          7.825957, 
          63.113085
        ]
      }, 
      "id": 12515114, 
      "properties": {
        "woe:id": 12515114, 
        "href": "/125/151/14/12515114.json", 
        "name": "Kristiansund lufthavn Kvernberget"
      }
    }, 
    {
      "geometry": {
        "type": "Point", 
        "coordinates": [
          7.258960, 
          62.746330
        ]
      }, 
      "id": 12515101, 
      "properties": {
        "woe:id": 12515101, 
        "href": "/125/151/01/12515101.json", 
        "name": "Molde Lufthavn \u00c5r\u00f8"
      }
    }, 
    {
      "geometry": {
        "type": "Point", 
        "coordinates": [
          6.502500, 
          60.638302
        ]
      }, 
      "id": 12515130, 
      "properties": {
        "woe:id": 12515130, 
        "href": "/125/151/30/12515130.json", 
        "name": "Voss flyplass B\u00f8moen"
      }
    }, 
    {
      "geometry": {
        "type": "Point", 
        "coordinates": [
          24.982571, 
          70.066322
        ]
      }, 
      "id": 12515102, 
      "properties": {
        "woe:id": 12515102, 
        "href": "/125/151/02/12515102.json", 
        "name": "Lakselv Lufthavn Banak"
      }
    }, 
    {
      "geometry": {
        "type": "Point", 
        "coordinates": [
          6.115380, 
          62.558270
        ]
      }, 
      "id": 12515129, 
      "properties": {
        "woe:id": 12515129, 
        "href": "/125/151/29/12515129.json", 
        "name": "\u00c5lesund Lufthavn Vigra", 
        "iata:code": "AES"
      }
    }, 
    {
      "geometry": {
        "type": "Point", 
        "coordinates": [
          11.355970, 
          62.575741
        ]
      }, 
      "id": 12515120, 
      "properties": {
        "woe:id": 12515120, 
        "href": "/125/151/20/12515120.json", 
        "name": "R\u00f8ros lufthavn", 
        "iata:code": "RRS"
      }
    }, 
    {
      "geometry": {
        "type": "Point", 
        "coordinates": [
          8.067232, 
          58.204784
        ]
      }, 
      "id": 12515113, 
      "properties": {
        "woe:id": 12515113, 
        "href": "/125/151/13/12515113.json", 
        "name": "Aeroporto de Kristiansand Kjevik", 
        "iata:code": "KRS"
      }
    }, 
    {
      "geometry": {
        "type": "Point", 
        "coordinates": [
          5.217570, 
          59.344292
        ]
      }, 
      "id": 12515110, 
      "properties": {
        "woe:id": 12515110, 
        "href": "/125/151/10/12515110.json", 
        "name": "Haugesund Lufthavn Karm\u00f8y"
      }
    }, 
    {
      "geometry": {
        "type": "Point", 
        "coordinates": [
          14.361720, 
          67.275810
        ]
      }, 
      "id": 12515105, 
      "properties": {
        "woe:id": 12515105, 
        "href": "/125/151/05/12515105.json", 
        "name": "Bod\u00f6 Lufthavn", 
        "iata:code": "BOO"
      }
    }, 
    {
      "geometry": {
        "type": "Point", 
        "coordinates": [
          5.227037, 
          60.291889
        ]
      }, 
      "id": 12515104, 
      "properties": {
        "woe:id": 12515104, 
        "href": "/125/151/04/12515104.json", 
        "name": "Bergen Lufthavn Flesland", 
        "iata:code": "BGO"
      }
    }, 
    {
      "geometry": {
        "type": "Point", 
        "coordinates": [
          10.782130, 
          59.375401
        ]
      }, 
      "id": 12515121, 
      "properties": {
        "woe:id": 12515121, 
        "href": "/125/151/21/12515121.json", 
        "name": "Moss lufthavn Rygge"
      }
    }, 
    {
      "geometry": {
        "type": "Point", 
        "coordinates": [
          9.569690, 
          59.184059
        ]
      }, 
      "id": 12515122, 
      "properties": {
        "woe:id": 12515122, 
        "href": "/125/151/22/12515122.json", 
        "name": "Skien Lufthavn Geiteryggen"
      }
    }
  ], 
  "properties": {
    "iso": "NO", 
    "woe:country": 23424910
  }
}