{
  "type": "FeatureCollection", 
  "features": [
    {
      "geometry": {
        "type": "Point", 
        "coordinates": [
          5.223, 
          60.292
        ]
      }, 
      "id": 23210056, 
      "properties": {
        "woe:id": 23210056, 
        "href": "/232/100/56/23210056.json", 
        "name": "Bergen Helikopter Lufthavn"
      }
    }, 
    {
      "geometry": {
        "type": "Point", 
        "coordinates": [
          8.757, 
          63.699
        ]
      }, 
      "id": 29329626, 
      "properties": {
        "woe:id": 29329626, 
        "href": "/293/296/26/29329626.json", 
        "name": "Fr\u00f8ya Flyplass"
      }
    }, 
    {
      "geometry": {
        "type": "Point", 
        "coordinates": [
          31.040, 
          70.356
        ]
      }, 
      "id": 12523953, 
      "properties": {
        "woe:id": 12523953, 
        "href": "/125/239/53/12523953.json", 
        "name": "Vard\u00f8 lufthavn Svartnes", 
        "iata:code": "VAW"
      }
    }, 
    {
      "geometry": {
        "type": "Point", 
        "coordinates": [
          13.217, 
          65.784
        ]
      }, 
      "id": 12523941, 
      "properties": {
        "woe:id": 12523941, 
        "href": "/125/239/41/12523941.json", 
        "name": "Mosj\u00f8en lufthavn Kj\u00e6rstad", 
        "iata:code": "MJF"
      }
    }, 
    {
      "geometry": {
        "type": "Point", 
        "coordinates": [
          7.137, 
          61.158
        ]
      }, 
      "id": 12523948, 
      "properties": {
        "woe:id": 12523948, 
        "href": "/125/239/48/12523948.json", 
        "name": "Sogndal lufthamn Hauk\u00e5sen", 
        "iata:code": "SOG"
      }
    }, 
    {
      "geometry": {
        "type": "Point", 
        "coordinates": [
          25.976, 
          71.009
        ]
      }, 
      "id": 12523938, 
      "properties": {
        "woe:id": 12523938, 
        "href": "/125/239/38/12523938.json", 
        "name": "Honningsv\u00e5g Lufthavn Valan"
      }
    }, 
    {
      "geometry": {
        "type": "Point", 
        "coordinates": [
          14.303, 
          66.365
        ]
      }, 
      "id": 12523942, 
      "properties": {
        "woe:id": 12523942, 
        "href": "/125/239/42/12523942.json", 
        "name": "Mo I Rana Lufthavn Rossvoll", 
        "iata:code": "MQN"
      }
    }, 
    {
      "geometry": {
        "type": "Point", 
        "coordinates": [
          9.059, 
          60.788
        ]
      }, 
      "id": 12523931, 
      "properties": {
        "woe:id": 12523931, 
        "href": "/125/239/31/12523931.json", 
        "name": "Gol flyplass Klanten", 
        "iata:code": "GLL"
      }
    }, 
    {
      "geometry": {
        "type": "Point", 
        "coordinates": [
          12.215, 
          65.462
        ]
      }, 
      "id": 12523928, 
      "properties": {
        "woe:id": 12523928, 
        "href": "/125/239/28/12523928.json", 
        "name": "Br\u00f8nn\u00f8ysund Lufthavn", 
        "iata:code": "BNN"
      }
    }, 
    {
      "geometry": {
        "type": "Point", 
        "coordinates": [
          11.100, 
          60.800
        ]
      }, 
      "id": 12523935, 
      "properties": {
        "woe:id": 12523935, 
        "href": "/125/239/35/12523935.json", 
        "name": "Hamar flyplass Stafsberg", 
        "iata:code": "HMR"
      }
    }, 
    {
      "geometry": {
        "type": "Point", 
        "coordinates": [
          13.615, 
          68.154
        ]
      }, 
      "id": 12523939, 
      "properties": {
        "woe:id": 12523939, 
        "href": "/125/239/39/12523939.json", 
        "name": "Leknes Lufthavn", 
        "iata:code": "LKN"
      }
    }, 
    {
      "geometry": {
        "type": "Point", 
        "coordinates": [
          27.830, 
          71.028
        ]
      }, 
      "id": 12523940, 
      "properties": {
        "woe:id": 12523940, 
        "href": "/125/239/40/12523940.json", 
        "name": "Mehamn lufthavn", 
        "iata:code": "MEH"
      }
    }, 
    {
      "geometry": {
        "type": "Point", 
        "coordinates": [
          29.029, 
          70.870
        ]
      }, 
      "id": 12523927, 
      "properties": {
        "woe:id": 12523927, 
        "href": "/125/239/27/12523927.json", 
        "name": "Berlev\u00e5g Lufthavn", 
        "iata:code": "BVG"
      }
    }, 
    {
      "geometry": {
        "type": "Point", 
        "coordinates": [
          12.678, 
          67.690
        ]
      }, 
      "id": 12523955, 
      "properties": {
        "woe:id": 12523955, 
        "href": "/125/239/55/12523955.json", 
        "name": "V\u00e6r\u00f8y flyplass", 
        "iata:code": "VRY"
      }
    }, 
    {
      "geometry": {
        "type": "Point", 
        "coordinates": [
          5.500, 
          59.500
        ]
      }, 
      "id": 12523950, 
      "properties": {
        "woe:id": 12523950, 
        "href": "/125/239/50/12523950.json", 
        "name": "Stord lufthavn S\u00f8rstokken", 
        "iata:code": "SRP"
      }
    }, 
    {
      "geometry": {
        "type": "Point", 
        "coordinates": [
          5.765, 
          61.391
        ]
      }, 
      "id": 12523930, 
      "properties": {
        "woe:id": 12523930, 
        "href": "/125/239/30/12523930.json", 
        "name": "F\u00f8rde lufthamn Bringeland"
      }
    }, 
    {
      "geometry": {
        "type": "Point", 
        "coordinates": [
          17.389, 
          68.436
        ]
      }, 
      "id": 12523943, 
      "properties": {
        "woe:id": 12523943, 
        "href": "/125/239/43/12523943.json", 
        "name": "Narvik lufthavn Framnes"
      }
    }, 
    {
      "geometry": {
        "type": "Point", 
        "coordinates": [
          11.145, 
          64.839
        ]
      }, 
      "id": 12523946, 
      "properties": {
        "woe:id": 12523946, 
        "href": "/125/239/46/12523946.json", 
        "name": "R\u00f8rvik lufthavn Ryum", 
        "iata:code": "RVK"
      }
    }, 
    {
      "geometry": {
        "type": "Point", 
        "coordinates": [
          5.024, 
          61.591
        ]
      }, 
      "id": 12523929, 
      "properties": {
        "woe:id": 12523929, 
        "href": "/125/239/29/12523929.json", 
        "name": "Flor\u00f8 Lufthavn"
      }
    }, 
    {
      "geometry": {
        "type": "Point", 
        "coordinates": [
          22.146, 
          70.486
        ]
      }, 
      "id": 12523933, 
      "properties": {
        "woe:id": 12523933, 
        "href": "/125/239/33/12523933.json", 
        "name": "Hasvik lufthavn", 
        "iata:code": "HAA"
      }
    }, 
    {
      "geometry": {
        "type": "Point", 
        "coordinates": [
          6.106, 
          61.829
        ]
      }, 
      "id": 12523947, 
      "properties": {
        "woe:id": 12523947, 
        "href": "/125/239/47/12523947.json", 
        "name": "Sandane lufthamn Anda"
      }
    }, 
    {
      "geometry": {
        "type": "Point", 
        "coordinates": [
          12.106, 
          67.527
        ]
      }, 
      "id": 12523945, 
      "properties": {
        "woe:id": 12523945, 
        "href": "/125/239/45/12523945.json", 
        "name": "R\u00f8st lufthavn", 
        "iata:code": "RET"
      }
    }, 
    {
      "geometry": {
        "type": "Point", 
        "coordinates": [
          14.667, 
          68.245
        ]
      }, 
      "id": 12523952, 
      "properties": {
        "woe:id": 12523952, 
        "href": "/125/239/52/12523952.json", 
        "name": "Svolv\u00e6r Lufthavn"
      }
    }, 
    {
      "geometry": {
        "type": "Point", 
        "coordinates": [
          12.477, 
          65.960
        ]
      }, 
      "id": 12523951, 
      "properties": {
        "woe:id": 12523951, 
        "href": "/125/239/51/12523951.json", 
        "name": "Sandnessj\u00f8en Lufthavn Stokka", 
        "iata:code": "SSJ"
      }
    }, 
    {
      "geometry": {
        "type": "Point", 
        "coordinates": [
          23.670, 
          70.678
        ]
      }, 
      "id": 12523934, 
      "properties": {
        "woe:id": 12523934, 
        "href": "/125/239/34/12523934.json", 
        "name": "Hammerfest Lufthavn"
      }
    }, 
    {
      "geometry": {
        "type": "Point", 
        "coordinates": [
          29.837, 
          70.064
        ]
      }, 
      "id": 12523954, 
      "properties": {
        "woe:id": 12523954, 
        "href": "/125/239/54/12523954.json", 
        "name": "Vads\u00f8 lufthavn", 
        "iata:code": "VDS"
      }
    }, 
    {
      "geometry": {
        "type": "Point", 
        "coordinates": [
          20.957, 
          69.785
        ]
      }, 
      "id": 12523949, 
      "properties": {
        "woe:id": 12523949, 
        "href": "/125/239/49/12523949.json", 
        "name": "S\u00f8rkjosen lufthavn", 
        "iata:code": "SOJ"
      }
    }, 
    {
      "geometry": {
        "type": "Point", 
        "coordinates": [
          29.693, 
          70.603
        ]
      }, 
      "id": 12523932, 
      "properties": {
        "woe:id": 12523932, 
        "href": "/125/239/32/12523932.json", 
        "name": "B\u00e5tsfjord Lufthavn", 
        "iata:code": "BJF"
      }
    }, 
    {
      "geometry": {
        "type": "Point", 
        "coordinates": [
          6.080, 
          62.180
        ]
      }, 
      "id": 12523936, 
      "properties": {
        "woe:id": 12523936, 
        "href": "/125/239/36/12523936.json", 
        "name": "\u00d6rsta Volda Lufthavn", 
        "iata:code": "HOV"
      }
    }, 
    {
      "geometry": {
        "type": "Point", 
        "coordinates": [
          11.570, 
          64.472
        ]
      }, 
      "id": 12523944, 
      "properties": {
        "woe:id": 12523944, 
        "href": "/125/239/44/12523944.json", 
        "name": "Namsos lufthavn", 
        "iata:code": "OSY"
      }
    }, 
    {
      "geometry": {
        "type": "Point", 
        "coordinates": [
          23.371, 
          69.970
        ]
      }, 
      "id": 12515099, 
      "properties": {
        "woe:id": 12515099, 
        "href": "/125/150/99/12515099.json", 
        "name": "Alta Lufthavn", 
        "iata:code": "ALF"
      }
    }, 
    {
      "geometry": {
        "type": "Point", 
        "coordinates": [
          9.294, 
          61.006
        ]
      }, 
      "id": 12515108, 
      "properties": {
        "woe:id": 12515108, 
        "href": "/125/151/08/12515108.json", 
        "name": "Fagernes Lufthavn Leirin", 
        "iata:code": "VDB"
      }
    }, 
    {
      "geometry": {
        "type": "Point", 
        "coordinates": [
          18.540, 
          69.059
        ]
      }, 
      "id": 12515103, 
      "properties": {
        "woe:id": 12515103, 
        "href": "/125/151/03/12515103.json", 
        "name": "Bardufoss Lufthavn", 
        "iata:code": "BDU"
      }
    }, 
    {
      "geometry": {
        "type": "Point", 
        "coordinates": [
          16.687, 
          68.491
        ]
      }, 
      "id": 12515107, 
      "properties": {
        "woe:id": 12515107, 
        "href": "/125/151/07/12515107.json", 
        "name": "Aeroporto de Harstad/narvik Evenes"
      }
    }, 
    {
      "geometry": {
        "type": "Point", 
        "coordinates": [
          14.993, 
          68.574
        ]
      }, 
      "id": 12515125, 
      "properties": {
        "woe:id": 12515125, 
        "href": "/125/151/25/12515125.json", 
        "name": "Stokmarknes Lufthavn", 
        "iata:code": "SKN"
      }
    }, 
    {
      "geometry": {
        "type": "Point", 
        "coordinates": [
          6.626, 
          58.101
        ]
      }, 
      "id": 12515115, 
      "properties": {
        "woe:id": 12515115, 
        "href": "/125/151/15/12515115.json", 
        "name": "Farsund lufthavn Lista"
      }
    }, 
    {
      "geometry": {
        "type": "Point", 
        "coordinates": [
          8.089, 
          59.203
        ]
      }, 
      "id": 12515109, 
      "properties": {
        "woe:id": 12515109, 
        "href": "/125/151/09/12515109.json", 
        "name": "Fyresdal Flyplass"
      }
    }, 
    {
      "geometry": {
        "type": "Point", 
        "coordinates": [
          11.095, 
          60.194
        ]
      }, 
      "id": 12515119, 
      "properties": {
        "woe:id": 12515119, 
        "href": "/125/151/19/12515119.json", 
        "name": "Oslo Lufthavn Gardermoen", 
        "iata:code": "OSL"
      }
    }, 
    {
      "geometry": {
        "type": "Point", 
        "coordinates": [
          11.041, 
          59.971
        ]
      }, 
      "id": 12515112, 
      "properties": {
        "woe:id": 12515112, 
        "href": "/125/151/12/12515112.json", 
        "name": "Kjeller flyplass"
      }
    }, 
    {
      "geometry": {
        "type": "Point", 
        "coordinates": [
          9.219, 
          59.566
        ]
      }, 
      "id": 12515116, 
      "properties": {
        "woe:id": 12515116, 
        "href": "/125/151/16/12515116.json", 
        "name": "Notodden Lufthavn"
      }
    }, 
    {
      "geometry": {
        "type": "Point", 
        "coordinates": [
          10.917, 
          63.459
        ]
      }, 
      "id": 12515128, 
      "properties": {
        "woe:id": 12515128, 
        "href": "/125/151/28/12515128.json", 
        "name": "Trondheim Lufthavn V\u00e6rnes", 
        "iata:code": "TRD"
      }
    }, 
    {
      "geometry": {
        "type": "Point", 
        "coordinates": [
          8.513, 
          60.417
        ]
      }, 
      "id": 12515106, 
      "properties": {
        "woe:id": 12515106, 
        "href": "/125/151/06/12515106.json", 
        "name": "Geilo Lufthavn", 
        "iata:code": "DLD"
      }
    }, 
    {
      "geometry": {
        "type": "Point", 
        "coordinates": [
          5.341, 
          59.790
        ]
      }, 
      "id": 12515123, 
      "properties": {
        "woe:id": 12515123, 
        "href": "/125/151/23/12515123.json", 
        "name": "S\u00f8rstokken Stord Lufthamn"
      }
    }, 
    {
      "geometry": {
        "type": "Point", 
        "coordinates": [
          5.383, 
          58.809
        ]
      }, 
      "id": 12515124, 
      "properties": {
        "woe:id": 12515124, 
        "href": "/125/151/24/12515124.json", 
        "name": "Stavanger Lufthavn S\u00f3la", 
        "iata:code": "SVG"
      }
    }, 
    {
      "geometry": {
        "type": "Point", 
        "coordinates": [
          10.255, 
          59.181
        ]
      }, 
      "id": 12515126, 
      "properties": {
        "woe:id": 12515126, 
        "href": "/125/151/26/12515126.json", 
        "name": "Sandfjord Lufthavn Torp", 
        "iata:code": "TRF"
      }
    }, 
    {
      "geometry": {
        "type": "Point", 
        "coordinates": [
          29.890, 
          69.724
        ]
      }, 
      "id": 12515111, 
      "properties": {
        "woe:id": 12515111, 
        "href": "/125/151/11/12515111.json", 
        "name": "Kirkenes lufthavn H\u00f8ybuktmoen", 
        "iata:code": "KKN"
      }
    }, 
    {
      "geometry": {
        "type": "Point", 
        "coordinates": [
          9.605, 
          63.696
        ]
      }, 
      "id": 12515117, 
      "properties": {
        "woe:id": 12515117, 
        "href": "/125/151/17/12515117.json", 
        "name": "\u00d8rland Lufthavn"
      }
    }, 
    {
      "geometry": {
        "type": "Point", 
        "coordinates": [
          18.844, 
          69.674
        ]
      }, 
      "id": 12515127, 
      "properties": {
        "woe:id": 12515127, 
        "href": "/125/151/27/12515127.json", 
        "name": "Troms\u00f8 lufthavn Langnes", 
        "iata:code": "TOS"
      }
    }, 
    {
      "geometry": {
        "type": "Point", 
        "coordinates": [
          16.135, 
          69.304
        ]
      }, 
      "id": 12515100, 
      "properties": {
        "woe:id": 12515100, 
        "href": "/125/151/00/12515100.json", 
        "name": "And\u00f8ya Flyplass Andenes", 
        "iata:code": "ANX"
      }
    }, 
    {
      "geometry": {
        "type": "Point", 
        "coordinates": [
          7.826, 
          63.113
        ]
      }, 
      "id": 12515114, 
      "properties": {
        "woe:id": 12515114, 
        "href": "/125/151/14/12515114.json", 
        "name": "Kristiansund lufthavn Kvernberget"
      }
    }, 
    {
      "geometry": {
        "type": "Point", 
        "coordinates": [
          7.259, 
          62.746
        ]
      }, 
      "id": 12515101, 
      "properties": {
        "woe:id": 12515101, 
        "href": "/125/151/01/12515101.json", 
        "name": "Molde Lufthavn \u00c5r\u00f8"
      }
    }, 
    {
      "geometry": {
        "type": "Point", 
        "coordinates": [
          6.503, 
          60.638
        ]
      }, 
      "id": 12515130, 
      "properties": {
        "woe:id": 12515130, 
        "href": "/125/151/30/12515130.json", 
        "name": "Voss flyplass B\u00f8moen"
      }
    }, 
    {
      "geometry": {
        "type": "Point", 
        "coordinates": [
          24.983, 
          70.066
        ]
      }, 
      "id": 12515102, 
      "properties": {
        "woe:id": 12515102, 
        "href": "/125/151/02/12515102.json", 
        "name": "Lakselv Lufthavn Banak"
      }
    }, 
    {
      "geometry": {
        "type": "Point", 
        "coordinates": [
          6.115, 
          62.558
        ]
      }, 
      "id": 12515129, 
      "properties": {
        "woe:id": 12515129, 
        "href": "/125/151/29/12515129.json", 
        "name": "\u00c5lesund Lufthavn Vigra", 
        "iata:code": "AES"
      }
    }, 
    {
      "geometry": {
        "type": "Point", 
        "coordinates": [
          11.356, 
          62.576
        ]
      }, 
      "id": 12515120, 
      "properties": {
        "woe:id": 12515120, 
        "href": "/125/151/20/12515120.json", 
        "name": "R\u00f8ros lufthavn", 
        "iata:code": "RRS"
      }
    }, 
    {
      "geometry": {
        "type": "Point", 
        "coordinates": [
          8.067, 
          58.205
        ]
      }, 
      "id": 12515113, 
      "properties": {
        "woe:id": 12515113, 
        "href": "/125/151/13/12515113.json", 
        "name": "Aeroporto de Kristiansand Kjevik", 
        "iata:code": "KRS"
      }
    }, 
    {
      "geometry": {
        "type": "Point", 
        "coordinates": [
          5.218, 
          59.344
        ]
      }, 
      "id": 12515110, 
      "properties": {
        "woe:id": 12515110, 
        "href": "/125/151/10/12515110.json", 
        "name": "Haugesund Lufthavn Karm\u00f8y"
      }
    }, 
    {
      "geometry": {
        "type": "Point", 
        "coordinates": [
          14.362, 
          67.276
        ]
      }, 
      "id": 12515105, 
      "properties": {
        "woe:id": 12515105, 
        "href": "/125/151/05/12515105.json", 
        "name": "Bod\u00f6 Lufthavn", 
        "iata:code": "BOO"
      }
    }, 
    {
      "geometry": {
        "type": "Point", 
        "coordinates": [
          5.227, 
          60.292
        ]
      }, 
      "id": 12515104, 
      "properties": {
        "woe:id": 12515104, 
        "href": "/125/151/04/12515104.json", 
        "name": "Bergen Lufthavn Flesland", 
        "iata:code": "BGO"
      }
    }, 
    {
      "geometry": {
        "type": "Point", 
        "coordinates": [
          10.782, 
          59.375
        ]
      }, 
      "id": 12515121, 
      "properties": {
        "woe:id": 12515121, 
        "href": "/125/151/21/12515121.json", 
        "name": "Moss lufthavn Rygge"
      }
    }, 
    {
      "geometry": {
        "type": "Point", 
        "coordinates": [
          9.570, 
          59.184
        ]
      }, 
      "id": 12515122, 
      "properties": {
        "woe:id": 12515122, 
        "href": "/125/151/22/12515122.json", 
        "name": "Skien Lufthavn Geiteryggen"
      }
    }
  ], 
  "properties": {
    "iso": "NO", 
    "woe:country": 23424910
  }
}