{
  "type": "FeatureCollection", 
  "features": [
    {
      "geometry": {
        "type": "Point", 
        "coordinates": [
          56.235, 
          26.164
        ]
      }, 
      "id": 12514809, 
      "properties": {
        "woe:id": 12514809, 
        "href": "/125/148/09/12514809.json", 
        "name": "Khasab Airport", 
        "iata:code": "KHS"
      }
    }, 
    {
      "geometry": {
        "type": "Point", 
        "coordinates": [
          54.107, 
          17.038
        ]
      }, 
      "id": 12514812, 
      "properties": {
        "woe:id": 12514812, 
        "href": "/125/148/12/12514812.json", 
        "name": "Salalah Airport", 
        "iata:code": "SLL"
      }
    }, 
    {
      "geometry": {
        "type": "Point", 
        "coordinates": [
          58.891, 
          20.676
        ]
      }, 
      "id": 12514811, 
      "properties": {
        "woe:id": 12514811, 
        "href": "/125/148/11/12514811.json", 
        "name": "Masirah Airport"
      }
    }, 
    {
      "geometry": {
        "type": "Point", 
        "coordinates": [
          54.024, 
          17.666
        ]
      }, 
      "id": 12514814, 
      "properties": {
        "woe:id": 12514814, 
        "href": "/125/148/14/12514814.json", 
        "name": "Thumrait Airport"
      }
    }, 
    {
      "geometry": {
        "type": "Point", 
        "coordinates": [
          58.291, 
          23.587
        ]
      }, 
      "id": 12514813, 
      "properties": {
        "woe:id": 12514813, 
        "href": "/125/148/13/12514813.json", 
        "name": "Seeb International Airport", 
        "iata:code": "MCT"
      }
    }, 
    {
      "geometry": {
        "type": "Point", 
        "coordinates": [
          53.358, 
          16.992
        ]
      }, 
      "id": 12514810, 
      "properties": {
        "woe:id": 12514810, 
        "href": "/125/148/10/12514810.json", 
        "name": "Manston Airport"
      }
    }
  ], 
  "properties": {
    "woe:id": 23424898, 
    "iso": "OM"
  }
}