{
  "type": "FeatureCollection", 
  "features": [
    {
      "geometry": {
        "type": "Point", 
        "coordinates": [
          56.235180, 
          26.163820
        ]
      }, 
      "id": 12514809, 
      "properties": {
        "woe:id": 12514809, 
        "href": "/125/148/09/12514809.json", 
        "name": "Khasab Airport", 
        "iata:code": "KHS"
      }
    }, 
    {
      "geometry": {
        "type": "Point", 
        "coordinates": [
          54.106838, 
          17.038151
        ]
      }, 
      "id": 12514812, 
      "properties": {
        "woe:id": 12514812, 
        "href": "/125/148/12/12514812.json", 
        "name": "Salalah Airport", 
        "iata:code": "SLL"
      }
    }, 
    {
      "geometry": {
        "type": "Point", 
        "coordinates": [
          58.890598, 
          20.675800
        ]
      }, 
      "id": 12514811, 
      "properties": {
        "woe:id": 12514811, 
        "href": "/125/148/11/12514811.json", 
        "name": "Masirah Airport"
      }
    }, 
    {
      "geometry": {
        "type": "Point", 
        "coordinates": [
          54.023899, 
          17.665800
        ]
      }, 
      "id": 12514814, 
      "properties": {
        "woe:id": 12514814, 
        "href": "/125/148/14/12514814.json", 
        "name": "Thumrait Airport"
      }
    }, 
    {
      "geometry": {
        "type": "Point", 
        "coordinates": [
          58.290699, 
          23.586910
        ]
      }, 
      "id": 12514813, 
      "properties": {
        "woe:id": 12514813, 
        "href": "/125/148/13/12514813.json", 
        "name": "Seeb International Airport", 
        "iata:code": "MCT"
      }
    }, 
    {
      "geometry": {
        "type": "Point", 
        "coordinates": [
          53.358299, 
          16.991699
        ]
      }, 
      "id": 12514810, 
      "properties": {
        "woe:id": 12514810, 
        "href": "/125/148/10/12514810.json", 
        "name": "Manston Airport"
      }
    }
  ], 
  "properties": {
    "iso": "OM", 
    "woe:country": 23424898
  }
}