{
  "type": "FeatureCollection", 
  "features": [
    {
      "geometry": {
        "type": "Point", 
        "coordinates": [
          -151.466675, 
          -16.716669
        ]
      }, 
      "id": 12523210, 
      "properties": {
        "woe:id": 12523210, 
        "href": "/125/232/10/12523210.json", 
        "name": "Raiatea Island Airport", 
        "iata:code": "RFP"
      }
    }, 
    {
      "geometry": {
        "type": "Point", 
        "coordinates": [
          -151.766663, 
          -16.450001
        ]
      }, 
      "id": 12523077, 
      "properties": {
        "woe:id": 12523077, 
        "href": "/125/230/77/12523077.json", 
        "name": "Motu-Mute Airport", 
        "iata:code": "BOB"
      }
    }, 
    {
      "geometry": {
        "type": "Point", 
        "coordinates": [
          -139.014694, 
          -9.771900
        ]
      }, 
      "id": 12523068, 
      "properties": {
        "woe:id": 12523068, 
        "href": "/125/230/68/12523068.json", 
        "name": "Atuona Airport", 
        "iata:code": "AUQ"
      }
    }, 
    {
      "geometry": {
        "type": "Point", 
        "coordinates": [
          -146.068207, 
          -14.425200
        ]
      }, 
      "id": 12512825, 
      "properties": {
        "woe:id": 12512825, 
        "href": "/125/128/25/12512825.json", 
        "name": "Manihi Airport", 
        "iata:code": "XMH"
      }
    }, 
    {
      "geometry": {
        "type": "Point", 
        "coordinates": [
          -145.494400, 
          -17.359501
        ]
      }, 
      "id": 12512819, 
      "properties": {
        "woe:id": 12512819, 
        "href": "/125/128/19/12512819.json", 
        "name": "Anaa Airport", 
        "iata:code": "AAA"
      }
    }, 
    {
      "geometry": {
        "type": "Point", 
        "coordinates": [
          -149.838699, 
          -17.532801
        ]
      }, 
      "id": 12512831, 
      "properties": {
        "woe:id": 12512831, 
        "href": "/125/128/31/12512831.json", 
        "name": "Society Islands Airport"
      }
    }, 
    {
      "geometry": {
        "type": "Point", 
        "coordinates": [
          -147.649094, 
          -14.951600
        ]
      }, 
      "id": 12512828, 
      "properties": {
        "woe:id": 12512828, 
        "href": "/125/128/28/12512828.json", 
        "name": "Rangiroa Airport", 
        "iata:code": "RGI"
      }
    }, 
    {
      "geometry": {
        "type": "Point", 
        "coordinates": [
          -151.019196, 
          -16.686701
        ]
      }, 
      "id": 12512823, 
      "properties": {
        "woe:id": 12512823, 
        "href": "/125/128/23/12512823.json", 
        "name": "Huahine Airport", 
        "iata:code": "HUH"
      }
    }, 
    {
      "geometry": {
        "type": "Point", 
        "coordinates": [
          -148.232498, 
          -15.119700
        ]
      }, 
      "id": 12512835, 
      "properties": {
        "woe:id": 12512835, 
        "href": "/125/128/35/12512835.json", 
        "name": "Tikehau Airport"
      }
    }, 
    {
      "geometry": {
        "type": "Point", 
        "coordinates": [
          -143.661697, 
          -16.597799
        ]
      }, 
      "id": 12512824, 
      "properties": {
        "woe:id": 12512824, 
        "href": "/125/128/24/12512824.json", 
        "name": "Makemo Airport", 
        "iata:code": "MKP"
      }
    }, 
    {
      "geometry": {
        "type": "Point", 
        "coordinates": [
          -140.107895, 
          -8.890500
        ]
      }, 
      "id": 12512826, 
      "properties": {
        "woe:id": 12512826, 
        "href": "/125/128/26/12512826.json", 
        "name": "Marquesas Islands Airport"
      }
    }, 
    {
      "geometry": {
        "type": "Point", 
        "coordinates": [
          -140.196304, 
          -8.818000
        ]
      }, 
      "id": 12512827, 
      "properties": {
        "woe:id": 12512827, 
        "href": "/125/128/27/12512827.json", 
        "name": "Nuku Hiva Airport"
      }
    }, 
    {
      "geometry": {
        "type": "Point", 
        "coordinates": [
          -152.280396, 
          -16.431101
        ]
      }, 
      "id": 12512830, 
      "properties": {
        "woe:id": 12512830, 
        "href": "/125/128/30/12512830.json", 
        "name": "Society Islands Airport", 
        "iata:code": "MAU"
      }
    }, 
    {
      "geometry": {
        "type": "Point", 
        "coordinates": [
          -151.364304, 
          -22.439400
        ]
      }, 
      "id": 12512829, 
      "properties": {
        "woe:id": 12512829, 
        "href": "/125/128/29/12512829.json", 
        "name": "Rurutu Airport"
      }
    }, 
    {
      "geometry": {
        "type": "Point", 
        "coordinates": [
          -145.026001, 
          -14.446200
        ]
      }, 
      "id": 12512833, 
      "properties": {
        "woe:id": 12512833, 
        "href": "/125/128/33/12512833.json", 
        "name": "Takaroa Airport"
      }
    }, 
    {
      "geometry": {
        "type": "Point", 
        "coordinates": [
          -149.762802, 
          -17.490299
        ]
      }, 
      "id": 12512834, 
      "properties": {
        "woe:id": 12512834, 
        "href": "/125/128/34/12512834.json", 
        "name": "Temae Airport"
      }
    }, 
    {
      "geometry": {
        "type": "Point", 
        "coordinates": [
          -151.750000, 
          -16.500000
        ]
      }, 
      "id": 12512821, 
      "properties": {
        "woe:id": 12512821, 
        "href": "/125/128/21/12512821.json", 
        "name": "Bora Bora Airport"
      }
    }, 
    {
      "geometry": {
        "type": "Point", 
        "coordinates": [
          -149.614572, 
          -17.565277
        ]
      }, 
      "id": 12512832, 
      "properties": {
        "woe:id": 12512832, 
        "href": "/125/128/32/12512832.json", 
        "name": "Tahiti Faaa Airport", 
        "iata:code": "PPT"
      }
    }, 
    {
      "geometry": {
        "type": "Point", 
        "coordinates": [
          -151.464203, 
          -16.723301
        ]
      }, 
      "id": 12512836, 
      "properties": {
        "woe:id": 12512836, 
        "href": "/125/128/36/12512836.json", 
        "name": "Uturoa Airport"
      }
    }, 
    {
      "geometry": {
        "type": "Point", 
        "coordinates": [
          -140.945602, 
          -18.075300
        ]
      }, 
      "id": 12512822, 
      "properties": {
        "woe:id": 12512822, 
        "href": "/125/128/22/12512822.json", 
        "name": "Hao Airport"
      }
    }
  ], 
  "properties": {
    "iso": "PF", 
    "woe:country": 23424817
  }
}