{
  "type": "FeatureCollection", 
  "features": [
    {
      "geometry": {
        "type": "Point", 
        "coordinates": [
          73.509399, 
          34.337799
        ]
      }, 
      "id": 12515253, 
      "properties": {
        "woe:id": 12515253, 
        "href": "/125/152/53/12515253.json", 
        "name": "Muzaffarabad Airport", 
        "iata:code": "MFG"
      }
    }, 
    {
      "geometry": {
        "type": "Point", 
        "coordinates": [
          67.151779, 
          24.898390
        ]
      }, 
      "id": 12515241, 
      "properties": {
        "woe:id": 12515241, 
        "href": "/125/152/41/12515241.json", 
        "name": "Karachi Civil Airport"
      }
    }, 
    {
      "geometry": {
        "type": "Point", 
        "coordinates": [
          71.572800, 
          32.562500
        ]
      }, 
      "id": 12515248, 
      "properties": {
        "woe:id": 12515248, 
        "href": "/125/152/48/12515248.json", 
        "name": "Mianwali Airport", 
        "iata:code": "MWD"
      }
    }, 
    {
      "geometry": {
        "type": "Point", 
        "coordinates": [
          73.096703, 
          33.614700
        ]
      }, 
      "id": 12515238, 
      "properties": {
        "woe:id": 12515238, 
        "href": "/125/152/38/12515238.json", 
        "name": "Islamabad International Airport", 
        "iata:code": "ISB"
      }
    }, 
    {
      "geometry": {
        "type": "Point", 
        "coordinates": [
          73.033302, 
          33.563301
        ]
      }, 
      "id": 12515259, 
      "properties": {
        "woe:id": 12515259, 
        "href": "/125/152/59/12515259.json", 
        "name": "Qasim Airport"
      }
    }, 
    {
      "geometry": {
        "type": "Point", 
        "coordinates": [
          66.645798, 
          27.793100
        ]
      }, 
      "id": 12515242, 
      "properties": {
        "woe:id": 12515242, 
        "href": "/125/152/42/12515242.json", 
        "name": "Khuzdar Airport"
      }
    }, 
    {
      "geometry": {
        "type": "Point", 
        "coordinates": [
          71.712502, 
          29.344400
        ]
      }, 
      "id": 12515225, 
      "properties": {
        "woe:id": 12515225, 
        "href": "/125/152/25/12515225.json", 
        "name": "Bahawalpur Airport", 
        "iata:code": "BHV"
      }
    }, 
    {
      "geometry": {
        "type": "Point", 
        "coordinates": [
          69.571701, 
          32.305599
        ]
      }, 
      "id": 12515276, 
      "properties": {
        "woe:id": 12515276, 
        "href": "/125/152/76/12515276.json", 
        "name": "Wana Airport"
      }
    }, 
    {
      "geometry": {
        "type": "Point", 
        "coordinates": [
          71.981102, 
          34.080601
        ]
      }, 
      "id": 12515264, 
      "properties": {
        "woe:id": 12515264, 
        "href": "/125/152/64/12515264.json", 
        "name": "Risalpur Airport"
      }
    }, 
    {
      "geometry": {
        "type": "Point", 
        "coordinates": [
          70.596703, 
          30.004999
        ]
      }, 
      "id": 12515231, 
      "properties": {
        "woe:id": 12515231, 
        "href": "/125/152/31/12515231.json", 
        "name": "Dera Ghazi Khan New Airport"
      }
    }, 
    {
      "geometry": {
        "type": "Point", 
        "coordinates": [
          71.456398, 
          32.422501
        ]
      }, 
      "id": 12515228, 
      "properties": {
        "woe:id": 12515228, 
        "href": "/125/152/28/12515228.json", 
        "name": "Chashma Airport"
      }
    }, 
    {
      "geometry": {
        "type": "Point", 
        "coordinates": [
          74.335800, 
          35.919201
        ]
      }, 
      "id": 12515235, 
      "properties": {
        "woe:id": 12515235, 
        "href": "/125/152/35/12515235.json", 
        "name": "Gilgit Airport", 
        "iata:code": "GIL"
      }
    }, 
    {
      "geometry": {
        "type": "Point", 
        "coordinates": [
          66.938904, 
          30.253599
        ]
      }, 
      "id": 12515260, 
      "properties": {
        "woe:id": 12515260, 
        "href": "/125/152/60/12515260.json", 
        "name": "Quetta Airport", 
        "iata:code": "UET"
      }
    }, 
    {
      "geometry": {
        "type": "Point", 
        "coordinates": [
          70.525002, 
          32.973598
        ]
      }, 
      "id": 12515226, 
      "properties": {
        "woe:id": 12515226, 
        "href": "/125/152/26/12515226.json", 
        "name": "Bannu Airport", 
        "iata:code": "BNP"
      }
    }, 
    {
      "geometry": {
        "type": "Point", 
        "coordinates": [
          68.451401, 
          28.280600
        ]
      }, 
      "id": 12515239, 
      "properties": {
        "woe:id": 12515239, 
        "href": "/125/152/39/12515239.json", 
        "name": "Jacobabad Airport"
      }
    }, 
    {
      "geometry": {
        "type": "Point", 
        "coordinates": [
          74.351662, 
          31.492571
        ]
      }, 
      "id": 12515275, 
      "properties": {
        "woe:id": 12515275, 
        "href": "/125/152/75/12515275.json", 
        "name": "Walton Airport"
      }
    }, 
    {
      "geometry": {
        "type": "Point", 
        "coordinates": [
          68.365601, 
          25.314199
        ]
      }, 
      "id": 12515237, 
      "properties": {
        "woe:id": 12515237, 
        "href": "/125/152/37/12515237.json", 
        "name": "Hyderabad Airport", 
        "iata:code": "HDD"
      }
    }, 
    {
      "geometry": {
        "type": "Point", 
        "coordinates": [
          72.408302, 
          33.870800
        ]
      }, 
      "id": 12515240, 
      "properties": {
        "woe:id": 12515240, 
        "href": "/125/152/40/12515240.json", 
        "name": "Kamra Airport"
      }
    }, 
    {
      "geometry": {
        "type": "Point", 
        "coordinates": [
          73.794197, 
          32.079201
        ]
      }, 
      "id": 12515227, 
      "properties": {
        "woe:id": 12515227, 
        "href": "/125/152/27/12515227.json", 
        "name": "Chandhar Airport"
      }
    }, 
    {
      "geometry": {
        "type": "Point", 
        "coordinates": [
          72.283302, 
          30.762501
        ]
      }, 
      "id": 12515261, 
      "properties": {
        "woe:id": 12515261, 
        "href": "/125/152/61/12515261.json", 
        "name": "Rafiqui Airport"
      }
    }, 
    {
      "geometry": {
        "type": "Point", 
        "coordinates": [
          72.311096, 
          31.887501
        ]
      }, 
      "id": 12515265, 
      "properties": {
        "woe:id": 12515265, 
        "href": "/125/152/65/12515265.json", 
        "name": "Sahiwal Airport"
      }
    }, 
    {
      "geometry": {
        "type": "Point", 
        "coordinates": [
          73.358299, 
          30.735300
        ]
      }, 
      "id": 12515255, 
      "properties": {
        "woe:id": 12515255, 
        "href": "/125/152/55/12515255.json", 
        "name": "Okara Airport"
      }
    }, 
    {
      "geometry": {
        "type": "Point", 
        "coordinates": [
          72.153603, 
          30.091700
        ]
      }, 
      "id": 12515274, 
      "properties": {
        "woe:id": 12515274, 
        "href": "/125/152/74/12515274.json", 
        "name": "Velhari Airport"
      }
    }, 
    {
      "geometry": {
        "type": "Point", 
        "coordinates": [
          72.666100, 
          32.051899
        ]
      }, 
      "id": 12515267, 
      "properties": {
        "woe:id": 12515267, 
        "href": "/125/152/67/12515267.json", 
        "name": "Bhagatanwala Airport", 
        "iata:code": "BHW"
      }
    }, 
    {
      "geometry": {
        "type": "Point", 
        "coordinates": [
          70.201401, 
          29.272200
        ]
      }, 
      "id": 12515262, 
      "properties": {
        "woe:id": 12515262, 
        "href": "/125/152/62/12515262.json", 
        "name": "Rajanpur Northwest Airport"
      }
    }, 
    {
      "geometry": {
        "type": "Point", 
        "coordinates": [
          63.031898, 
          25.983299
        ]
      }, 
      "id": 12515273, 
      "properties": {
        "woe:id": 12515273, 
        "href": "/125/152/73/12515273.json", 
        "name": "Turbat Airport", 
        "iata:code": "TUK"
      }
    }, 
    {
      "geometry": {
        "type": "Point", 
        "coordinates": [
          68.141701, 
          27.336399
        ]
      }, 
      "id": 12515250, 
      "properties": {
        "woe:id": 12515250, 
        "href": "/125/152/50/12515250.json", 
        "name": "Moenjodaro Airport"
      }
    }, 
    {
      "geometry": {
        "type": "Point", 
        "coordinates": [
          71.794403, 
          35.886101
        ]
      }, 
      "id": 12515230, 
      "properties": {
        "woe:id": 12515230, 
        "href": "/125/152/30/12515230.json", 
        "name": "Chitral Airport", 
        "iata:code": "CJL"
      }
    }, 
    {
      "geometry": {
        "type": "Point", 
        "coordinates": [
          68.790298, 
          27.723600
        ]
      }, 
      "id": 12515270, 
      "properties": {
        "woe:id": 12515270, 
        "href": "/125/152/70/12515270.json", 
        "name": "Sukkur Airport", 
        "iata:code": "SKZ"
      }
    }, 
    {
      "geometry": {
        "type": "Point", 
        "coordinates": [
          71.439201, 
          33.573898
        ]
      }, 
      "id": 12515243, 
      "properties": {
        "woe:id": 12515243, 
        "href": "/125/152/43/12515243.json", 
        "name": "Kohat Airport", 
        "iata:code": "OHT"
      }
    }, 
    {
      "geometry": {
        "type": "Point", 
        "coordinates": [
          73.638100, 
          33.049999
        ]
      }, 
      "id": 12515246, 
      "properties": {
        "woe:id": 12515246, 
        "href": "/125/152/46/12515246.json", 
        "name": "Mangla Airport"
      }
    }, 
    {
      "geometry": {
        "type": "Point", 
        "coordinates": [
          74.082802, 
          35.427799
        ]
      }, 
      "id": 12515229, 
      "properties": {
        "woe:id": 12515229, 
        "href": "/125/152/29/12515229.json", 
        "name": "Chilas Airport"
      }
    }, 
    {
      "geometry": {
        "type": "Point", 
        "coordinates": [
          72.998100, 
          31.369200
        ]
      }, 
      "id": 12515233, 
      "properties": {
        "woe:id": 12515233, 
        "href": "/125/152/33/12515233.json", 
        "name": "Faisalabad Airport"
      }
    }, 
    {
      "geometry": {
        "type": "Point", 
        "coordinates": [
          68.838898, 
          24.841700
        ]
      }, 
      "id": 12515271, 
      "properties": {
        "woe:id": 12515271, 
        "href": "/125/152/71/12515271.json", 
        "name": "Talhar Airport"
      }
    }, 
    {
      "geometry": {
        "type": "Point", 
        "coordinates": [
          66.940292, 
          24.889481
        ]
      }, 
      "id": 12515247, 
      "properties": {
        "woe:id": 12515247, 
        "href": "/125/152/47/12515247.json", 
        "name": "Masroor Airport"
      }
    }, 
    {
      "geometry": {
        "type": "Point", 
        "coordinates": [
          69.463600, 
          31.359699
        ]
      }, 
      "id": 12515277, 
      "properties": {
        "woe:id": 12515277, 
        "href": "/125/152/77/12515277.json", 
        "name": "Zhob Airport"
      }
    }, 
    {
      "geometry": {
        "type": "Point", 
        "coordinates": [
          72.612198, 
          33.985802
        ]
      }, 
      "id": 12515272, 
      "properties": {
        "woe:id": 12515272, 
        "href": "/125/152/72/12515272.json", 
        "name": "Tarbela Dam Airport"
      }
    }, 
    {
      "geometry": {
        "type": "Point", 
        "coordinates": [
          74.409102, 
          31.469030
        ]
      }, 
      "id": 12515245, 
      "properties": {
        "woe:id": 12515245, 
        "href": "/125/152/45/12515245.json", 
        "name": "Lahore Airport", 
        "iata:code": "LHE"
      }
    }, 
    {
      "geometry": {
        "type": "Point", 
        "coordinates": [
          72.775002, 
          32.913898
        ]
      }, 
      "id": 12515252, 
      "properties": {
        "woe:id": 12515252, 
        "href": "/125/152/52/12515252.json", 
        "name": "Murid Airport"
      }
    }, 
    {
      "geometry": {
        "type": "Point", 
        "coordinates": [
          71.418098, 
          30.202801
        ]
      }, 
      "id": 12515251, 
      "properties": {
        "woe:id": 12515251, 
        "href": "/125/152/51/12515251.json", 
        "name": "Multan Airport", 
        "iata:code": "MUX"
      }
    }, 
    {
      "geometry": {
        "type": "Point", 
        "coordinates": [
          72.352798, 
          34.812500
        ]
      }, 
      "id": 12515266, 
      "properties": {
        "woe:id": 12515266, 
        "href": "/125/152/66/12515266.json", 
        "name": "Saidu Sharif Airport", 
        "iata:code": "SDT"
      }
    }, 
    {
      "geometry": {
        "type": "Point", 
        "coordinates": [
          72.633301, 
          33.548302
        ]
      }, 
      "id": 12515234, 
      "properties": {
        "woe:id": 12515234, 
        "href": "/125/152/34/12515234.json", 
        "name": "Fatehjang Airport"
      }
    }, 
    {
      "geometry": {
        "type": "Point", 
        "coordinates": [
          68.392197, 
          26.219400
        ]
      }, 
      "id": 12515254, 
      "properties": {
        "woe:id": 12515254, 
        "href": "/125/152/54/12515254.json", 
        "name": "Nawabshah Airport", 
        "iata:code": "WNS"
      }
    }, 
    {
      "geometry": {
        "type": "Point", 
        "coordinates": [
          67.119400, 
          24.875000
        ]
      }, 
      "id": 12515268, 
      "properties": {
        "woe:id": 12515268, 
        "href": "/125/152/68/12515268.json", 
        "name": "Sharea Faisal Airport"
      }
    }, 
    {
      "geometry": {
        "type": "Point", 
        "coordinates": [
          69.074997, 
          25.691401
        ]
      }, 
      "id": 12515249, 
      "properties": {
        "woe:id": 12515249, 
        "href": "/125/152/49/12515249.json", 
        "name": "Mirpur Khas North Airport"
      }
    }, 
    {
      "geometry": {
        "type": "Point", 
        "coordinates": [
          71.514999, 
          33.993301
        ]
      }, 
      "id": 12515258, 
      "properties": {
        "woe:id": 12515258, 
        "href": "/125/152/58/12515258.json", 
        "name": "Peshawar Airport", 
        "iata:code": "PEW"
      }
    }, 
    {
      "geometry": {
        "type": "Point", 
        "coordinates": [
          70.897202, 
          31.909700
        ]
      }, 
      "id": 12515232, 
      "properties": {
        "woe:id": 12515232, 
        "href": "/125/152/32/12515232.json", 
        "name": "Dera Ismail Khan Airport", 
        "iata:code": "DSK"
      }
    }, 
    {
      "geometry": {
        "type": "Point", 
        "coordinates": [
          62.338902, 
          25.230600
        ]
      }, 
      "id": 12515236, 
      "properties": {
        "woe:id": 12515236, 
        "href": "/125/152/36/12515236.json", 
        "name": "Gwadar Airport", 
        "iata:code": "GWD"
      }
    }, 
    {
      "geometry": {
        "type": "Point", 
        "coordinates": [
          64.133102, 
          26.954700
        ]
      }, 
      "id": 12515256, 
      "properties": {
        "woe:id": 12515256, 
        "href": "/125/152/56/12515256.json", 
        "name": "Panjgur Airport", 
        "iata:code": "PJG"
      }
    }, 
    {
      "geometry": {
        "type": "Point", 
        "coordinates": [
          70.967201, 
          30.499701
        ]
      }, 
      "id": 12515244, 
      "properties": {
        "woe:id": 12515244, 
        "href": "/125/152/44/12515244.json", 
        "name": "Kot Addu Airport"
      }
    }, 
    {
      "geometry": {
        "type": "Point", 
        "coordinates": [
          63.356899, 
          25.297199
        ]
      }, 
      "id": 12515257, 
      "properties": {
        "woe:id": 12515257, 
        "href": "/125/152/57/12515257.json", 
        "name": "Pasni Airport", 
        "iata:code": "PSI"
      }
    }, 
    {
      "geometry": {
        "type": "Point", 
        "coordinates": [
          72.666672, 
          32.049999
        ]
      }, 
      "id": 12523059, 
      "properties": {
        "woe:id": 12523059, 
        "href": "/125/230/59/12523059.json", 
        "name": "Sargodha Airport", 
        "iata:code": "SGI"
      }
    }
  ], 
  "properties": {
    "iso": "PK", 
    "woe:country": 23424922
  }
}