{
  "type": "FeatureCollection", 
  "features": [
    {
      "geometry": {
        "type": "Point", 
        "coordinates": [
          -55.744999, 
          -22.545000
        ]
      }, 
      "id": 12523659, 
      "properties": {
        "woe:id": 12523659, 
        "href": "/125/236/59/12523659.json", 
        "name": "Amambay Airport", 
        "iata:code": "PJC"
      }
    }, 
    {
      "geometry": {
        "type": "Point", 
        "coordinates": [
          -54.622601, 
          -25.526569
        ]
      }, 
      "id": 12523540, 
      "properties": {
        "woe:id": 12523540, 
        "href": "/125/235/40/12523540.json", 
        "name": "Alejo Garcia Airport", 
        "iata:code": "AGT"
      }
    }, 
    {
      "geometry": {
        "type": "Point", 
        "coordinates": [
          -55.916698, 
          -27.299999
        ]
      }, 
      "id": 12523567, 
      "properties": {
        "woe:id": 12523567, 
        "href": "/125/235/67/12523567.json", 
        "name": "Teniente Prim Alarcon Airport"
      }
    }, 
    {
      "geometry": {
        "type": "Point", 
        "coordinates": [
          -57.429260, 
          -23.402901
        ]
      }, 
      "id": 12523546, 
      "properties": {
        "woe:id": 12523546, 
        "href": "/125/235/46/12523546.json", 
        "name": "Mcal Lopez Airport", 
        "iata:code": "CIO"
      }
    }, 
    {
      "geometry": {
        "type": "Point", 
        "coordinates": [
          -60.038300, 
          -22.358299
        ]
      }, 
      "id": 12523568, 
      "properties": {
        "woe:id": 12523568, 
        "href": "/125/235/68/12523568.json", 
        "name": "Filadelfia Airport"
      }
    }, 
    {
      "geometry": {
        "type": "Point", 
        "coordinates": [
          -54.620800, 
          -25.406900
        ]
      }, 
      "id": 12515183, 
      "properties": {
        "woe:id": 12515183, 
        "href": "/125/151/83/12515183.json", 
        "name": "Itaipu Airport", 
        "iata:code": "ITP"
      }
    }, 
    {
      "geometry": {
        "type": "Point", 
        "coordinates": [
          -57.518902, 
          -25.239700
        ]
      }, 
      "id": 12515187, 
      "properties": {
        "woe:id": 12515187, 
        "href": "/125/151/87/12515187.json", 
        "name": "Silvio Pettirossi International Airport"
      }
    }, 
    {
      "geometry": {
        "type": "Point", 
        "coordinates": [
          -56.854401, 
          -27.370300
        ]
      }, 
      "id": 12515182, 
      "properties": {
        "woe:id": 12515182, 
        "href": "/125/151/82/12515182.json", 
        "name": "Ayolas Airport", 
        "iata:code": "AYO"
      }
    }, 
    {
      "geometry": {
        "type": "Point", 
        "coordinates": [
          -57.942799, 
          -22.160601
        ]
      }, 
      "id": 12515186, 
      "properties": {
        "woe:id": 12515186, 
        "href": "/125/151/86/12515186.json", 
        "name": "Puerto Vallemi Airport"
      }
    }, 
    {
      "geometry": {
        "type": "Point", 
        "coordinates": [
          -60.622200, 
          -22.044399
        ]
      }, 
      "id": 12515184, 
      "properties": {
        "woe:id": 12515184, 
        "href": "/125/151/84/12515184.json", 
        "name": "Mariscal Estigarribia Airport"
      }
    }, 
    {
      "geometry": {
        "type": "Point", 
        "coordinates": [
          -58.317799, 
          -26.880301
        ]
      }, 
      "id": 12515185, 
      "properties": {
        "woe:id": 12515185, 
        "href": "/125/151/85/12515185.json", 
        "name": "Pilar Airport", 
        "iata:code": "PIL"
      }
    }
  ], 
  "properties": {
    "iso": "PY", 
    "woe:country": 23424917
  }
}