{
  "type": "FeatureCollection", 
  "features": [
    {
      "geometry": {
        "type": "Point", 
        "coordinates": [
          20.300, 
          44.816
        ]
      }, 
      "id": 12517583, 
      "properties": {
        "woe:id": 12517583, 
        "href": "/125/175/83/12517583.json", 
        "name": "Surcin Airport", 
        "iata:code": "BEG"
      }
    }, 
    {
      "geometry": {
        "type": "Point", 
        "coordinates": [
          19.058, 
          45.723
        ]
      }, 
      "id": 12517591, 
      "properties": {
        "woe:id": 12517591, 
        "href": "/125/175/91/12517591.json", 
        "name": "Sombor Airport"
      }
    }, 
    {
      "geometry": {
        "type": "Point", 
        "coordinates": [
          20.586, 
          43.819
        ]
      }, 
      "id": 12517588, 
      "properties": {
        "woe:id": 12517588, 
        "href": "/125/175/88/12517588.json", 
        "name": "Obrva Airport"
      }
    }, 
    {
      "geometry": {
        "type": "Point", 
        "coordinates": [
          21.036, 
          42.575
        ]
      }, 
      "id": 12517589, 
      "properties": {
        "woe:id": 12517589, 
        "href": "/125/175/89/12517589.json", 
        "icao:code": "KPRN", 
        "name": "Pristina Airport", 
        "iata:code": "PRN"
      }
    }, 
    {
      "geometry": {
        "type": "Point", 
        "coordinates": [
          21.855, 
          43.338
        ]
      }, 
      "id": 12517587, 
      "properties": {
        "woe:id": 12517587, 
        "href": "/125/175/87/12517587.json", 
        "name": "Nis Airport", 
        "iata:code": "INI"
      }
    }, 
    {
      "geometry": {
        "type": "Point", 
        "coordinates": [
          20.051, 
          43.276
        ]
      }, 
      "id": 12517590, 
      "properties": {
        "woe:id": 12517590, 
        "href": "/125/175/90/12517590.json", 
        "name": "Sjenica Airport"
      }
    }, 
    {
      "geometry": {
        "type": "Point", 
        "coordinates": [
          20.250, 
          44.942
        ]
      }, 
      "id": 12517582, 
      "properties": {
        "woe:id": 12517582, 
        "href": "/125/175/82/12517582.json", 
        "name": "Batajnica Airport", 
        "iata:code": "YBT"
      }
    }, 
    {
      "geometry": {
        "type": "Point", 
        "coordinates": [
          19.695, 
          43.898
        ]
      }, 
      "id": 12517586, 
      "properties": {
        "woe:id": 12517586, 
        "href": "/125/175/86/12517586.json", 
        "name": "Lepa Glava Airport"
      }
    }, 
    {
      "geometry": {
        "type": "Point", 
        "coordinates": [
          20.967, 
          44.776
        ]
      }, 
      "id": 12517585, 
      "properties": {
        "woe:id": 12517585, 
        "href": "/125/175/85/12517585.json", 
        "name": "Kovin Airport"
      }
    }, 
    {
      "geometry": {
        "type": "Point", 
        "coordinates": [
          21.306, 
          45.148
        ]
      }, 
      "id": 12517594, 
      "properties": {
        "woe:id": 12517594, 
        "href": "/125/175/94/12517594.json", 
        "name": "Vrsac Airport"
      }
    }
  ], 
  "properties": {
    "woe:id": 20069818, 
    "iso": "RS"
  }
}