{
  "type": "FeatureCollection", 
  "features": [
    {
      "geometry": {
        "type": "Point", 
        "coordinates": [
          20.299889, 
          44.815505
        ]
      }, 
      "id": 12517583, 
      "properties": {
        "woe:id": 12517583, 
        "href": "/125/175/83/12517583.json", 
        "name": "Surcin Airport", 
        "iata:code": "BEG"
      }
    }, 
    {
      "geometry": {
        "type": "Point", 
        "coordinates": [
          19.057501, 
          45.723099
        ]
      }, 
      "id": 12517591, 
      "properties": {
        "woe:id": 12517591, 
        "href": "/125/175/91/12517591.json", 
        "name": "Sombor Airport"
      }
    }, 
    {
      "geometry": {
        "type": "Point", 
        "coordinates": [
          20.585800, 
          43.818901
        ]
      }, 
      "id": 12517588, 
      "properties": {
        "woe:id": 12517588, 
        "href": "/125/175/88/12517588.json", 
        "name": "Obrva Airport"
      }
    }, 
    {
      "geometry": {
        "type": "Point", 
        "coordinates": [
          21.036400, 
          42.575298
        ]
      }, 
      "id": 12517589, 
      "properties": {
        "woe:id": 12517589, 
        "href": "/125/175/89/12517589.json", 
        "icao:code": "KPRN", 
        "name": "Pristina Airport", 
        "iata:code": "PRN"
      }
    }, 
    {
      "geometry": {
        "type": "Point", 
        "coordinates": [
          21.854700, 
          43.338100
        ]
      }, 
      "id": 12517587, 
      "properties": {
        "woe:id": 12517587, 
        "href": "/125/175/87/12517587.json", 
        "name": "Nis Airport", 
        "iata:code": "INI"
      }
    }, 
    {
      "geometry": {
        "type": "Point", 
        "coordinates": [
          20.051100, 
          43.275600
        ]
      }, 
      "id": 12517590, 
      "properties": {
        "woe:id": 12517590, 
        "href": "/125/175/90/12517590.json", 
        "name": "Sjenica Airport"
      }
    }, 
    {
      "geometry": {
        "type": "Point", 
        "coordinates": [
          20.250000, 
          44.941700
        ]
      }, 
      "id": 12517582, 
      "properties": {
        "woe:id": 12517582, 
        "href": "/125/175/82/12517582.json", 
        "name": "Batajnica Airport", 
        "iata:code": "YBT"
      }
    }, 
    {
      "geometry": {
        "type": "Point", 
        "coordinates": [
          19.695299, 
          43.897800
        ]
      }, 
      "id": 12517586, 
      "properties": {
        "woe:id": 12517586, 
        "href": "/125/175/86/12517586.json", 
        "name": "Lepa Glava Airport"
      }
    }, 
    {
      "geometry": {
        "type": "Point", 
        "coordinates": [
          20.966700, 
          44.776100
        ]
      }, 
      "id": 12517585, 
      "properties": {
        "woe:id": 12517585, 
        "href": "/125/175/85/12517585.json", 
        "name": "Kovin Airport"
      }
    }, 
    {
      "geometry": {
        "type": "Point", 
        "coordinates": [
          21.306101, 
          45.148300
        ]
      }, 
      "id": 12517594, 
      "properties": {
        "woe:id": 12517594, 
        "href": "/125/175/94/12517594.json", 
        "name": "Vrsac Airport"
      }
    }
  ], 
  "properties": {
    "iso": "RS", 
    "woe:country": 20069818
  }
}