{
  "type": "FeatureCollection", 
  "features": [
    {
      "geometry": {
        "type": "Point", 
        "coordinates": [
          56.250301, 
          -7.170500
        ]
      }, 
      "id": 12517383, 
      "properties": {
        "woe:id": 12517383, 
        "href": "/125/173/83/12517383.json", 
        "name": "Coetivy Airport"
      }
    }, 
    {
      "geometry": {
        "type": "Point", 
        "coordinates": [
          55.695801, 
          -4.315800
        ]
      }, 
      "id": 12517388, 
      "properties": {
        "woe:id": 12517388, 
        "href": "/125/173/88/12517388.json", 
        "name": "Praslin Airport", 
        "iata:code": "PRI"
      }
    }, 
    {
      "geometry": {
        "type": "Point", 
        "coordinates": [
          55.517700, 
          -4.675100
        ]
      }, 
      "id": 12517389, 
      "properties": {
        "woe:id": 12517389, 
        "href": "/125/173/89/12517389.json", 
        "name": "Seychelles International Airport", 
        "iata:code": "SEZ"
      }
    }, 
    {
      "geometry": {
        "type": "Point", 
        "coordinates": [
          52.738499, 
          -6.998500
        ]
      }, 
      "id": 12517382, 
      "properties": {
        "woe:id": 12517382, 
        "href": "/125/173/82/12517382.json", 
        "name": "Alphonse Airport"
      }
    }, 
    {
      "geometry": {
        "type": "Point", 
        "coordinates": [
          51.172199, 
          -10.106900
        ]
      }, 
      "id": 12517386, 
      "properties": {
        "woe:id": 12517386, 
        "href": "/125/173/86/12517386.json", 
        "name": "Farquhar Airport"
      }
    }, 
    {
      "geometry": {
        "type": "Point", 
        "coordinates": [
          53.655998, 
          -5.693600
        ]
      }, 
      "id": 12517384, 
      "properties": {
        "woe:id": 12517384, 
        "href": "/125/173/84/12517384.json", 
        "name": "Desroches Airport", 
        "iata:code": "DES"
      }
    }, 
    {
      "geometry": {
        "type": "Point", 
        "coordinates": [
          55.214981, 
          -3.716370
        ]
      }, 
      "id": 12523293, 
      "properties": {
        "woe:id": 12523293, 
        "href": "/125/232/93/12523293.json", 
        "name": "Bird Island Airport", 
        "iata:code": "BDI"
      }
    }
  ], 
  "properties": {
    "iso": "SC", 
    "woe:country": 23424941
  }
}