{
  "type": "FeatureCollection", 
  "features": [
    {
      "geometry": {
        "type": "Point", 
        "coordinates": [
          37.216702, 
          19.576099
        ]
      }, 
      "id": 12517603, 
      "properties": {
        "woe:id": 12517603, 
        "href": "/125/176/03/12517603.json", 
        "name": "Port Sudan International Airport", 
        "iata:code": "PZU"
      }
    }, 
    {
      "geometry": {
        "type": "Point", 
        "coordinates": [
          36.323601, 
          15.383300
        ]
      }, 
      "id": 12517600, 
      "properties": {
        "woe:id": 12517600, 
        "href": "/125/176/00/12517600.json", 
        "name": "Kassala Airport", 
        "iata:code": "KSL"
      }
    }, 
    {
      "geometry": {
        "type": "Point", 
        "coordinates": [
          32.553299, 
          15.591700
        ]
      }, 
      "id": 12517601, 
      "properties": {
        "woe:id": 12517601, 
        "href": "/125/176/01/12517601.json", 
        "name": "Khartoum Airport", 
        "iata:code": "KRT"
      }
    }, 
    {
      "geometry": {
        "type": "Point", 
        "coordinates": [
          31.644400, 
          9.555600
        ]
      }, 
      "id": 12517602, 
      "properties": {
        "woe:id": 12517602, 
        "href": "/125/176/02/12517602.json", 
        "name": "Malakal Airport", 
        "iata:code": "MAK"
      }
    }, 
    {
      "geometry": {
        "type": "Point", 
        "coordinates": [
          32.515301, 
          15.816700
        ]
      }, 
      "id": 12517604, 
      "properties": {
        "woe:id": 12517604, 
        "href": "/125/176/04/12517604.json", 
        "name": "Wadi Seidna Airport"
      }
    }, 
    {
      "geometry": {
        "type": "Point", 
        "coordinates": [
          30.483330, 
          19.183331
        ]
      }, 
      "id": 12523099, 
      "properties": {
        "woe:id": 12523099, 
        "href": "/125/230/99/12523099.json", 
        "name": "Dongola Airport"
      }
    }, 
    {
      "geometry": {
        "type": "Point", 
        "coordinates": [
          34.349998, 
          11.800000
        ]
      }, 
      "id": 12517597, 
      "properties": {
        "woe:id": 12517597, 
        "href": "/125/175/97/12517597.json", 
        "name": "Damazin Airport", 
        "iata:code": "SDZ"
      }
    }, 
    {
      "geometry": {
        "type": "Point", 
        "coordinates": [
          31.593100, 
          4.872200
        ]
      }, 
      "id": 12517599, 
      "properties": {
        "woe:id": 12517599, 
        "href": "/125/175/99/12517599.json", 
        "name": "Juba Airport"
      }
    }, 
    {
      "geometry": {
        "type": "Point", 
        "coordinates": [
          30.234200, 
          13.159700
        ]
      }, 
      "id": 12517598, 
      "properties": {
        "woe:id": 12517598, 
        "href": "/125/175/98/12517598.json", 
        "name": "El Obeid Airport", 
        "iata:code": "EBD"
      }
    }
  ], 
  "properties": {
    "iso": "SD", 
    "woe:country": 23424952
  }
}