{
  "type": "FeatureCollection", 
  "features": [
    {
      "geometry": {
        "type": "Point", 
        "coordinates": [
          -88.106, 
          13.726
        ]
      }, 
      "id": 12512753, 
      "properties": {
        "woe:id": 12512753, 
        "href": "/125/127/53/12512753.json", 
        "name": "Los Comandos Airport"
      }
    }, 
    {
      "geometry": {
        "type": "Point", 
        "coordinates": [
          -87.905, 
          13.161
        ]
      }, 
      "id": 12512755, 
      "properties": {
        "woe:id": 12512755, 
        "href": "/125/127/55/12512755.json", 
        "name": "Tamarindo Airport"
      }
    }, 
    {
      "geometry": {
        "type": "Point", 
        "coordinates": [
          -89.117, 
          13.692
        ]
      }, 
      "id": 12512752, 
      "properties": {
        "woe:id": 12512752, 
        "href": "/125/127/52/12512752.json", 
        "name": "Ilopango International Airport"
      }
    }, 
    {
      "geometry": {
        "type": "Point", 
        "coordinates": [
          -89.059, 
          13.445
        ]
      }, 
      "id": 12512751, 
      "properties": {
        "woe:id": 12512751, 
        "href": "/125/127/51/12512751.json", 
        "name": "El Salvador International Airport", 
        "iata:code": "SAL"
      }
    }, 
    {
      "geometry": {
        "type": "Point", 
        "coordinates": [
          -89.372, 
          13.771
        ]
      }, 
      "id": 12512754, 
      "properties": {
        "woe:id": 12512754, 
        "href": "/125/127/54/12512754.json", 
        "name": "Rio Sucio Highway Strip Airport"
      }
    }
  ], 
  "properties": {
    "woe:id": 23424807, 
    "iso": "SV"
  }
}