{
  "type": "FeatureCollection", 
  "features": [
    {
      "geometry": {
        "type": "Point", 
        "coordinates": [
          -71.942497, 
          21.916700
        ]
      }, 
      "id": 12517842, 
      "properties": {
        "woe:id": 12517842, 
        "href": "/125/178/42/12517842.json", 
        "icao:code": "KNCA", 
        "name": "North Caicos Airport", 
        "iata:code": "NCA"
      }
    }, 
    {
      "geometry": {
        "type": "Point", 
        "coordinates": [
          -71.142502, 
          21.443899
        ]
      }, 
      "id": 12517840, 
      "properties": {
        "woe:id": 12517840, 
        "href": "/125/178/40/12517840.json", 
        "name": "Grand Turk International Airport", 
        "iata:code": "GDT"
      }
    }, 
    {
      "geometry": {
        "type": "Point", 
        "coordinates": [
          -72.268303, 
          21.772800
        ]
      }, 
      "id": 12517843, 
      "properties": {
        "woe:id": 12517843, 
        "href": "/125/178/43/12517843.json", 
        "name": "Providenciales Airport", 
        "iata:code": "PLS"
      }
    }, 
    {
      "geometry": {
        "type": "Point", 
        "coordinates": [
          -71.529701, 
          21.515800
        ]
      }, 
      "id": 12517846, 
      "properties": {
        "woe:id": 12517846, 
        "href": "/125/178/46/12517846.json", 
        "name": "South Caicos Airport"
      }
    }, 
    {
      "geometry": {
        "type": "Point", 
        "coordinates": [
          -71.198303, 
          21.322300
        ]
      }, 
      "id": 12517844, 
      "properties": {
        "woe:id": 12517844, 
        "href": "/125/178/44/12517844.json", 
        "name": "Salt Cay Airport"
      }
    }, 
    {
      "geometry": {
        "type": "Point", 
        "coordinates": [
          -71.983299, 
          21.916700
        ]
      }, 
      "id": 12524423, 
      "properties": {
        "woe:id": 12524423, 
        "href": "/125/244/23/12524423.json", 
        "name": "Pine Cay Airport", 
        "iata:code": "PIC"
      }
    }, 
    {
      "geometry": {
        "type": "Point", 
        "coordinates": [
          -71.766380, 
          21.790520
        ]
      }, 
      "id": 12524422, 
      "properties": {
        "woe:id": 12524422, 
        "href": "/125/244/22/12524422.json", 
        "icao:code": "KMDS", 
        "name": "Middle Caicos Airport", 
        "iata:code": "MDS"
      }
    }
  ], 
  "properties": {
    "iso": "TC", 
    "woe:country": 23424962
  }
}