{
  "type": "FeatureCollection", 
  "features": [
    {
      "geometry": {
        "type": "Point", 
        "coordinates": [
          -71.942, 
          21.917
        ]
      }, 
      "id": 12517842, 
      "properties": {
        "woe:id": 12517842, 
        "href": "/125/178/42/12517842.json", 
        "icao:code": "KNCA", 
        "name": "North Caicos Airport", 
        "iata:code": "NCA"
      }
    }, 
    {
      "geometry": {
        "type": "Point", 
        "coordinates": [
          -71.143, 
          21.444
        ]
      }, 
      "id": 12517840, 
      "properties": {
        "woe:id": 12517840, 
        "href": "/125/178/40/12517840.json", 
        "name": "Grand Turk International Airport", 
        "iata:code": "GDT"
      }
    }, 
    {
      "geometry": {
        "type": "Point", 
        "coordinates": [
          -72.268, 
          21.773
        ]
      }, 
      "id": 12517843, 
      "properties": {
        "woe:id": 12517843, 
        "href": "/125/178/43/12517843.json", 
        "name": "Providenciales Airport", 
        "iata:code": "PLS"
      }
    }, 
    {
      "geometry": {
        "type": "Point", 
        "coordinates": [
          -71.530, 
          21.516
        ]
      }, 
      "id": 12517846, 
      "properties": {
        "woe:id": 12517846, 
        "href": "/125/178/46/12517846.json", 
        "name": "South Caicos Airport"
      }
    }, 
    {
      "geometry": {
        "type": "Point", 
        "coordinates": [
          -71.198, 
          21.322
        ]
      }, 
      "id": 12517844, 
      "properties": {
        "woe:id": 12517844, 
        "href": "/125/178/44/12517844.json", 
        "name": "Salt Cay Airport"
      }
    }, 
    {
      "geometry": {
        "type": "Point", 
        "coordinates": [
          -71.983, 
          21.917
        ]
      }, 
      "id": 12524423, 
      "properties": {
        "woe:id": 12524423, 
        "href": "/125/244/23/12524423.json", 
        "name": "Pine Cay Airport", 
        "iata:code": "PIC"
      }
    }, 
    {
      "geometry": {
        "type": "Point", 
        "coordinates": [
          -71.766, 
          21.791
        ]
      }, 
      "id": 12524422, 
      "properties": {
        "woe:id": 12524422, 
        "href": "/125/244/22/12524422.json", 
        "icao:code": "KMDS", 
        "name": "Middle Caicos Airport", 
        "iata:code": "MDS"
      }
    }
  ], 
  "properties": {
    "woe:id": 23424962, 
    "iso": "TC"
  }
}