{
  "type": "FeatureCollection", 
  "features": [
    {
      "geometry": {
        "type": "Point", 
        "coordinates": [
          60.577900, 
          37.368198
        ]
      }, 
      "id": 12518008, 
      "properties": {
        "woe:id": 12518008, 
        "href": "/125/180/08/12518008.json", 
        "name": "Tedzhen Southeast Airport"
      }
    }, 
    {
      "geometry": {
        "type": "Point", 
        "coordinates": [
          61.636902, 
          37.669102
        ]
      }, 
      "id": 12518003, 
      "properties": {
        "woe:id": 12518003, 
        "href": "/125/180/03/12518003.json", 
        "name": "Sakar-Chaga Airport"
      }
    }, 
    {
      "geometry": {
        "type": "Point", 
        "coordinates": [
          60.473301, 
          37.377899
        ]
      }, 
      "id": 12518007, 
      "properties": {
        "woe:id": 12518007, 
        "href": "/125/180/07/12518007.json", 
        "name": "Tedzhen Airport"
      }
    }, 
    {
      "geometry": {
        "type": "Point", 
        "coordinates": [
          53.333500, 
          40.043499
        ]
      }, 
      "id": 12518009, 
      "properties": {
        "woe:id": 12518009, 
        "href": "/125/180/09/12518009.json", 
        "name": "Yangadzha Airport"
      }
    }, 
    {
      "geometry": {
        "type": "Point", 
        "coordinates": [
          62.783600, 
          35.993599
        ]
      }, 
      "id": 12518012, 
      "properties": {
        "woe:id": 12518012, 
        "href": "/125/180/12/12518012.json", 
        "name": "Yerden Airport"
      }
    }, 
    {
      "geometry": {
        "type": "Point", 
        "coordinates": [
          65.034897, 
          37.988602
        ]
      }, 
      "id": 12518006, 
      "properties": {
        "woe:id": 12518006, 
        "href": "/125/180/06/12518006.json", 
        "name": "Sotsializm Southeast Airport"
      }
    }, 
    {
      "geometry": {
        "type": "Point", 
        "coordinates": [
          60.016300, 
          41.577301
        ]
      }, 
      "id": 12518011, 
      "properties": {
        "woe:id": 12518011, 
        "href": "/125/180/11/12518011.json", 
        "name": "Yangivab Northwest Airport"
      }
    }, 
    {
      "geometry": {
        "type": "Point", 
        "coordinates": [
          63.107899, 
          39.263802
        ]
      }, 
      "id": 12518000, 
      "properties": {
        "woe:id": 12518000, 
        "href": "/125/180/00/12518000.json", 
        "name": "Olum Airport"
      }
    }, 
    {
      "geometry": {
        "type": "Point", 
        "coordinates": [
          63.327702, 
          39.163601
        ]
      }, 
      "id": 12518001, 
      "properties": {
        "woe:id": 12518001, 
        "href": "/125/180/01/12518001.json", 
        "name": "Omar-Khodzha Airport"
      }
    }, 
    {
      "geometry": {
        "type": "Point", 
        "coordinates": [
          61.412102, 
          41.128601
        ]
      }, 
      "id": 12518002, 
      "properties": {
        "woe:id": 12518002, 
        "href": "/125/180/02/12518002.json", 
        "name": "Pitnyak Airport"
      }
    }, 
    {
      "geometry": {
        "type": "Point", 
        "coordinates": [
          60.069801, 
          41.535400
        ]
      }, 
      "id": 12518010, 
      "properties": {
        "woe:id": 12518010, 
        "href": "/125/180/10/12518010.json", 
        "name": "Yangivab Airport"
      }
    }, 
    {
      "geometry": {
        "type": "Point", 
        "coordinates": [
          58.799000, 
          39.964901
        ]
      }, 
      "id": 12518005, 
      "properties": {
        "woe:id": 12518005, 
        "href": "/125/180/05/12518005.json", 
        "name": "Sernyy Zavod Airport"
      }
    }, 
    {
      "geometry": {
        "type": "Point", 
        "coordinates": [
          61.215000, 
          36.546600
        ]
      }, 
      "id": 12518004, 
      "properties": {
        "woe:id": 12518004, 
        "href": "/125/180/04/12518004.json", 
        "name": "Serakhs Airport"
      }
    }, 
    {
      "geometry": {
        "type": "Point", 
        "coordinates": [
          62.570499, 
          35.670300
        ]
      }, 
      "id": 12517981, 
      "properties": {
        "woe:id": 12517981, 
        "href": "/125/179/81/12517981.json", 
        "name": "Kalai Mor Airport"
      }
    }, 
    {
      "geometry": {
        "type": "Point", 
        "coordinates": [
          57.709801, 
          38.261200
        ]
      }, 
      "id": 12517983, 
      "properties": {
        "woe:id": 12517983, 
        "href": "/125/179/83/12517983.json", 
        "name": "Kelyata Airport"
      }
    }, 
    {
      "geometry": {
        "type": "Point", 
        "coordinates": [
          58.846802, 
          37.831100
        ]
      }, 
      "id": 12517978, 
      "properties": {
        "woe:id": 12517978, 
        "href": "/125/179/78/12517978.json", 
        "name": "Gyaurs Agri Airport"
      }
    }, 
    {
      "geometry": {
        "type": "Point", 
        "coordinates": [
          64.393997, 
          38.442501
        ]
      }, 
      "id": 12517959, 
      "properties": {
        "woe:id": 12517959, 
        "href": "/125/179/59/12517959.json", 
        "name": "Amu Darya Airport"
      }
    }, 
    {
      "geometry": {
        "type": "Point", 
        "coordinates": [
          61.894199, 
          37.623100
        ]
      }, 
      "id": 12517997, 
      "properties": {
        "woe:id": 12517997, 
        "href": "/125/179/97/12517997.json", 
        "name": "Mary Northeast Airport", 
        "iata:code": "MYP"
      }
    }, 
    {
      "geometry": {
        "type": "Point", 
        "coordinates": [
          60.384899, 
          37.693802
        ]
      }, 
      "id": 12517991, 
      "properties": {
        "woe:id": 12517991, 
        "href": "/125/179/91/12517991.json", 
        "name": "Kirovsk Imeni Lenina Airport"
      }
    }, 
    {
      "geometry": {
        "type": "Point", 
        "coordinates": [
          59.120800, 
          38.952099
        ]
      }, 
      "id": 12517976, 
      "properties": {
        "woe:id": 12517976, 
        "href": "/125/179/76/12517976.json", 
        "name": "Geldy Bay Airport"
      }
    }, 
    {
      "geometry": {
        "type": "Point", 
        "coordinates": [
          59.830299, 
          41.760201
        ]
      }, 
      "id": 12517988, 
      "properties": {
        "woe:id": 12517988, 
        "href": "/125/179/88/12517988.json", 
        "name": "Khodzhakumbet Airport"
      }
    }, 
    {
      "geometry": {
        "type": "Point", 
        "coordinates": [
          55.232498, 
          38.024502
        ]
      }, 
      "id": 12517964, 
      "properties": {
        "woe:id": 12517964, 
        "href": "/125/179/64/12517964.json", 
        "name": "Byurgyutli Southeast Airport"
      }
    }, 
    {
      "geometry": {
        "type": "Point", 
        "coordinates": [
          53.203602, 
          39.391300
        ]
      }, 
      "id": 12517969, 
      "properties": {
        "woe:id": 12517969, 
        "href": "/125/179/69/12517969.json", 
        "name": "Cheleken East Airport"
      }
    }, 
    {
      "geometry": {
        "type": "Point", 
        "coordinates": [
          61.820999, 
          37.675400
        ]
      }, 
      "id": 12517996, 
      "properties": {
        "woe:id": 12517996, 
        "href": "/125/179/96/12517996.json", 
        "name": "Mary North Airport"
      }
    }, 
    {
      "geometry": {
        "type": "Point", 
        "coordinates": [
          54.302700, 
          39.558201
        ]
      }, 
      "id": 12517999, 
      "properties": {
        "woe:id": 12517999, 
        "href": "/125/179/99/12517999.json", 
        "name": "Nebit Dag Northwest Airport"
      }
    }, 
    {
      "geometry": {
        "type": "Point", 
        "coordinates": [
          65.010902, 
          38.107601
        ]
      }, 
      "id": 12517989, 
      "properties": {
        "woe:id": 12517989, 
        "href": "/125/179/89/12517989.json", 
        "name": "Khodzhambas Airport"
      }
    }, 
    {
      "geometry": {
        "type": "Point", 
        "coordinates": [
          58.329399, 
          37.984200
        ]
      }, 
      "id": 12517960, 
      "properties": {
        "woe:id": 12517960, 
        "href": "/125/179/60/12517960.json", 
        "name": "Ashkhabad Northwest Airport"
      }
    }, 
    {
      "geometry": {
        "type": "Point", 
        "coordinates": [
          65.960602, 
          37.805099
        ]
      }, 
      "id": 12517975, 
      "properties": {
        "woe:id": 12517975, 
        "href": "/125/179/75/12517975.json", 
        "name": "Gaurdak Airport"
      }
    }, 
    {
      "geometry": {
        "type": "Point", 
        "coordinates": [
          61.395199, 
          37.415699
        ]
      }, 
      "id": 12517987, 
      "properties": {
        "woe:id": 12517987, 
        "href": "/125/179/87/12517987.json", 
        "name": "Khauz-Khan North Airport"
      }
    }, 
    {
      "geometry": {
        "type": "Point", 
        "coordinates": [
          64.720703, 
          38.259201
        ]
      }, 
      "id": 12517961, 
      "properties": {
        "woe:id": 12517961, 
        "href": "/125/179/61/12517961.json", 
        "name": "Bashir North Airport"
      }
    }, 
    {
      "geometry": {
        "type": "Point", 
        "coordinates": [
          63.392799, 
          39.103199
        ]
      }, 
      "id": 12517965, 
      "properties": {
        "woe:id": 12517965, 
        "href": "/125/179/65/12517965.json", 
        "name": "Chardzhou West Airport"
      }
    }, 
    {
      "geometry": {
        "type": "Point", 
        "coordinates": [
          63.600101, 
          39.210400
        ]
      }, 
      "id": 12517974, 
      "properties": {
        "woe:id": 12517974, 
        "href": "/125/179/74/12517974.json", 
        "name": "Farab North Airport"
      }
    }, 
    {
      "geometry": {
        "type": "Point", 
        "coordinates": [
          57.266499, 
          41.211102
        ]
      }, 
      "id": 12517967, 
      "properties": {
        "woe:id": 12517967, 
        "href": "/125/179/67/12517967.json", 
        "name": "Charyshly 4 Airport"
      }
    }, 
    {
      "geometry": {
        "type": "Point", 
        "coordinates": [
          52.600498, 
          41.720600
        ]
      }, 
      "id": 12517962, 
      "properties": {
        "woe:id": 12517962, 
        "href": "/125/179/62/12517962.json", 
        "name": "Bekdash North Airport"
      }
    }, 
    {
      "geometry": {
        "type": "Point", 
        "coordinates": [
          63.709599, 
          38.952400
        ]
      }, 
      "id": 12517990, 
      "properties": {
        "woe:id": 12517990, 
        "href": "/125/179/90/12517990.json", 
        "name": "Khodzhayli Airport"
      }
    }, 
    {
      "geometry": {
        "type": "Point", 
        "coordinates": [
          64.726501, 
          38.144299
        ]
      }, 
      "id": 12517973, 
      "properties": {
        "woe:id": 12517973, 
        "href": "/125/179/73/12517973.json", 
        "name": "Esenmengli Airport"
      }
    }, 
    {
      "geometry": {
        "type": "Point", 
        "coordinates": [
          62.178699, 
          40.454899
        ]
      }, 
      "id": 12517970, 
      "properties": {
        "woe:id": 12517970, 
        "href": "/125/179/70/12517970.json", 
        "name": "Dargan Ata Airport"
      }
    }, 
    {
      "geometry": {
        "type": "Point", 
        "coordinates": [
          62.413502, 
          35.321201
        ]
      }, 
      "id": 12517998, 
      "properties": {
        "woe:id": 12517998, 
        "href": "/125/179/98/12517998.json", 
        "name": "Morgunovskiy Airport"
      }
    }, 
    {
      "geometry": {
        "type": "Point", 
        "coordinates": [
          54.756100, 
          37.651798
        ]
      }, 
      "id": 12517993, 
      "properties": {
        "woe:id": 12517993, 
        "href": "/125/179/93/12517993.json", 
        "name": "Kizyl Atrek West Airport"
      }
    }, 
    {
      "geometry": {
        "type": "Point", 
        "coordinates": [
          65.439301, 
          37.718800
        ]
      }, 
      "id": 12517982, 
      "properties": {
        "woe:id": 12517982, 
        "href": "/125/179/82/12517982.json", 
        "name": "Kausy Airport"
      }
    }, 
    {
      "geometry": {
        "type": "Point", 
        "coordinates": [
          58.338902, 
          40.080700
        ]
      }, 
      "id": 12517971, 
      "properties": {
        "woe:id": 12517971, 
        "href": "/125/179/71/12517971.json", 
        "name": "Darvaza Airport"
      }
    }, 
    {
      "geometry": {
        "type": "Point", 
        "coordinates": [
          58.771702, 
          37.852901
        ]
      }, 
      "id": 12517977, 
      "properties": {
        "woe:id": 12517977, 
        "href": "/125/179/77/12517977.json", 
        "name": "Gyaurs Airport"
      }
    }, 
    {
      "geometry": {
        "type": "Point", 
        "coordinates": [
          54.199799, 
          39.671600
        ]
      }, 
      "id": 12517972, 
      "properties": {
        "woe:id": 12517972, 
        "href": "/125/179/72/12517972.json", 
        "name": "Dzhebel Airport"
      }
    }, 
    {
      "geometry": {
        "type": "Point", 
        "coordinates": [
          61.233200, 
          37.304298
        ]
      }, 
      "id": 12517986, 
      "properties": {
        "woe:id": 12517986, 
        "href": "/125/179/86/12517986.json", 
        "name": "Khauz Khan Airport"
      }
    }, 
    {
      "geometry": {
        "type": "Point", 
        "coordinates": [
          54.678200, 
          37.741199
        ]
      }, 
      "id": 12517992, 
      "properties": {
        "woe:id": 12517992, 
        "href": "/125/179/92/12517992.json", 
        "name": "Kizyl Atrek Northwest Airport"
      }
    }, 
    {
      "geometry": {
        "type": "Point", 
        "coordinates": [
          65.363403, 
          37.678001
        ]
      }, 
      "id": 12517995, 
      "properties": {
        "woe:id": 12517995, 
        "href": "/125/179/95/12517995.json", 
        "name": "Kizyl-Ayak Airport"
      }
    }, 
    {
      "geometry": {
        "type": "Point", 
        "coordinates": [
          64.871002, 
          38.086300
        ]
      }, 
      "id": 12517984, 
      "properties": {
        "woe:id": 12517984, 
        "href": "/125/179/84/12517984.json", 
        "name": "Khalach Airport"
      }
    }, 
    {
      "geometry": {
        "type": "Point", 
        "coordinates": [
          57.226200, 
          41.210300
        ]
      }, 
      "id": 12517966, 
      "properties": {
        "woe:id": 12517966, 
        "href": "/125/179/66/12517966.json", 
        "name": "Charyshly 2 Airport"
      }
    }, 
    {
      "geometry": {
        "type": "Point", 
        "coordinates": [
          63.893002, 
          38.734299
        ]
      }, 
      "id": 12517968, 
      "properties": {
        "woe:id": 12517968, 
        "href": "/125/179/68/12517968.json", 
        "name": "Chauder Airport"
      }
    }, 
    {
      "geometry": {
        "type": "Point", 
        "coordinates": [
          63.645100, 
          39.148701
        ]
      }, 
      "id": 12517979, 
      "properties": {
        "woe:id": 12517979, 
        "href": "/125/179/79/12517979.json", 
        "name": "Imeni Stalina Airport"
      }
    }, 
    {
      "geometry": {
        "type": "Point", 
        "coordinates": [
          65.527702, 
          37.639801
        ]
      }, 
      "id": 12517985, 
      "properties": {
        "woe:id": 12517985, 
        "href": "/125/179/85/12517985.json", 
        "name": "Khatab Airport"
      }
    }, 
    {
      "geometry": {
        "type": "Point", 
        "coordinates": [
          58.169998, 
          38.008801
        ]
      }, 
      "id": 12517963, 
      "properties": {
        "woe:id": 12517963, 
        "href": "/125/179/63/12517963.json", 
        "name": "Bezmein Airport"
      }
    }, 
    {
      "geometry": {
        "type": "Point", 
        "coordinates": [
          62.884399, 
          39.553699
        ]
      }, 
      "id": 12517980, 
      "properties": {
        "woe:id": 12517980, 
        "href": "/125/179/80/12517980.json", 
        "name": "Ispas Airport"
      }
    }, 
    {
      "geometry": {
        "type": "Point", 
        "coordinates": [
          56.249802, 
          38.987598
        ]
      }, 
      "id": 12517994, 
      "properties": {
        "woe:id": 12517994, 
        "href": "/125/179/94/12517994.json", 
        "name": "Kizyl-Arvat Northwest Airport"
      }
    }
  ], 
  "properties": {
    "iso": "TM", 
    "woe:country": 23424972
  }
}