{
  "type": "FeatureCollection", 
  "features": [
    {
      "geometry": {
        "type": "Point", 
        "coordinates": [
          29.028759, 
          40.993559
        ]
      }, 
      "id": 23416958, 
      "properties": {
        "woe:id": 23416958, 
        "href": "/234/169/58/23416958.json", 
        "name": "Istanbul Sabiha Gokcen Airport", 
        "iata:code": "SAW"
      }
    }, 
    {
      "geometry": {
        "type": "Point", 
        "coordinates": [
          28.819079, 
          40.981488
        ]
      }, 
      "id": 23388365, 
      "properties": {
        "woe:id": 23388365, 
        "href": "/233/883/65/23388365.json", 
        "name": "Ataturk Hava Limani Airport"
      }
    }, 
    {
      "geometry": {
        "type": "Point", 
        "coordinates": [
          27.023451, 
          39.556351
        ]
      }, 
      "id": 12523443, 
      "properties": {
        "woe:id": 12523443, 
        "href": "/125/234/43/12523443.json", 
        "name": "Edremit-Korfez Airport", 
        "iata:code": "EDO"
      }
    }, 
    {
      "geometry": {
        "type": "Point", 
        "coordinates": [
          36.563320, 
          40.306278
        ]
      }, 
      "id": 12523446, 
      "properties": {
        "woe:id": 12523446, 
        "href": "/125/234/46/12523446.json", 
        "name": "Tokat Airport"
      }
    }, 
    {
      "geometry": {
        "type": "Point", 
        "coordinates": [
          41.958210, 
          37.937099
        ]
      }, 
      "id": 12523445, 
      "properties": {
        "woe:id": 12523445, 
        "href": "/125/234/45/12523445.json", 
        "name": "Siirt Airport", 
        "iata:code": "SXZ"
      }
    }, 
    {
      "geometry": {
        "type": "Point", 
        "coordinates": [
          36.966709, 
          37.539421
        ]
      }, 
      "id": 12523444, 
      "properties": {
        "woe:id": 12523444, 
        "href": "/125/234/44/12523444.json", 
        "name": "Kahramanmaras Airport", 
        "iata:code": "KCM"
      }
    }, 
    {
      "geometry": {
        "type": "Point", 
        "coordinates": [
          39.699384, 
          41.004641
        ]
      }, 
      "id": 12523250, 
      "properties": {
        "woe:id": 12523250, 
        "href": "/125/232/50/12523250.json", 
        "name": "Trabzon Air Base", 
        "iata:code": "TZX"
      }
    }, 
    {
      "geometry": {
        "type": "Point", 
        "coordinates": [
          36.299999, 
          41.283329
        ]
      }, 
      "id": 12523232, 
      "properties": {
        "woe:id": 12523232, 
        "href": "/125/232/32/12523232.json", 
        "name": "Samsun Airport", 
        "iata:code": "SSX"
      }
    }, 
    {
      "geometry": {
        "type": "Point", 
        "coordinates": [
          27.667200, 
          37.134701
        ]
      }, 
      "id": 12523294, 
      "properties": {
        "woe:id": 12523294, 
        "href": "/125/232/94/12523294.json", 
        "name": "Imsik Airport", 
        "iata:code": "BXN"
      }
    }, 
    {
      "geometry": {
        "type": "Point", 
        "coordinates": [
          40.197788, 
          37.912529
        ]
      }, 
      "id": 12517881, 
      "properties": {
        "woe:id": 12517881, 
        "href": "/125/178/81/12517881.json", 
        "name": "Diyarbakir Airport"
      }
    }, 
    {
      "geometry": {
        "type": "Point", 
        "coordinates": [
          39.297932, 
          38.609638
        ]
      }, 
      "id": 12517883, 
      "properties": {
        "woe:id": 12517883, 
        "href": "/125/178/83/12517883.json", 
        "name": "Elazig Airport"
      }
    }, 
    {
      "geometry": {
        "type": "Point", 
        "coordinates": [
          27.010799, 
          38.513302
        ]
      }, 
      "id": 12517878, 
      "properties": {
        "woe:id": 12517878, 
        "href": "/125/178/78/12517878.json", 
        "name": "Cigli Airport"
      }
    }, 
    {
      "geometry": {
        "type": "Point", 
        "coordinates": [
          35.425598, 
          37.001099
        ]
      }, 
      "id": 12517897, 
      "properties": {
        "woe:id": 12517897, 
        "href": "/125/178/97/12517897.json", 
        "name": "Incirlik Air Base"
      }
    }, 
    {
      "geometry": {
        "type": "Point", 
        "coordinates": [
          32.688099, 
          39.951698
        ]
      }, 
      "id": 12517891, 
      "properties": {
        "woe:id": 12517891, 
        "href": "/125/178/91/12517891.json", 
        "name": "Etimesgut Airport", 
        "iata:code": "ANK"
      }
    }, 
    {
      "geometry": {
        "type": "Point", 
        "coordinates": [
          29.005301, 
          40.234402
        ]
      }, 
      "id": 12517876, 
      "properties": {
        "woe:id": 12517876, 
        "href": "/125/178/76/12517876.json", 
        "name": "Bursa Airport", 
        "iata:code": "BTZ"
      }
    }, 
    {
      "geometry": {
        "type": "Point", 
        "coordinates": [
          41.178902, 
          39.961620
        ]
      }, 
      "id": 12517888, 
      "properties": {
        "woe:id": 12517888, 
        "href": "/125/178/88/12517888.json", 
        "name": "Erzurum Airport"
      }
    }, 
    {
      "geometry": {
        "type": "Point", 
        "coordinates": [
          30.800107, 
          36.912773
        ]
      }, 
      "id": 12517869, 
      "properties": {
        "woe:id": 12517869, 
        "href": "/125/178/69/12517869.json", 
        "name": "Antalya Airport", 
        "iata:code": "AYT"
      }
    }, 
    {
      "geometry": {
        "type": "Point", 
        "coordinates": [
          25.893101, 
          40.206902
        ]
      }, 
      "id": 12517896, 
      "properties": {
        "woe:id": 12517896, 
        "href": "/125/178/96/12517896.json", 
        "name": "Imroz Airport"
      }
    }, 
    {
      "geometry": {
        "type": "Point", 
        "coordinates": [
          26.977800, 
          38.518902
        ]
      }, 
      "id": 12517899, 
      "properties": {
        "woe:id": 12517899, 
        "href": "/125/178/99/12517899.json", 
        "name": "Kaklic Airport", 
        "iata:code": "IGL"
      }
    }, 
    {
      "geometry": {
        "type": "Point", 
        "coordinates": [
          32.994850, 
          40.122652
        ]
      }, 
      "id": 12517889, 
      "properties": {
        "woe:id": 12517889, 
        "href": "/125/178/89/12517889.json", 
        "name": "Esenboga Airport"
      }
    }, 
    {
      "geometry": {
        "type": "Point", 
        "coordinates": [
          38.364399, 
          38.468300
        ]
      }, 
      "id": 12517875, 
      "properties": {
        "woe:id": 12517875, 
        "href": "/125/178/75/12517875.json", 
        "name": "Borankoy Airport"
      }
    }, 
    {
      "geometry": {
        "type": "Point", 
        "coordinates": [
          39.516899, 
          39.711700
        ]
      }, 
      "id": 12517887, 
      "properties": {
        "woe:id": 12517887, 
        "href": "/125/178/87/12517887.json", 
        "name": "Erzincan Airport", 
        "iata:code": "ERC"
      }
    }, 
    {
      "geometry": {
        "type": "Point", 
        "coordinates": [
          27.143280, 
          38.295818
        ]
      }, 
      "id": 12517865, 
      "properties": {
        "woe:id": 12517865, 
        "href": "/125/178/65/12517865.json", 
        "name": "Adnan Menderes Airport"
      }
    }, 
    {
      "geometry": {
        "type": "Point", 
        "coordinates": [
          31.650600, 
          40.749199
        ]
      }, 
      "id": 12517874, 
      "properties": {
        "woe:id": 12517874, 
        "href": "/125/178/74/12517874.json", 
        "name": "Bolu Airport"
      }
    }, 
    {
      "geometry": {
        "type": "Point", 
        "coordinates": [
          27.834999, 
          38.805000
        ]
      }, 
      "id": 12517867, 
      "properties": {
        "woe:id": 12517867, 
        "href": "/125/178/67/12517867.json", 
        "name": "Akhisar Airport"
      }
    }, 
    {
      "geometry": {
        "type": "Point", 
        "coordinates": [
          30.584400, 
          39.785599
        ]
      }, 
      "id": 12517890, 
      "properties": {
        "woe:id": 12517890, 
        "href": "/125/178/90/12517890.json", 
        "name": "Eskisehir Airport", 
        "iata:code": "ESK"
      }
    }, 
    {
      "geometry": {
        "type": "Point", 
        "coordinates": [
          41.116699, 
          37.930000
        ]
      }, 
      "id": 12517873, 
      "properties": {
        "woe:id": 12517873, 
        "href": "/125/178/73/12517873.json", 
        "name": "Batman Airport", 
        "iata:code": "BAL"
      }
    }, 
    {
      "geometry": {
        "type": "Point", 
        "coordinates": [
          30.592800, 
          37.782200
        ]
      }, 
      "id": 12517898, 
      "properties": {
        "woe:id": 12517898, 
        "href": "/125/178/98/12517898.json", 
        "name": "Isparta Airport"
      }
    }, 
    {
      "geometry": {
        "type": "Point", 
        "coordinates": [
          27.160299, 
          38.320000
        ]
      }, 
      "id": 12517893, 
      "properties": {
        "woe:id": 12517893, 
        "href": "/125/178/93/12517893.json", 
        "name": "Gaziemir Airport", 
        "iata:code": "ADB"
      }
    }, 
    {
      "geometry": {
        "type": "Point", 
        "coordinates": [
          39.966702, 
          38.014999
        ]
      }, 
      "id": 12517882, 
      "properties": {
        "woe:id": 12517882, 
        "href": "/125/178/82/12517882.json", 
        "name": "Diyarbakir Northwest Airport"
      }
    }, 
    {
      "geometry": {
        "type": "Point", 
        "coordinates": [
          27.926399, 
          39.619202
        ]
      }, 
      "id": 12517871, 
      "properties": {
        "woe:id": 12517871, 
        "href": "/125/178/71/12517871.json", 
        "name": "Balikesir Airport", 
        "iata:code": "BZI"
      }
    }, 
    {
      "geometry": {
        "type": "Point", 
        "coordinates": [
          29.690590, 
          37.773842
        ]
      }, 
      "id": 12517877, 
      "properties": {
        "woe:id": 12517877, 
        "href": "/125/178/77/12517877.json", 
        "name": "Cardak Airport"
      }
    }, 
    {
      "geometry": {
        "type": "Point", 
        "coordinates": [
          27.978300, 
          40.316898
        ]
      }, 
      "id": 12517872, 
      "properties": {
        "woe:id": 12517872, 
        "href": "/125/178/72/12517872.json", 
        "name": "Bandirma Airport", 
        "iata:code": "BDM"
      }
    }, 
    {
      "geometry": {
        "type": "Point", 
        "coordinates": [
          35.481819, 
          38.764118
        ]
      }, 
      "id": 12517886, 
      "properties": {
        "woe:id": 12517886, 
        "href": "/125/178/86/12517886.json", 
        "name": "Erkilet Airport", 
        "iata:code": "ASR"
      }
    }, 
    {
      "geometry": {
        "type": "Point", 
        "coordinates": [
          37.464500, 
          36.946190
        ]
      }, 
      "id": 12517892, 
      "properties": {
        "woe:id": 12517892, 
        "href": "/125/178/92/12517892.json", 
        "name": "Gaziantep Airport"
      }
    }, 
    {
      "geometry": {
        "type": "Point", 
        "coordinates": [
          41.363800, 
          40.085300
        ]
      }, 
      "id": 12517895, 
      "properties": {
        "woe:id": 12517895, 
        "href": "/125/178/95/12517895.json", 
        "name": "Hins Airport"
      }
    }, 
    {
      "geometry": {
        "type": "Point", 
        "coordinates": [
          31.420200, 
          41.257301
        ]
      }, 
      "id": 12517884, 
      "properties": {
        "woe:id": 12517884, 
        "href": "/125/178/84/12517884.json", 
        "name": "Eregli Airport"
      }
    }, 
    {
      "geometry": {
        "type": "Point", 
        "coordinates": [
          30.602501, 
          38.727501
        ]
      }, 
      "id": 12517866, 
      "properties": {
        "woe:id": 12517866, 
        "href": "/125/178/66/12517866.json", 
        "name": "Afyon Airport", 
        "iata:code": "AFY"
      }
    }, 
    {
      "geometry": {
        "type": "Point", 
        "coordinates": [
          27.848600, 
          38.974201
        ]
      }, 
      "id": 12517868, 
      "properties": {
        "woe:id": 12517868, 
        "href": "/125/178/68/12517868.json", 
        "name": "Akhisar Tsa Airport"
      }
    }, 
    {
      "geometry": {
        "type": "Point", 
        "coordinates": [
          27.913900, 
          41.133301
        ]
      }, 
      "id": 12517879, 
      "properties": {
        "woe:id": 12517879, 
        "href": "/125/178/79/12517879.json", 
        "name": "Corlu Airport"
      }
    }, 
    {
      "geometry": {
        "type": "Point", 
        "coordinates": [
          38.104679, 
          38.439522
        ]
      }, 
      "id": 12517885, 
      "properties": {
        "woe:id": 12517885, 
        "href": "/125/178/85/12517885.json", 
        "name": "Erhac Airport", 
        "iata:code": "MLX"
      }
    }, 
    {
      "geometry": {
        "type": "Point", 
        "coordinates": [
          28.794189, 
          36.731331
        ]
      }, 
      "id": 12517880, 
      "properties": {
        "woe:id": 12517880, 
        "href": "/125/178/80/12517880.json", 
        "name": "Dalaman Airport", 
        "iata:code": "DLM"
      }
    }, 
    {
      "geometry": {
        "type": "Point", 
        "coordinates": [
          32.750000, 
          39.938900
        ]
      }, 
      "id": 12517894, 
      "properties": {
        "woe:id": 12517894, 
        "href": "/125/178/94/12517894.json", 
        "name": "Guvercinlik Airport"
      }
    }, 
    {
      "geometry": {
        "type": "Point", 
        "coordinates": [
          30.528170, 
          39.812832
        ]
      }, 
      "id": 12523341, 
      "properties": {
        "woe:id": 12523341, 
        "href": "/125/233/41/12523341.json", 
        "name": "Anadolu University Airport", 
        "iata:code": "AOE"
      }
    }, 
    {
      "geometry": {
        "type": "Point", 
        "coordinates": [
          43.061829, 
          39.723911
        ]
      }, 
      "id": 12523340, 
      "properties": {
        "woe:id": 12523340, 
        "href": "/125/233/40/12523340.json", 
        "name": "Agri Airport", 
        "iata:code": "AJI"
      }
    }, 
    {
      "geometry": {
        "type": "Point", 
        "coordinates": [
          32.565800, 
          40.079700
        ]
      }, 
      "id": 12517908, 
      "properties": {
        "woe:id": 12517908, 
        "href": "/125/179/08/12517908.json", 
        "name": "Murted Airport"
      }
    }, 
    {
      "geometry": {
        "type": "Point", 
        "coordinates": [
          32.578442, 
          37.983688
        ]
      }, 
      "id": 12517903, 
      "properties": {
        "woe:id": 12517903, 
        "href": "/125/179/03/12517903.json", 
        "name": "Konya Airport"
      }
    }, 
    {
      "geometry": {
        "type": "Point", 
        "coordinates": [
          38.253101, 
          38.353901
        ]
      }, 
      "id": 12517907, 
      "properties": {
        "woe:id": 12517907, 
        "href": "/125/179/07/12517907.json", 
        "name": "Malatya Airport"
      }
    }, 
    {
      "geometry": {
        "type": "Point", 
        "coordinates": [
          31.366400, 
          39.453300
        ]
      }, 
      "id": 12517915, 
      "properties": {
        "woe:id": 12517915, 
        "href": "/125/179/15/12517915.json", 
        "name": "Sivrihisar Airport"
      }
    }, 
    {
      "geometry": {
        "type": "Point", 
        "coordinates": [
          41.658901, 
          38.747200
        ]
      }, 
      "id": 12517909, 
      "properties": {
        "woe:id": 12517909, 
        "href": "/125/179/09/12517909.json", 
        "name": "Mus Airport", 
        "iata:code": "MSR"
      }
    }, 
    {
      "geometry": {
        "type": "Point", 
        "coordinates": [
          29.336100, 
          40.825001
        ]
      }, 
      "id": 12517919, 
      "properties": {
        "woe:id": 12517919, 
        "href": "/125/179/19/12517919.json", 
        "name": "Tuzla Airport"
      }
    }, 
    {
      "geometry": {
        "type": "Point", 
        "coordinates": [
          29.216700, 
          40.993599
        ]
      }, 
      "id": 12517912, 
      "properties": {
        "woe:id": 12517912, 
        "href": "/125/179/12/12517912.json", 
        "name": "Samandira Airport"
      }
    }, 
    {
      "geometry": {
        "type": "Point", 
        "coordinates": [
          42.332500, 
          38.542500
        ]
      }, 
      "id": 12517916, 
      "properties": {
        "woe:id": 12517916, 
        "href": "/125/179/16/12517916.json", 
        "name": "Tatvan Airport"
      }
    }, 
    {
      "geometry": {
        "type": "Point", 
        "coordinates": [
          30.048300, 
          39.419998
        ]
      }, 
      "id": 12517906, 
      "properties": {
        "woe:id": 12517906, 
        "href": "/125/179/06/12517906.json", 
        "name": "Kutahya Airport"
      }
    }, 
    {
      "geometry": {
        "type": "Point", 
        "coordinates": [
          44.312500, 
          37.557499
        ]
      }, 
      "id": 12517923, 
      "properties": {
        "woe:id": 12517923, 
        "href": "/125/179/23/12517923.json", 
        "name": "Yuksekova Highway Strip Airport"
      }
    }, 
    {
      "geometry": {
        "type": "Point", 
        "coordinates": [
          35.298389, 
          36.983799
        ]
      }, 
      "id": 12517911, 
      "properties": {
        "woe:id": 12517911, 
        "href": "/125/179/11/12517911.json", 
        "name": "Sakirpasa Airport", 
        "iata:code": "ADA"
      }
    }, 
    {
      "geometry": {
        "type": "Point", 
        "coordinates": [
          32.377800, 
          39.740299
        ]
      }, 
      "id": 12517917, 
      "properties": {
        "woe:id": 12517917, 
        "href": "/125/179/17/12517917.json", 
        "name": "Temelli Airport"
      }
    }, 
    {
      "geometry": {
        "type": "Point", 
        "coordinates": [
          43.091099, 
          40.561199
        ]
      }, 
      "id": 12517900, 
      "properties": {
        "woe:id": 12517900, 
        "href": "/125/179/00/12517900.json", 
        "name": "Kars Southeast Airport"
      }
    }, 
    {
      "geometry": {
        "type": "Point", 
        "coordinates": [
          36.893009, 
          39.799580
        ]
      }, 
      "id": 12517914, 
      "properties": {
        "woe:id": 12517914, 
        "href": "/125/179/14/12517914.json", 
        "name": "Sivas Airport", 
        "iata:code": "VAS"
      }
    }, 
    {
      "geometry": {
        "type": "Point", 
        "coordinates": [
          30.083300, 
          40.736099
        ]
      }, 
      "id": 12517918, 
      "properties": {
        "woe:id": 12517918, 
        "href": "/125/179/18/12517918.json", 
        "name": "Topel Airport"
      }
    }, 
    {
      "geometry": {
        "type": "Point", 
        "coordinates": [
          43.067501, 
          40.582802
        ]
      }, 
      "id": 12517901, 
      "properties": {
        "woe:id": 12517901, 
        "href": "/125/179/01/12517901.json", 
        "name": "Kars (abandoned) Airport", 
        "iata:code": "KSY"
      }
    }, 
    {
      "geometry": {
        "type": "Point", 
        "coordinates": [
          26.605801, 
          40.786098
        ]
      }, 
      "id": 12517902, 
      "properties": {
        "woe:id": 12517902, 
        "href": "/125/179/02/12517902.json", 
        "name": "Kesan Airport"
      }
    }, 
    {
      "geometry": {
        "type": "Point", 
        "coordinates": [
          43.338020, 
          38.468891
        ]
      }, 
      "id": 12517920, 
      "properties": {
        "woe:id": 12517920, 
        "href": "/125/179/20/12517920.json", 
        "name": "Van Airport"
      }
    }, 
    {
      "geometry": {
        "type": "Point", 
        "coordinates": [
          38.842201, 
          37.101398
        ]
      }, 
      "id": 12517913, 
      "properties": {
        "woe:id": 12517913, 
        "href": "/125/179/13/12517913.json", 
        "name": "Sanliurfa Airport"
      }
    }, 
    {
      "geometry": {
        "type": "Point", 
        "coordinates": [
          41.472198, 
          38.784698
        ]
      }, 
      "id": 12517910, 
      "properties": {
        "woe:id": 12517910, 
        "href": "/125/179/10/12517910.json", 
        "name": "Mus West Airport"
      }
    }, 
    {
      "geometry": {
        "type": "Point", 
        "coordinates": [
          30.006901, 
          40.762501
        ]
      }, 
      "id": 12517905, 
      "properties": {
        "woe:id": 12517905, 
        "href": "/125/179/05/12517905.json", 
        "name": "Kosekoy Airport"
      }
    }, 
    {
      "geometry": {
        "type": "Point", 
        "coordinates": [
          32.458900, 
          37.861099
        ]
      }, 
      "id": 12517904, 
      "properties": {
        "woe:id": 12517904, 
        "href": "/125/179/04/12517904.json", 
        "name": "Konya West Airport"
      }
    }, 
    {
      "geometry": {
        "type": "Point", 
        "coordinates": [
          29.377800, 
          40.686100
        ]
      }, 
      "id": 12517921, 
      "properties": {
        "woe:id": 12517921, 
        "href": "/125/179/21/12517921.json", 
        "name": "Yalova Airport"
      }
    }, 
    {
      "geometry": {
        "type": "Point", 
        "coordinates": [
          29.544920, 
          40.259010
        ]
      }, 
      "id": 12517922, 
      "properties": {
        "woe:id": 12517922, 
        "href": "/125/179/22/12517922.json", 
        "name": "Yenisehir Airport"
      }
    }, 
    {
      "geometry": {
        "type": "Point", 
        "coordinates": [
          27.436220, 
          37.041309
        ]
      }, 
      "id": 12523053, 
      "properties": {
        "woe:id": 12523053, 
        "href": "/125/230/53/12523053.json", 
        "name": "Milas Airport", 
        "iata:code": "BJV"
      }
    }, 
    {
      "geometry": {
        "type": "Point", 
        "coordinates": [
          29.100000, 
          37.766670
        ]
      }, 
      "id": 12523098, 
      "properties": {
        "woe:id": 12523098, 
        "href": "/125/230/98/12523098.json", 
        "name": "Cardak Airport", 
        "iata:code": "DNZ"
      }
    }, 
    {
      "geometry": {
        "type": "Point", 
        "coordinates": [
          38.904919, 
          37.445332
        ]
      }, 
      "id": 56049778, 
      "properties": {
        "woe:id": 56049778, 
        "href": "/560/497/78/56049778.json", 
        "name": "Sanliurfa Gap Havaalani"
      }
    }, 
    {
      "geometry": {
        "type": "Point", 
        "coordinates": [
          27.673410, 
          37.240490
        ]
      }, 
      "id": 56049776, 
      "properties": {
        "woe:id": 56049776, 
        "href": "/560/497/76/56049776.json", 
        "name": "Milas-Bodrum Hava Limani"
      }
    }, 
    {
      "geometry": {
        "type": "Point", 
        "coordinates": [
          26.424629, 
          40.139820
        ]
      }, 
      "id": 56049775, 
      "properties": {
        "woe:id": 56049775, 
        "href": "/560/497/75/56049775.json", 
        "name": "Canakkale Havaalani"
      }
    }, 
    {
      "geometry": {
        "type": "Point", 
        "coordinates": [
          36.552170, 
          41.254631
        ]
      }, 
      "id": 56049777, 
      "properties": {
        "woe:id": 56049777, 
        "href": "/560/497/77/56049777.json", 
        "name": "Samsun Carsamba Havaalani"
      }
    }, 
    {
      "geometry": {
        "type": "Point", 
        "coordinates": [
          29.310760, 
          40.907089
        ]
      }, 
      "id": 56049779, 
      "properties": {
        "woe:id": 56049779, 
        "href": "/560/497/79/56049779.json", 
        "name": "Sabiha Gokcen Havaalani"
      }
    }
  ], 
  "properties": {
    "iso": "TR", 
    "woe:country": 23424969
  }
}