{
  "type": "FeatureCollection", 
  "features": [
    {
      "geometry": {
        "type": "Point", 
        "coordinates": [
          29.029, 
          40.994
        ]
      }, 
      "id": 23416958, 
      "properties": {
        "woe:id": 23416958, 
        "href": "/234/169/58/23416958.json", 
        "name": "Istanbul Sabiha Gokcen Airport", 
        "iata:code": "SAW"
      }
    }, 
    {
      "geometry": {
        "type": "Point", 
        "coordinates": [
          28.819, 
          40.981
        ]
      }, 
      "id": 23388365, 
      "properties": {
        "woe:id": 23388365, 
        "href": "/233/883/65/23388365.json", 
        "name": "Ataturk Hava Limani Airport"
      }
    }, 
    {
      "geometry": {
        "type": "Point", 
        "coordinates": [
          27.023, 
          39.556
        ]
      }, 
      "id": 12523443, 
      "properties": {
        "woe:id": 12523443, 
        "href": "/125/234/43/12523443.json", 
        "name": "Edremit-Korfez Airport", 
        "iata:code": "EDO"
      }
    }, 
    {
      "geometry": {
        "type": "Point", 
        "coordinates": [
          36.563, 
          40.306
        ]
      }, 
      "id": 12523446, 
      "properties": {
        "woe:id": 12523446, 
        "href": "/125/234/46/12523446.json", 
        "name": "Tokat Airport"
      }
    }, 
    {
      "geometry": {
        "type": "Point", 
        "coordinates": [
          41.958, 
          37.937
        ]
      }, 
      "id": 12523445, 
      "properties": {
        "woe:id": 12523445, 
        "href": "/125/234/45/12523445.json", 
        "name": "Siirt Airport", 
        "iata:code": "SXZ"
      }
    }, 
    {
      "geometry": {
        "type": "Point", 
        "coordinates": [
          36.967, 
          37.539
        ]
      }, 
      "id": 12523444, 
      "properties": {
        "woe:id": 12523444, 
        "href": "/125/234/44/12523444.json", 
        "name": "Kahramanmaras Airport", 
        "iata:code": "KCM"
      }
    }, 
    {
      "geometry": {
        "type": "Point", 
        "coordinates": [
          39.699, 
          41.005
        ]
      }, 
      "id": 12523250, 
      "properties": {
        "woe:id": 12523250, 
        "href": "/125/232/50/12523250.json", 
        "name": "Trabzon Air Base", 
        "iata:code": "TZX"
      }
    }, 
    {
      "geometry": {
        "type": "Point", 
        "coordinates": [
          36.300, 
          41.283
        ]
      }, 
      "id": 12523232, 
      "properties": {
        "woe:id": 12523232, 
        "href": "/125/232/32/12523232.json", 
        "name": "Samsun Airport", 
        "iata:code": "SSX"
      }
    }, 
    {
      "geometry": {
        "type": "Point", 
        "coordinates": [
          27.667, 
          37.135
        ]
      }, 
      "id": 12523294, 
      "properties": {
        "woe:id": 12523294, 
        "href": "/125/232/94/12523294.json", 
        "name": "Imsik Airport", 
        "iata:code": "BXN"
      }
    }, 
    {
      "geometry": {
        "type": "Point", 
        "coordinates": [
          40.198, 
          37.913
        ]
      }, 
      "id": 12517881, 
      "properties": {
        "woe:id": 12517881, 
        "href": "/125/178/81/12517881.json", 
        "name": "Diyarbakir Airport"
      }
    }, 
    {
      "geometry": {
        "type": "Point", 
        "coordinates": [
          39.298, 
          38.610
        ]
      }, 
      "id": 12517883, 
      "properties": {
        "woe:id": 12517883, 
        "href": "/125/178/83/12517883.json", 
        "name": "Elazig Airport"
      }
    }, 
    {
      "geometry": {
        "type": "Point", 
        "coordinates": [
          27.011, 
          38.513
        ]
      }, 
      "id": 12517878, 
      "properties": {
        "woe:id": 12517878, 
        "href": "/125/178/78/12517878.json", 
        "name": "Cigli Airport"
      }
    }, 
    {
      "geometry": {
        "type": "Point", 
        "coordinates": [
          35.426, 
          37.001
        ]
      }, 
      "id": 12517897, 
      "properties": {
        "woe:id": 12517897, 
        "href": "/125/178/97/12517897.json", 
        "name": "Incirlik Air Base"
      }
    }, 
    {
      "geometry": {
        "type": "Point", 
        "coordinates": [
          32.688, 
          39.952
        ]
      }, 
      "id": 12517891, 
      "properties": {
        "woe:id": 12517891, 
        "href": "/125/178/91/12517891.json", 
        "name": "Etimesgut Airport", 
        "iata:code": "ANK"
      }
    }, 
    {
      "geometry": {
        "type": "Point", 
        "coordinates": [
          29.005, 
          40.234
        ]
      }, 
      "id": 12517876, 
      "properties": {
        "woe:id": 12517876, 
        "href": "/125/178/76/12517876.json", 
        "name": "Bursa Airport", 
        "iata:code": "BTZ"
      }
    }, 
    {
      "geometry": {
        "type": "Point", 
        "coordinates": [
          41.179, 
          39.962
        ]
      }, 
      "id": 12517888, 
      "properties": {
        "woe:id": 12517888, 
        "href": "/125/178/88/12517888.json", 
        "name": "Erzurum Airport"
      }
    }, 
    {
      "geometry": {
        "type": "Point", 
        "coordinates": [
          30.800, 
          36.913
        ]
      }, 
      "id": 12517869, 
      "properties": {
        "woe:id": 12517869, 
        "href": "/125/178/69/12517869.json", 
        "name": "Antalya Airport", 
        "iata:code": "AYT"
      }
    }, 
    {
      "geometry": {
        "type": "Point", 
        "coordinates": [
          25.893, 
          40.207
        ]
      }, 
      "id": 12517896, 
      "properties": {
        "woe:id": 12517896, 
        "href": "/125/178/96/12517896.json", 
        "name": "Imroz Airport"
      }
    }, 
    {
      "geometry": {
        "type": "Point", 
        "coordinates": [
          26.978, 
          38.519
        ]
      }, 
      "id": 12517899, 
      "properties": {
        "woe:id": 12517899, 
        "href": "/125/178/99/12517899.json", 
        "name": "Kaklic Airport", 
        "iata:code": "IGL"
      }
    }, 
    {
      "geometry": {
        "type": "Point", 
        "coordinates": [
          32.995, 
          40.123
        ]
      }, 
      "id": 12517889, 
      "properties": {
        "woe:id": 12517889, 
        "href": "/125/178/89/12517889.json", 
        "name": "Esenboga Airport"
      }
    }, 
    {
      "geometry": {
        "type": "Point", 
        "coordinates": [
          38.364, 
          38.468
        ]
      }, 
      "id": 12517875, 
      "properties": {
        "woe:id": 12517875, 
        "href": "/125/178/75/12517875.json", 
        "name": "Borankoy Airport"
      }
    }, 
    {
      "geometry": {
        "type": "Point", 
        "coordinates": [
          39.517, 
          39.712
        ]
      }, 
      "id": 12517887, 
      "properties": {
        "woe:id": 12517887, 
        "href": "/125/178/87/12517887.json", 
        "name": "Erzincan Airport", 
        "iata:code": "ERC"
      }
    }, 
    {
      "geometry": {
        "type": "Point", 
        "coordinates": [
          27.143, 
          38.296
        ]
      }, 
      "id": 12517865, 
      "properties": {
        "woe:id": 12517865, 
        "href": "/125/178/65/12517865.json", 
        "name": "Adnan Menderes Airport"
      }
    }, 
    {
      "geometry": {
        "type": "Point", 
        "coordinates": [
          31.651, 
          40.749
        ]
      }, 
      "id": 12517874, 
      "properties": {
        "woe:id": 12517874, 
        "href": "/125/178/74/12517874.json", 
        "name": "Bolu Airport"
      }
    }, 
    {
      "geometry": {
        "type": "Point", 
        "coordinates": [
          27.835, 
          38.805
        ]
      }, 
      "id": 12517867, 
      "properties": {
        "woe:id": 12517867, 
        "href": "/125/178/67/12517867.json", 
        "name": "Akhisar Airport"
      }
    }, 
    {
      "geometry": {
        "type": "Point", 
        "coordinates": [
          30.584, 
          39.786
        ]
      }, 
      "id": 12517890, 
      "properties": {
        "woe:id": 12517890, 
        "href": "/125/178/90/12517890.json", 
        "name": "Eskisehir Airport", 
        "iata:code": "ESK"
      }
    }, 
    {
      "geometry": {
        "type": "Point", 
        "coordinates": [
          41.117, 
          37.930
        ]
      }, 
      "id": 12517873, 
      "properties": {
        "woe:id": 12517873, 
        "href": "/125/178/73/12517873.json", 
        "name": "Batman Airport", 
        "iata:code": "BAL"
      }
    }, 
    {
      "geometry": {
        "type": "Point", 
        "coordinates": [
          30.593, 
          37.782
        ]
      }, 
      "id": 12517898, 
      "properties": {
        "woe:id": 12517898, 
        "href": "/125/178/98/12517898.json", 
        "name": "Isparta Airport"
      }
    }, 
    {
      "geometry": {
        "type": "Point", 
        "coordinates": [
          27.160, 
          38.320
        ]
      }, 
      "id": 12517893, 
      "properties": {
        "woe:id": 12517893, 
        "href": "/125/178/93/12517893.json", 
        "name": "Gaziemir Airport", 
        "iata:code": "ADB"
      }
    }, 
    {
      "geometry": {
        "type": "Point", 
        "coordinates": [
          39.967, 
          38.015
        ]
      }, 
      "id": 12517882, 
      "properties": {
        "woe:id": 12517882, 
        "href": "/125/178/82/12517882.json", 
        "name": "Diyarbakir Northwest Airport"
      }
    }, 
    {
      "geometry": {
        "type": "Point", 
        "coordinates": [
          27.926, 
          39.619
        ]
      }, 
      "id": 12517871, 
      "properties": {
        "woe:id": 12517871, 
        "href": "/125/178/71/12517871.json", 
        "name": "Balikesir Airport", 
        "iata:code": "BZI"
      }
    }, 
    {
      "geometry": {
        "type": "Point", 
        "coordinates": [
          29.691, 
          37.774
        ]
      }, 
      "id": 12517877, 
      "properties": {
        "woe:id": 12517877, 
        "href": "/125/178/77/12517877.json", 
        "name": "Cardak Airport"
      }
    }, 
    {
      "geometry": {
        "type": "Point", 
        "coordinates": [
          27.978, 
          40.317
        ]
      }, 
      "id": 12517872, 
      "properties": {
        "woe:id": 12517872, 
        "href": "/125/178/72/12517872.json", 
        "name": "Bandirma Airport", 
        "iata:code": "BDM"
      }
    }, 
    {
      "geometry": {
        "type": "Point", 
        "coordinates": [
          35.482, 
          38.764
        ]
      }, 
      "id": 12517886, 
      "properties": {
        "woe:id": 12517886, 
        "href": "/125/178/86/12517886.json", 
        "name": "Erkilet Airport", 
        "iata:code": "ASR"
      }
    }, 
    {
      "geometry": {
        "type": "Point", 
        "coordinates": [
          37.465, 
          36.946
        ]
      }, 
      "id": 12517892, 
      "properties": {
        "woe:id": 12517892, 
        "href": "/125/178/92/12517892.json", 
        "name": "Gaziantep Airport"
      }
    }, 
    {
      "geometry": {
        "type": "Point", 
        "coordinates": [
          41.364, 
          40.085
        ]
      }, 
      "id": 12517895, 
      "properties": {
        "woe:id": 12517895, 
        "href": "/125/178/95/12517895.json", 
        "name": "Hins Airport"
      }
    }, 
    {
      "geometry": {
        "type": "Point", 
        "coordinates": [
          31.420, 
          41.257
        ]
      }, 
      "id": 12517884, 
      "properties": {
        "woe:id": 12517884, 
        "href": "/125/178/84/12517884.json", 
        "name": "Eregli Airport"
      }
    }, 
    {
      "geometry": {
        "type": "Point", 
        "coordinates": [
          30.603, 
          38.728
        ]
      }, 
      "id": 12517866, 
      "properties": {
        "woe:id": 12517866, 
        "href": "/125/178/66/12517866.json", 
        "name": "Afyon Airport", 
        "iata:code": "AFY"
      }
    }, 
    {
      "geometry": {
        "type": "Point", 
        "coordinates": [
          27.849, 
          38.974
        ]
      }, 
      "id": 12517868, 
      "properties": {
        "woe:id": 12517868, 
        "href": "/125/178/68/12517868.json", 
        "name": "Akhisar Tsa Airport"
      }
    }, 
    {
      "geometry": {
        "type": "Point", 
        "coordinates": [
          27.914, 
          41.133
        ]
      }, 
      "id": 12517879, 
      "properties": {
        "woe:id": 12517879, 
        "href": "/125/178/79/12517879.json", 
        "name": "Corlu Airport"
      }
    }, 
    {
      "geometry": {
        "type": "Point", 
        "coordinates": [
          38.105, 
          38.440
        ]
      }, 
      "id": 12517885, 
      "properties": {
        "woe:id": 12517885, 
        "href": "/125/178/85/12517885.json", 
        "name": "Erhac Airport", 
        "iata:code": "MLX"
      }
    }, 
    {
      "geometry": {
        "type": "Point", 
        "coordinates": [
          28.794, 
          36.731
        ]
      }, 
      "id": 12517880, 
      "properties": {
        "woe:id": 12517880, 
        "href": "/125/178/80/12517880.json", 
        "name": "Dalaman Airport", 
        "iata:code": "DLM"
      }
    }, 
    {
      "geometry": {
        "type": "Point", 
        "coordinates": [
          32.750, 
          39.939
        ]
      }, 
      "id": 12517894, 
      "properties": {
        "woe:id": 12517894, 
        "href": "/125/178/94/12517894.json", 
        "name": "Guvercinlik Airport"
      }
    }, 
    {
      "geometry": {
        "type": "Point", 
        "coordinates": [
          30.528, 
          39.813
        ]
      }, 
      "id": 12523341, 
      "properties": {
        "woe:id": 12523341, 
        "href": "/125/233/41/12523341.json", 
        "name": "Anadolu University Airport", 
        "iata:code": "AOE"
      }
    }, 
    {
      "geometry": {
        "type": "Point", 
        "coordinates": [
          43.062, 
          39.724
        ]
      }, 
      "id": 12523340, 
      "properties": {
        "woe:id": 12523340, 
        "href": "/125/233/40/12523340.json", 
        "name": "Agri Airport", 
        "iata:code": "AJI"
      }
    }, 
    {
      "geometry": {
        "type": "Point", 
        "coordinates": [
          32.566, 
          40.080
        ]
      }, 
      "id": 12517908, 
      "properties": {
        "woe:id": 12517908, 
        "href": "/125/179/08/12517908.json", 
        "name": "Murted Airport"
      }
    }, 
    {
      "geometry": {
        "type": "Point", 
        "coordinates": [
          32.578, 
          37.984
        ]
      }, 
      "id": 12517903, 
      "properties": {
        "woe:id": 12517903, 
        "href": "/125/179/03/12517903.json", 
        "name": "Konya Airport"
      }
    }, 
    {
      "geometry": {
        "type": "Point", 
        "coordinates": [
          38.253, 
          38.354
        ]
      }, 
      "id": 12517907, 
      "properties": {
        "woe:id": 12517907, 
        "href": "/125/179/07/12517907.json", 
        "name": "Malatya Airport"
      }
    }, 
    {
      "geometry": {
        "type": "Point", 
        "coordinates": [
          31.366, 
          39.453
        ]
      }, 
      "id": 12517915, 
      "properties": {
        "woe:id": 12517915, 
        "href": "/125/179/15/12517915.json", 
        "name": "Sivrihisar Airport"
      }
    }, 
    {
      "geometry": {
        "type": "Point", 
        "coordinates": [
          41.659, 
          38.747
        ]
      }, 
      "id": 12517909, 
      "properties": {
        "woe:id": 12517909, 
        "href": "/125/179/09/12517909.json", 
        "name": "Mus Airport", 
        "iata:code": "MSR"
      }
    }, 
    {
      "geometry": {
        "type": "Point", 
        "coordinates": [
          29.336, 
          40.825
        ]
      }, 
      "id": 12517919, 
      "properties": {
        "woe:id": 12517919, 
        "href": "/125/179/19/12517919.json", 
        "name": "Tuzla Airport"
      }
    }, 
    {
      "geometry": {
        "type": "Point", 
        "coordinates": [
          29.217, 
          40.994
        ]
      }, 
      "id": 12517912, 
      "properties": {
        "woe:id": 12517912, 
        "href": "/125/179/12/12517912.json", 
        "name": "Samandira Airport"
      }
    }, 
    {
      "geometry": {
        "type": "Point", 
        "coordinates": [
          42.333, 
          38.542
        ]
      }, 
      "id": 12517916, 
      "properties": {
        "woe:id": 12517916, 
        "href": "/125/179/16/12517916.json", 
        "name": "Tatvan Airport"
      }
    }, 
    {
      "geometry": {
        "type": "Point", 
        "coordinates": [
          30.048, 
          39.420
        ]
      }, 
      "id": 12517906, 
      "properties": {
        "woe:id": 12517906, 
        "href": "/125/179/06/12517906.json", 
        "name": "Kutahya Airport"
      }
    }, 
    {
      "geometry": {
        "type": "Point", 
        "coordinates": [
          44.312, 
          37.557
        ]
      }, 
      "id": 12517923, 
      "properties": {
        "woe:id": 12517923, 
        "href": "/125/179/23/12517923.json", 
        "name": "Yuksekova Highway Strip Airport"
      }
    }, 
    {
      "geometry": {
        "type": "Point", 
        "coordinates": [
          35.298, 
          36.984
        ]
      }, 
      "id": 12517911, 
      "properties": {
        "woe:id": 12517911, 
        "href": "/125/179/11/12517911.json", 
        "name": "Sakirpasa Airport", 
        "iata:code": "ADA"
      }
    }, 
    {
      "geometry": {
        "type": "Point", 
        "coordinates": [
          32.378, 
          39.740
        ]
      }, 
      "id": 12517917, 
      "properties": {
        "woe:id": 12517917, 
        "href": "/125/179/17/12517917.json", 
        "name": "Temelli Airport"
      }
    }, 
    {
      "geometry": {
        "type": "Point", 
        "coordinates": [
          43.091, 
          40.561
        ]
      }, 
      "id": 12517900, 
      "properties": {
        "woe:id": 12517900, 
        "href": "/125/179/00/12517900.json", 
        "name": "Kars Southeast Airport"
      }
    }, 
    {
      "geometry": {
        "type": "Point", 
        "coordinates": [
          36.893, 
          39.800
        ]
      }, 
      "id": 12517914, 
      "properties": {
        "woe:id": 12517914, 
        "href": "/125/179/14/12517914.json", 
        "name": "Sivas Airport", 
        "iata:code": "VAS"
      }
    }, 
    {
      "geometry": {
        "type": "Point", 
        "coordinates": [
          30.083, 
          40.736
        ]
      }, 
      "id": 12517918, 
      "properties": {
        "woe:id": 12517918, 
        "href": "/125/179/18/12517918.json", 
        "name": "Topel Airport"
      }
    }, 
    {
      "geometry": {
        "type": "Point", 
        "coordinates": [
          43.068, 
          40.583
        ]
      }, 
      "id": 12517901, 
      "properties": {
        "woe:id": 12517901, 
        "href": "/125/179/01/12517901.json", 
        "name": "Kars (abandoned) Airport", 
        "iata:code": "KSY"
      }
    }, 
    {
      "geometry": {
        "type": "Point", 
        "coordinates": [
          26.606, 
          40.786
        ]
      }, 
      "id": 12517902, 
      "properties": {
        "woe:id": 12517902, 
        "href": "/125/179/02/12517902.json", 
        "name": "Kesan Airport"
      }
    }, 
    {
      "geometry": {
        "type": "Point", 
        "coordinates": [
          43.338, 
          38.469
        ]
      }, 
      "id": 12517920, 
      "properties": {
        "woe:id": 12517920, 
        "href": "/125/179/20/12517920.json", 
        "name": "Van Airport"
      }
    }, 
    {
      "geometry": {
        "type": "Point", 
        "coordinates": [
          38.842, 
          37.101
        ]
      }, 
      "id": 12517913, 
      "properties": {
        "woe:id": 12517913, 
        "href": "/125/179/13/12517913.json", 
        "name": "Sanliurfa Airport"
      }
    }, 
    {
      "geometry": {
        "type": "Point", 
        "coordinates": [
          41.472, 
          38.785
        ]
      }, 
      "id": 12517910, 
      "properties": {
        "woe:id": 12517910, 
        "href": "/125/179/10/12517910.json", 
        "name": "Mus West Airport"
      }
    }, 
    {
      "geometry": {
        "type": "Point", 
        "coordinates": [
          30.007, 
          40.763
        ]
      }, 
      "id": 12517905, 
      "properties": {
        "woe:id": 12517905, 
        "href": "/125/179/05/12517905.json", 
        "name": "Kosekoy Airport"
      }
    }, 
    {
      "geometry": {
        "type": "Point", 
        "coordinates": [
          32.459, 
          37.861
        ]
      }, 
      "id": 12517904, 
      "properties": {
        "woe:id": 12517904, 
        "href": "/125/179/04/12517904.json", 
        "name": "Konya West Airport"
      }
    }, 
    {
      "geometry": {
        "type": "Point", 
        "coordinates": [
          29.378, 
          40.686
        ]
      }, 
      "id": 12517921, 
      "properties": {
        "woe:id": 12517921, 
        "href": "/125/179/21/12517921.json", 
        "name": "Yalova Airport"
      }
    }, 
    {
      "geometry": {
        "type": "Point", 
        "coordinates": [
          29.545, 
          40.259
        ]
      }, 
      "id": 12517922, 
      "properties": {
        "woe:id": 12517922, 
        "href": "/125/179/22/12517922.json", 
        "name": "Yenisehir Airport"
      }
    }, 
    {
      "geometry": {
        "type": "Point", 
        "coordinates": [
          27.436, 
          37.041
        ]
      }, 
      "id": 12523053, 
      "properties": {
        "woe:id": 12523053, 
        "href": "/125/230/53/12523053.json", 
        "name": "Milas Airport", 
        "iata:code": "BJV"
      }
    }, 
    {
      "geometry": {
        "type": "Point", 
        "coordinates": [
          29.100, 
          37.767
        ]
      }, 
      "id": 12523098, 
      "properties": {
        "woe:id": 12523098, 
        "href": "/125/230/98/12523098.json", 
        "name": "Cardak Airport", 
        "iata:code": "DNZ"
      }
    }, 
    {
      "geometry": {
        "type": "Point", 
        "coordinates": [
          38.905, 
          37.445
        ]
      }, 
      "id": 56049778, 
      "properties": {
        "woe:id": 56049778, 
        "href": "/560/497/78/56049778.json", 
        "name": "Sanliurfa Gap Havaalani"
      }
    }, 
    {
      "geometry": {
        "type": "Point", 
        "coordinates": [
          27.673, 
          37.240
        ]
      }, 
      "id": 56049776, 
      "properties": {
        "woe:id": 56049776, 
        "href": "/560/497/76/56049776.json", 
        "name": "Milas-Bodrum Hava Limani"
      }
    }, 
    {
      "geometry": {
        "type": "Point", 
        "coordinates": [
          26.425, 
          40.140
        ]
      }, 
      "id": 56049775, 
      "properties": {
        "woe:id": 56049775, 
        "href": "/560/497/75/56049775.json", 
        "name": "Canakkale Havaalani"
      }
    }, 
    {
      "geometry": {
        "type": "Point", 
        "coordinates": [
          36.552, 
          41.255
        ]
      }, 
      "id": 56049777, 
      "properties": {
        "woe:id": 56049777, 
        "href": "/560/497/77/56049777.json", 
        "name": "Samsun Carsamba Havaalani"
      }
    }, 
    {
      "geometry": {
        "type": "Point", 
        "coordinates": [
          29.311, 
          40.907
        ]
      }, 
      "id": 56049779, 
      "properties": {
        "woe:id": 56049779, 
        "href": "/560/497/79/56049779.json", 
        "name": "Sabiha Gokcen Havaalani"
      }
    }
  ], 
  "properties": {
    "iso": "TR", 
    "woe:country": 23424969
  }
}