{
  "type": "FeatureCollection", 
  "features": [
    {
      "geometry": {
        "type": "Point", 
        "coordinates": [
          109.199997, 
          12.233330
        ]
      }, 
      "id": 12523189, 
      "properties": {
        "woe:id": 12523189, 
        "href": "/125/231/89/12523189.json", 
        "name": "Nha-Trang Airport", 
        "iata:code": "NHA"
      }
    }, 
    {
      "geometry": {
        "type": "Point", 
        "coordinates": [
          109.220596, 
          11.991700
        ]
      }, 
      "id": 12522881, 
      "properties": {
        "woe:id": 12522881, 
        "href": "/125/228/81/12522881.json", 
        "name": "Cam Ranh Bay Airport"
      }
    }, 
    {
      "geometry": {
        "type": "Point", 
        "coordinates": [
          105.764000, 
          10.050700
        ]
      }, 
      "id": 12522883, 
      "properties": {
        "woe:id": 12522883, 
        "href": "/125/228/83/12522883.json", 
        "name": "Can Tho Airport"
      }
    }, 
    {
      "geometry": {
        "type": "Point", 
        "coordinates": [
          108.229500, 
          13.188000
        ]
      }, 
      "id": 12522878, 
      "properties": {
        "woe:id": 12522878, 
        "href": "/125/228/78/12522878.json", 
        "name": "Buon Blech Airport"
      }
    }, 
    {
      "geometry": {
        "type": "Point", 
        "coordinates": [
          106.288696, 
          10.348000
        ]
      }, 
      "id": 12522897, 
      "properties": {
        "woe:id": 12522897, 
        "href": "/125/228/97/12522897.json", 
        "name": "Dong Tam Airport"
      }
    }, 
    {
      "geometry": {
        "type": "Point", 
        "coordinates": [
          109.131104, 
          15.378400
        ]
      }, 
      "id": 12522891, 
      "properties": {
        "woe:id": 12522891, 
        "href": "/125/228/91/12522891.json", 
        "name": "Cu Lao Re Airport"
      }
    }, 
    {
      "geometry": {
        "type": "Point", 
        "coordinates": [
          107.461899, 
          12.202800
        ]
      }, 
      "id": 12522876, 
      "properties": {
        "woe:id": 12522876, 
        "href": "/125/228/76/12522876.json", 
        "name": "Bu Prang Airport"
      }
    }, 
    {
      "geometry": {
        "type": "Point", 
        "coordinates": [
          108.685512, 
          15.410752
        ]
      }, 
      "id": 12522888, 
      "properties": {
        "woe:id": 12522888, 
        "href": "/125/228/88/12522888.json", 
        "name": "Chu Lai Airport"
      }
    }, 
    {
      "geometry": {
        "type": "Point", 
        "coordinates": [
          109.141998, 
          13.864700
        ]
      }, 
      "id": 12522864, 
      "properties": {
        "woe:id": 12522864, 
        "href": "/125/228/64/12522864.json", 
        "name": "Ba Gi Airport"
      }
    }, 
    {
      "geometry": {
        "type": "Point", 
        "coordinates": [
          108.053101, 
          12.682300
        ]
      }, 
      "id": 12522869, 
      "properties": {
        "woe:id": 12522869, 
        "href": "/125/228/69/12522869.json", 
        "name": "Ban Me Thuot City Airport"
      }
    }, 
    {
      "geometry": {
        "type": "Point", 
        "coordinates": [
          105.477501, 
          10.863300
        ]
      }, 
      "id": 12522896, 
      "properties": {
        "woe:id": 12522896, 
        "href": "/125/228/96/12522896.json", 
        "name": "Don Phuoc Airport"
      }
    }, 
    {
      "geometry": {
        "type": "Point", 
        "coordinates": [
          106.887901, 
          11.527700
        ]
      }, 
      "id": 12522899, 
      "properties": {
        "woe:id": 12522899, 
        "href": "/125/228/99/12522899.json", 
        "name": "Dong Xoai Airport"
      }
    }, 
    {
      "geometry": {
        "type": "Point", 
        "coordinates": [
          106.627800, 
          8.730700
        ]
      }, 
      "id": 12522889, 
      "properties": {
        "woe:id": 12522889, 
        "href": "/125/228/89/12522889.json", 
        "name": "Conson Airport"
      }
    }, 
    {
      "geometry": {
        "type": "Point", 
        "coordinates": [
          107.290001, 
          12.262000
        ]
      }, 
      "id": 12522875, 
      "properties": {
        "woe:id": 12522875, 
        "href": "/125/228/75/12522875.json", 
        "name": "Bu Krak Airport"
      }
    }, 
    {
      "geometry": {
        "type": "Point", 
        "coordinates": [
          106.749901, 
          11.513100
        ]
      }, 
      "id": 12522887, 
      "properties": {
        "woe:id": 12522887, 
        "href": "/125/228/87/12522887.json", 
        "name": "Chi Linh Airport"
      }
    }, 
    {
      "geometry": {
        "type": "Point", 
        "coordinates": [
          108.724602, 
          14.751500
        ]
      }, 
      "id": 12522865, 
      "properties": {
        "woe:id": 12522865, 
        "href": "/125/228/65/12522865.json", 
        "name": "Ba To New Airport"
      }
    }, 
    {
      "geometry": {
        "type": "Point", 
        "coordinates": [
          105.713303, 
          10.086100
        ]
      }, 
      "id": 12522874, 
      "properties": {
        "woe:id": 12522874, 
        "href": "/125/228/74/12522874.json", 
        "name": "Binh Thuy Airport"
      }
    }, 
    {
      "geometry": {
        "type": "Point", 
        "coordinates": [
          105.461998, 
          19.901501
        ]
      }, 
      "id": 12522867, 
      "properties": {
        "woe:id": 12522867, 
        "href": "/125/228/67/12522867.json", 
        "name": "Bai Thuong Airport"
      }
    }, 
    {
      "geometry": {
        "type": "Point", 
        "coordinates": [
          108.080002, 
          15.786900
        ]
      }, 
      "id": 12522862, 
      "properties": {
        "woe:id": 12522862, 
        "href": "/125/228/62/12522862.json", 
        "name": "An Hoa Airport"
      }
    }, 
    {
      "geometry": {
        "type": "Point", 
        "coordinates": [
          106.505203, 
          10.989200
        ]
      }, 
      "id": 12522890, 
      "properties": {
        "woe:id": 12522890, 
        "href": "/125/228/90/12522890.json", 
        "name": "Cu Chi Airport"
      }
    }, 
    {
      "geometry": {
        "type": "Point", 
        "coordinates": [
          105.789299, 
          10.896100
        ]
      }, 
      "id": 12522873, 
      "properties": {
        "woe:id": 12522873, 
        "href": "/125/228/73/12522873.json", 
        "name": "Binh Thanh Thon Airport"
      }
    }, 
    {
      "geometry": {
        "type": "Point", 
        "coordinates": [
          108.111702, 
          12.660300
        ]
      }, 
      "id": 12522870, 
      "properties": {
        "woe:id": 12522870, 
        "href": "/125/228/70/12522870.json", 
        "name": "Ban Me Thuot East Airport"
      }
    }, 
    {
      "geometry": {
        "type": "Point", 
        "coordinates": [
          109.060501, 
          13.304000
        ]
      }, 
      "id": 12522898, 
      "properties": {
        "woe:id": 12522898, 
        "href": "/125/228/98/12522898.json", 
        "name": "Dong Tre Airport"
      }
    }, 
    {
      "geometry": {
        "type": "Point", 
        "coordinates": [
          107.785698, 
          14.651200
        ]
      }, 
      "id": 12522893, 
      "properties": {
        "woe:id": 12522893, 
        "href": "/125/228/93/12522893.json", 
        "name": "Dak To 2 Airport"
      }
    }, 
    {
      "geometry": {
        "type": "Point", 
        "coordinates": [
          108.409500, 
          11.950000
        ]
      }, 
      "id": 12522882, 
      "properties": {
        "woe:id": 12522882, 
        "href": "/125/228/82/12522882.json", 
        "name": "Cam-Ly Airport"
      }
    }, 
    {
      "geometry": {
        "type": "Point", 
        "coordinates": [
          107.806000, 
          11.569200
        ]
      }, 
      "id": 12522871, 
      "properties": {
        "woe:id": 12522871, 
        "href": "/125/228/71/12522871.json", 
        "name": "Bao Lock Airport"
      }
    }, 
    {
      "geometry": {
        "type": "Point", 
        "coordinates": [
          107.086601, 
          11.646700
        ]
      }, 
      "id": 12522877, 
      "properties": {
        "woe:id": 12522877, 
        "href": "/125/228/77/12522877.json", 
        "name": "Bunard Airport"
      }
    }, 
    {
      "geometry": {
        "type": "Point", 
        "coordinates": [
          106.351097, 
          10.357700
        ]
      }, 
      "id": 12522872, 
      "properties": {
        "woe:id": 12522872, 
        "href": "/125/228/72/12522872.json", 
        "name": "Binh Duc Airport"
      }
    }, 
    {
      "geometry": {
        "type": "Point", 
        "coordinates": [
          108.435204, 
          13.389500
        ]
      }, 
      "id": 12522886, 
      "properties": {
        "woe:id": 12522886, 
        "href": "/125/228/86/12522886.json", 
        "name": "Cheo Reo Airport"
      }
    }, 
    {
      "geometry": {
        "type": "Point", 
        "coordinates": [
          107.685799, 
          14.655100
        ]
      }, 
      "id": 12522892, 
      "properties": {
        "woe:id": 12522892, 
        "href": "/125/228/92/12522892.json", 
        "name": "Dak Seang Airport"
      }
    }, 
    {
      "geometry": {
        "type": "Point", 
        "coordinates": [
          103.007004, 
          21.399599
        ]
      }, 
      "id": 12522895, 
      "properties": {
        "woe:id": 12522895, 
        "href": "/125/228/95/12522895.json", 
        "name": "Dien Bien Phu Airport"
      }
    }, 
    {
      "geometry": {
        "type": "Point", 
        "coordinates": [
          104.636497, 
          10.256800
        ]
      }, 
      "id": 12522884, 
      "properties": {
        "woe:id": 12522884, 
        "href": "/125/228/84/12522884.json", 
        "name": "Cement Plant Airport"
      }
    }, 
    {
      "geometry": {
        "type": "Point", 
        "coordinates": [
          105.837196, 
          20.990400
        ]
      }, 
      "id": 12522866, 
      "properties": {
        "woe:id": 12522866, 
        "href": "/125/228/66/12522866.json", 
        "name": "Bac Mai Airport"
      }
    }, 
    {
      "geometry": {
        "type": "Point", 
        "coordinates": [
          108.325798, 
          15.763500
        ]
      }, 
      "id": 12522868, 
      "properties": {
        "woe:id": 12522868, 
        "href": "/125/228/68/12522868.json", 
        "name": "Baldy Airport"
      }
    }, 
    {
      "geometry": {
        "type": "Point", 
        "coordinates": [
          107.969498, 
          12.296400
        ]
      }, 
      "id": 12522879, 
      "properties": {
        "woe:id": 12522879, 
        "href": "/125/228/79/12522879.json", 
        "name": "Buon Tsukl Airport"
      }
    }, 
    {
      "geometry": {
        "type": "Point", 
        "coordinates": [
          105.144897, 
          10.682900
        ]
      }, 
      "id": 12522885, 
      "properties": {
        "woe:id": 12522885, 
        "href": "/125/228/85/12522885.json", 
        "name": "Chau Duc Airport"
      }
    }, 
    {
      "geometry": {
        "type": "Point", 
        "coordinates": [
          108.657097, 
          13.960400
        ]
      }, 
      "id": 12522863, 
      "properties": {
        "woe:id": 12522863, 
        "href": "/125/228/63/12522863.json", 
        "name": "An Khe Airport"
      }
    }, 
    {
      "geometry": {
        "type": "Point", 
        "coordinates": [
          109.213203, 
          11.901900
        ]
      }, 
      "id": 12522880, 
      "properties": {
        "woe:id": 12522880, 
        "href": "/125/228/80/12522880.json", 
        "name": "Cam Ranh Airport"
      }
    }, 
    {
      "geometry": {
        "type": "Point", 
        "coordinates": [
          106.737900, 
          10.906700
        ]
      }, 
      "id": 12522894, 
      "properties": {
        "woe:id": 12522894, 
        "href": "/125/228/94/12522894.json", 
        "name": "Di An Airport"
      }
    }, 
    {
      "geometry": {
        "type": "Point", 
        "coordinates": [
          108.561401, 
          14.699000
        ]
      }, 
      "id": 12522908, 
      "properties": {
        "woe:id": 12522908, 
        "href": "/125/229/08/12522908.json", 
        "name": "Gia Vuc Airport"
      }
    }, 
    {
      "geometry": {
        "type": "Point", 
        "coordinates": [
          107.670898, 
          12.420700
        ]
      }, 
      "id": 12522903, 
      "properties": {
        "woe:id": 12522903, 
        "href": "/125/229/03/12522903.json", 
        "name": "Duc Lap Airport"
      }
    }, 
    {
      "geometry": {
        "type": "Point", 
        "coordinates": [
          108.488297, 
          11.253800
        ]
      }, 
      "id": 12522953, 
      "properties": {
        "woe:id": 12522953, 
        "href": "/125/229/53/12522953.json", 
        "name": "Song Mao Airport"
      }
    }, 
    {
      "geometry": {
        "type": "Point", 
        "coordinates": [
          106.701302, 
          10.993500
        ]
      }, 
      "id": 12522941, 
      "properties": {
        "woe:id": 12522941, 
        "href": "/125/229/41/12522941.json", 
        "name": "Phu Loi Airport"
      }
    }, 
    {
      "geometry": {
        "type": "Point", 
        "coordinates": [
          107.803398, 
          14.393600
        ]
      }, 
      "id": 12522948, 
      "properties": {
        "woe:id": 12522948, 
        "href": "/125/229/48/12522948.json", 
        "name": "Polei Kleng Airport"
      }
    }, 
    {
      "geometry": {
        "type": "Point", 
        "coordinates": [
          108.069397, 
          10.901800
        ]
      }, 
      "id": 12522938, 
      "properties": {
        "woe:id": 12522938, 
        "href": "/125/229/38/12522938.json", 
        "name": "Phan Thiet Airport", 
        "iata:code": "PHH"
      }
    }, 
    {
      "geometry": {
        "type": "Point", 
        "coordinates": [
          103.959577, 
          10.223274
        ]
      }, 
      "id": 12522907, 
      "properties": {
        "woe:id": 12522907, 
        "href": "/125/229/07/12522907.json", 
        "name": "Duong Dong Airport", 
        "iata:code": "PQC"
      }
    }, 
    {
      "geometry": {
        "type": "Point", 
        "coordinates": [
          105.987099, 
          11.588200
        ]
      }, 
      "id": 12522959, 
      "properties": {
        "woe:id": 12522959, 
        "href": "/125/229/59/12522959.json", 
        "name": "Thien Ngon Airport"
      }
    }, 
    {
      "geometry": {
        "type": "Point", 
        "coordinates": [
          108.694000, 
          13.202600
        ]
      }, 
      "id": 12522942, 
      "properties": {
        "woe:id": 12522942, 
        "href": "/125/229/42/12522942.json", 
        "name": "Phu Tuc Airport"
      }
    }, 
    {
      "geometry": {
        "type": "Point", 
        "coordinates": [
          106.585999, 
          11.830200
        ]
      }, 
      "id": 12522925, 
      "properties": {
        "woe:id": 12522925, 
        "href": "/125/229/25/12522925.json", 
        "name": "Loc Ninh Airport"
      }
    }, 
    {
      "geometry": {
        "type": "Point", 
        "coordinates": [
          107.724297, 
          10.691700
        ]
      }, 
      "id": 12522915, 
      "properties": {
        "woe:id": 12522915, 
        "href": "/125/229/15/12522915.json", 
        "name": "Ham Tan Airport"
      }
    }, 
    {
      "geometry": {
        "type": "Point", 
        "coordinates": [
          105.891273, 
          21.039160
        ]
      }, 
      "id": 12522909, 
      "properties": {
        "woe:id": 12522909, 
        "href": "/125/229/09/12522909.json", 
        "name": "Ha Noi Gia Lam Airport"
      }
    }, 
    {
      "geometry": {
        "type": "Point", 
        "coordinates": [
          106.268997, 
          21.398100
        ]
      }, 
      "id": 12522919, 
      "properties": {
        "woe:id": 12522919, 
        "href": "/125/229/19/12522919.json", 
        "name": "Kep Airport"
      }
    }, 
    {
      "geometry": {
        "type": "Point", 
        "coordinates": [
          104.461304, 
          10.399500
        ]
      }, 
      "id": 12522912, 
      "properties": {
        "woe:id": 12522912, 
        "href": "/125/229/12/12522912.json", 
        "name": "Ha Tien Airport"
      }
    }, 
    {
      "geometry": {
        "type": "Point", 
        "coordinates": [
          106.343597, 
          10.268600
        ]
      }, 
      "id": 12522964, 
      "properties": {
        "woe:id": 12522964, 
        "href": "/125/229/64/12522964.json", 
        "name": "Truc Giang Airport"
      }
    }, 
    {
      "geometry": {
        "type": "Point", 
        "coordinates": [
          108.703796, 
          14.925500
        ]
      }, 
      "id": 12522931, 
      "properties": {
        "woe:id": 12522931, 
        "href": "/125/229/31/12522931.json", 
        "name": "Minh Long Airport"
      }
    }, 
    {
      "geometry": {
        "type": "Point", 
        "coordinates": [
          108.037697, 
          13.854900
        ]
      }, 
      "id": 12522916, 
      "properties": {
        "woe:id": 12522916, 
        "href": "/125/229/16/12522916.json", 
        "name": "Hensel Airport"
      }
    }, 
    {
      "geometry": {
        "type": "Point", 
        "coordinates": [
          105.471497, 
          10.323300
        ]
      }, 
      "id": 12522928, 
      "properties": {
        "woe:id": 12522928, 
        "href": "/125/229/28/12522928.json", 
        "name": "Long Xuyen Airport"
      }
    }, 
    {
      "geometry": {
        "type": "Point", 
        "coordinates": [
          108.779999, 
          14.110400
        ]
      }, 
      "id": 12522969, 
      "properties": {
        "woe:id": 12522969, 
        "href": "/125/229/69/12522969.json", 
        "name": "Vinh Thanh Airport"
      }
    }, 
    {
      "geometry": {
        "type": "Point", 
        "coordinates": [
          107.227501, 
          11.783600
        ]
      }, 
      "id": 12522906, 
      "properties": {
        "woe:id": 12522906, 
        "href": "/125/229/06/12522906.json", 
        "name": "Duc Phong Airport"
      }
    }, 
    {
      "geometry": {
        "type": "Point", 
        "coordinates": [
          106.619400, 
          11.195900
        ]
      }, 
      "id": 12522923, 
      "properties": {
        "woe:id": 12522923, 
        "href": "/125/229/23/12522923.json", 
        "name": "Lai Khe Airport"
      }
    }, 
    {
      "geometry": {
        "type": "Point", 
        "coordinates": [
          104.983200, 
          8.754600
        ]
      }, 
      "id": 12522935, 
      "properties": {
        "woe:id": 12522935, 
        "href": "/125/229/35/12522935.json", 
        "name": "Nam Can Airport"
      }
    }, 
    {
      "geometry": {
        "type": "Point", 
        "coordinates": [
          108.376999, 
          11.750100
        ]
      }, 
      "id": 12522924, 
      "properties": {
        "woe:id": 12522924, 
        "href": "/125/229/24/12522924.json", 
        "name": "Lien Khuong Airport", 
        "iata:code": "DLI"
      }
    }, 
    {
      "geometry": {
        "type": "Point", 
        "coordinates": [
          106.172401, 
          10.651700
        ]
      }, 
      "id": 12522960, 
      "properties": {
        "woe:id": 12522960, 
        "href": "/125/229/60/12522960.json", 
        "name": "Thuy Dong Airport"
      }
    }, 
    {
      "geometry": {
        "type": "Point", 
        "coordinates": [
          107.213600, 
          10.404900
        ]
      }, 
      "id": 12522926, 
      "properties": {
        "woe:id": 12522926, 
        "href": "/125/229/26/12522926.json", 
        "name": "Long Hai Airport"
      }
    }, 
    {
      "geometry": {
        "type": "Point", 
        "coordinates": [
          108.563599, 
          15.084800
        ]
      }, 
      "id": 12522911, 
      "properties": {
        "woe:id": 12522911, 
        "href": "/125/229/11/12522911.json", 
        "name": "Ha Thanh Airport"
      }
    }, 
    {
      "geometry": {
        "type": "Point", 
        "coordinates": [
          105.500198, 
          21.028200
        ]
      }, 
      "id": 12522917, 
      "properties": {
        "woe:id": 12522917, 
        "href": "/125/229/17/12522917.json", 
        "name": "Hoa Lac Airport"
      }
    }, 
    {
      "geometry": {
        "type": "Point", 
        "coordinates": [
          109.038200, 
          13.951100
        ]
      }, 
      "id": 12522939, 
      "properties": {
        "woe:id": 12522939, 
        "href": "/125/229/39/12522939.json", 
        "name": "Phu Cat Airport"
      }
    }, 
    {
      "geometry": {
        "type": "Point", 
        "coordinates": [
          107.869598, 
          13.798500
        ]
      }, 
      "id": 12522937, 
      "properties": {
        "woe:id": 12522937, 
        "href": "/125/229/37/12522937.json", 
        "name": "Oasis Airport"
      }
    }, 
    {
      "geometry": {
        "type": "Point", 
        "coordinates": [
          109.376701, 
          12.986500
        ]
      }, 
      "id": 12522940, 
      "properties": {
        "woe:id": 12522940, 
        "href": "/125/229/40/12522940.json", 
        "name": "Phu Hiep Airport"
      }
    }, 
    {
      "geometry": {
        "type": "Point", 
        "coordinates": [
          106.966301, 
          10.833000
        ]
      }, 
      "id": 12522927, 
      "properties": {
        "woe:id": 12522927, 
        "href": "/125/229/27/12522927.json", 
        "name": "Long Thanh North Airport"
      }
    }, 
    {
      "geometry": {
        "type": "Point", 
        "coordinates": [
          108.311600, 
          15.487300
        ]
      }, 
      "id": 12522961, 
      "properties": {
        "woe:id": 12522961, 
        "href": "/125/229/61/12522961.json", 
        "name": "Tien Phuoc Airport"
      }
    }, 
    {
      "geometry": {
        "type": "Point", 
        "coordinates": [
          109.287697, 
          13.093800
        ]
      }, 
      "id": 12522965, 
      "properties": {
        "woe:id": 12522965, 
        "href": "/125/229/65/12522965.json", 
        "name": "Tuy Hoa North Airport"
      }
    }, 
    {
      "geometry": {
        "type": "Point", 
        "coordinates": [
          107.839401, 
          11.570700
        ]
      }, 
      "id": 12522955, 
      "properties": {
        "woe:id": 12522955, 
        "href": "/125/229/55/12522955.json", 
        "name": "Tan Phat Airport"
      }
    }, 
    {
      "geometry": {
        "type": "Point", 
        "coordinates": [
          105.674797, 
          18.742901
        ]
      }, 
      "id": 12522967, 
      "properties": {
        "woe:id": 12522967, 
        "href": "/125/229/67/12522967.json", 
        "name": "Vinh Airport"
      }
    }, 
    {
      "geometry": {
        "type": "Point", 
        "coordinates": [
          106.480202, 
          11.580600
        ]
      }, 
      "id": 12522962, 
      "properties": {
        "woe:id": 12522962, 
        "href": "/125/229/62/12522962.json", 
        "name": "Tonle Cham Airport"
      }
    }, 
    {
      "geometry": {
        "type": "Point", 
        "coordinates": [
          107.625397, 
          13.784600
        ]
      }, 
      "id": 12522900, 
      "properties": {
        "woe:id": 12522900, 
        "href": "/125/229/00/12522900.json", 
        "name": "Duc Co Airport"
      }
    }, 
    {
      "geometry": {
        "type": "Point", 
        "coordinates": [
          106.605797, 
          20.807501
        ]
      }, 
      "id": 12522914, 
      "properties": {
        "woe:id": 12522914, 
        "href": "/125/229/14/12522914.json", 
        "name": "Hai Phong Kien An Airport"
      }
    }, 
    {
      "geometry": {
        "type": "Point", 
        "coordinates": [
          107.699699, 
          16.398800
        ]
      }, 
      "id": 12522918, 
      "properties": {
        "woe:id": 12522918, 
        "href": "/125/229/18/12522918.json", 
        "name": "Hue-Phu Bai Airport", 
        "iata:code": "HUI"
      }
    }, 
    {
      "geometry": {
        "type": "Point", 
        "coordinates": [
          106.452400, 
          10.828000
        ]
      }, 
      "id": 12522901, 
      "properties": {
        "woe:id": 12522901, 
        "href": "/125/229/01/12522901.json", 
        "name": "Duc Hoa Airport"
      }
    }, 
    {
      "geometry": {
        "type": "Point", 
        "coordinates": [
          105.947502, 
          9.582300
        ]
      }, 
      "id": 12522950, 
      "properties": {
        "woe:id": 12522950, 
        "href": "/125/229/50/12522950.json", 
        "name": "Soc Trang Airport"
      }
    }, 
    {
      "geometry": {
        "type": "Point", 
        "coordinates": [
          108.255302, 
          16.021700
        ]
      }, 
      "id": 12522930, 
      "properties": {
        "woe:id": 12522930, 
        "href": "/125/229/30/12522930.json", 
        "name": "Marble Mountain Airport"
      }
    }, 
    {
      "geometry": {
        "type": "Point", 
        "coordinates": [
          107.252602, 
          10.920000
        ]
      }, 
      "id": 12522970, 
      "properties": {
        "woe:id": 12522970, 
        "href": "/125/229/70/12522970.json", 
        "name": "Xuan Loc Airport"
      }
    }, 
    {
      "geometry": {
        "type": "Point", 
        "coordinates": [
          106.204697, 
          10.927600
        ]
      }, 
      "id": 12522902, 
      "properties": {
        "woe:id": 12522902, 
        "href": "/125/229/02/12522902.json", 
        "name": "Duc Hue Airport"
      }
    }, 
    {
      "geometry": {
        "type": "Point", 
        "coordinates": [
          106.784500, 
          11.294000
        ]
      }, 
      "id": 12522943, 
      "properties": {
        "woe:id": 12522943, 
        "href": "/125/229/43/12522943.json", 
        "name": "Phuoc Vinh Airport"
      }
    }, 
    {
      "geometry": {
        "type": "Point", 
        "coordinates": [
          108.127098, 
          13.807700
        ]
      }, 
      "id": 12522946, 
      "properties": {
        "woe:id": 12522946, 
        "href": "/125/229/46/12522946.json", 
        "name": "Plei do Lim Airport"
      }
    }, 
    {
      "geometry": {
        "type": "Point", 
        "coordinates": [
          108.190300, 
          14.837000
        ]
      }, 
      "id": 12522929, 
      "properties": {
        "woe:id": 12522929, 
        "href": "/125/229/29/12522929.json", 
        "name": "Mang Buk Airport"
      }
    }, 
    {
      "geometry": {
        "type": "Point", 
        "coordinates": [
          105.935898, 
          10.762600
        ]
      }, 
      "id": 12522933, 
      "properties": {
        "woe:id": 12522933, 
        "href": "/125/229/33/12522933.json", 
        "name": "Moc Hoa Airport"
      }
    }, 
    {
      "geometry": {
        "type": "Point", 
        "coordinates": [
          108.040802, 
          13.974700
        ]
      }, 
      "id": 12522947, 
      "properties": {
        "woe:id": 12522947, 
        "href": "/125/229/47/12522947.json", 
        "name": "Pleiku Area Airport"
      }
    }, 
    {
      "geometry": {
        "type": "Point", 
        "coordinates": [
          107.643501, 
          13.964700
        ]
      }, 
      "id": 12522945, 
      "properties": {
        "woe:id": 12522945, 
        "href": "/125/229/45/12522945.json", 
        "name": "Plei Djereng Airport"
      }
    }, 
    {
      "geometry": {
        "type": "Point", 
        "coordinates": [
          109.221100, 
          13.462700
        ]
      }, 
      "id": 12522952, 
      "properties": {
        "woe:id": 12522952, 
        "href": "/125/229/52/12522952.json", 
        "name": "Song Cau Airport"
      }
    }, 
    {
      "geometry": {
        "type": "Point", 
        "coordinates": [
          107.792297, 
          15.433600
        ]
      }, 
      "id": 12522920, 
      "properties": {
        "woe:id": 12522920, 
        "href": "/125/229/20/12522920.json", 
        "name": "Kham Duc Airport"
      }
    }, 
    {
      "geometry": {
        "type": "Point", 
        "coordinates": [
          106.726402, 
          20.819201
        ]
      }, 
      "id": 12522913, 
      "properties": {
        "woe:id": 12522913, 
        "href": "/125/229/13/12522913.json", 
        "name": "Hai Phong Cat Bi Airport", 
        "iata:code": "HPH"
      }
    }, 
    {
      "geometry": {
        "type": "Point", 
        "coordinates": [
          106.962303, 
          11.809700
        ]
      }, 
      "id": 12522951, 
      "properties": {
        "woe:id": 12522951, 
        "href": "/125/229/51/12522951.json", 
        "name": "Song Be Airport"
      }
    }, 
    {
      "geometry": {
        "type": "Point", 
        "coordinates": [
          108.981400, 
          13.625200
        ]
      }, 
      "id": 12522966, 
      "properties": {
        "woe:id": 12522966, 
        "href": "/125/229/66/12522966.json", 
        "name": "Van Canh Airport"
      }
    }, 
    {
      "geometry": {
        "type": "Point", 
        "coordinates": [
          104.036400, 
          21.216000
        ]
      }, 
      "id": 12522934, 
      "properties": {
        "woe:id": 12522934, 
        "href": "/125/229/34/12522934.json", 
        "name": "Na San Airport"
      }
    }, 
    {
      "geometry": {
        "type": "Point", 
        "coordinates": [
          108.484703, 
          15.529400
        ]
      }, 
      "id": 12522954, 
      "properties": {
        "woe:id": 12522954, 
        "href": "/125/229/54/12522954.json", 
        "name": "Tam Ky Airport"
      }
    }, 
    {
      "geometry": {
        "type": "Point", 
        "coordinates": [
          105.947899, 
          10.247200
        ]
      }, 
      "id": 12522968, 
      "properties": {
        "woe:id": 12522968, 
        "href": "/125/229/68/12522968.json", 
        "name": "Vinh Long Airport"
      }
    }, 
    {
      "geometry": {
        "type": "Point", 
        "coordinates": [
          107.942200, 
          15.840700
        ]
      }, 
      "id": 12522910, 
      "properties": {
        "woe:id": 12522910, 
        "href": "/125/229/10/12522910.json", 
        "name": "Ha Tan Airport"
      }
    }, 
    {
      "geometry": {
        "type": "Point", 
        "coordinates": [
          106.890503, 
          10.906700
        ]
      }, 
      "id": 12522949, 
      "properties": {
        "woe:id": 12522949, 
        "href": "/125/229/49/12522949.json", 
        "name": "Sanford Airport"
      }
    }, 
    {
      "geometry": {
        "type": "Point", 
        "coordinates": [
          106.318604, 
          9.914000
        ]
      }, 
      "id": 12522963, 
      "properties": {
        "woe:id": 12522963, 
        "href": "/125/229/63/12522963.json", 
        "name": "Tra Vinh Airport"
      }
    }, 
    {
      "geometry": {
        "type": "Point", 
        "coordinates": [
          108.961098, 
          14.811400
        ]
      }, 
      "id": 12522905, 
      "properties": {
        "woe:id": 12522905, 
        "href": "/125/229/05/12522905.json", 
        "name": "Duc Pho Airport"
      }
    }, 
    {
      "geometry": {
        "type": "Point", 
        "coordinates": [
          109.002403, 
          12.525400
        ]
      }, 
      "id": 12522904, 
      "properties": {
        "woe:id": 12522904, 
        "href": "/125/229/04/12522904.json", 
        "name": "Duc My Airport"
      }
    }, 
    {
      "geometry": {
        "type": "Point", 
        "coordinates": [
          105.134598, 
          9.945000
        ]
      }, 
      "id": 12522921, 
      "properties": {
        "woe:id": 12522921, 
        "href": "/125/229/21/12522921.json", 
        "name": "Kien Giang Airport"
      }
    }, 
    {
      "geometry": {
        "type": "Point", 
        "coordinates": [
          105.021301, 
          10.519400
        ]
      }, 
      "id": 12522958, 
      "properties": {
        "woe:id": 12522958, 
        "href": "/125/229/58/12522958.json", 
        "name": "That Son Airport"
      }
    }, 
    {
      "geometry": {
        "type": "Point", 
        "coordinates": [
          108.895897, 
          14.941500
        ]
      }, 
      "id": 12522932, 
      "properties": {
        "woe:id": 12522932, 
        "href": "/125/229/32/12522932.json", 
        "name": "Mo Duc Airport"
      }
    }, 
    {
      "geometry": {
        "type": "Point", 
        "coordinates": [
          105.814697, 
          21.226299
        ]
      }, 
      "id": 12522936, 
      "properties": {
        "woe:id": 12522936, 
        "href": "/125/229/36/12522936.json", 
        "name": "Noi Bai Airport"
      }
    }, 
    {
      "geometry": {
        "type": "Point", 
        "coordinates": [
          106.665819, 
          10.812773
        ]
      }, 
      "id": 12522956, 
      "properties": {
        "woe:id": 12522956, 
        "href": "/125/229/56/12522956.json", 
        "name": "Tan Son Nhut Airport", 
        "iata:code": "SGN"
      }
    }, 
    {
      "geometry": {
        "type": "Point", 
        "coordinates": [
          108.286003, 
          14.593300
        ]
      }, 
      "id": 12522944, 
      "properties": {
        "woe:id": 12522944, 
        "href": "/125/229/44/12522944.json", 
        "name": "Plateau Gi Airport"
      }
    }, 
    {
      "geometry": {
        "type": "Point", 
        "coordinates": [
          106.069603, 
          11.329600
        ]
      }, 
      "id": 12522957, 
      "properties": {
        "woe:id": 12522957, 
        "href": "/125/229/57/12522957.json", 
        "name": "Tay Ninh West Airport"
      }
    }, 
    {
      "geometry": {
        "type": "Point", 
        "coordinates": [
          108.016403, 
          14.355400
        ]
      }, 
      "id": 12522922, 
      "properties": {
        "woe:id": 12522922, 
        "href": "/125/229/22/12522922.json", 
        "name": "Kontum Airport"
      }
    }, 
    {
      "geometry": {
        "type": "Point", 
        "coordinates": [
          108.199997, 
          16.049999
        ]
      }, 
      "id": 12523093, 
      "properties": {
        "woe:id": 12523093, 
        "href": "/125/230/93/12523093.json", 
        "name": "Da Nang Airport", 
        "iata:code": "DAD"
      }
    }
  ], 
  "properties": {
    "iso": "VN", 
    "woe:country": 23424984
  }
}