{
  "type": "FeatureCollection", 
  "features": [
    {
      "geometry": {
        "type": "Point", 
        "coordinates": [
          48.782, 
          15.943
        ]
      }, 
      "id": 24554865, 
      "properties": {
        "woe:id": 24554865, 
        "href": "/245/548/65/24554865.json", 
        "name": "Sayun Airport", 
        "iata:code": "GXF"
      }
    }, 
    {
      "geometry": {
        "type": "Point", 
        "coordinates": [
          44.770, 
          13.175
        ]
      }, 
      "id": 12522999, 
      "properties": {
        "woe:id": 12522999, 
        "href": "/125/229/99/12522999.json", 
        "name": "Al Anad Airport"
      }
    }, 
    {
      "geometry": {
        "type": "Point", 
        "coordinates": [
          45.031, 
          12.828
        ]
      }, 
      "id": 12522998, 
      "properties": {
        "woe:id": 12522998, 
        "href": "/125/229/98/12522998.json", 
        "name": "Aden International Airport", 
        "iata:code": "ADE"
      }
    }, 
    {
      "geometry": {
        "type": "Point", 
        "coordinates": [
          42.986, 
          14.755
        ]
      }, 
      "id": 12523003, 
      "properties": {
        "woe:id": 12523003, 
        "href": "/125/230/03/12523003.json", 
        "name": "Hodeidah Airport", 
        "iata:code": "HOD"
      }
    }, 
    {
      "geometry": {
        "type": "Point", 
        "coordinates": [
          44.733, 
          13.733
        ]
      }, 
      "id": 12523096, 
      "properties": {
        "woe:id": 12523096, 
        "href": "/125/230/96/12523096.json", 
        "name": "Dhala Airport", 
        "iata:code": "DHL"
      }
    }, 
    {
      "geometry": {
        "type": "Point", 
        "coordinates": [
          44.138, 
          13.689
        ]
      }, 
      "id": 12523006, 
      "properties": {
        "woe:id": 12523006, 
        "href": "/125/230/06/12523006.json", 
        "name": "Taiz Ganed Airport", 
        "iata:code": "TAI"
      }
    }, 
    {
      "geometry": {
        "type": "Point", 
        "coordinates": [
          52.169, 
          16.195
        ]
      }, 
      "id": 12523000, 
      "properties": {
        "woe:id": 12523000, 
        "href": "/125/230/00/12523000.json", 
        "name": "Al Gaidah Airport", 
        "iata:code": "AAY"
      }
    }, 
    {
      "geometry": {
        "type": "Point", 
        "coordinates": [
          46.826, 
          14.556
        ]
      }, 
      "id": 12523001, 
      "properties": {
        "woe:id": 12523001, 
        "href": "/125/230/01/12523001.json", 
        "name": "Ataq Airport", 
        "iata:code": "AXK"
      }
    }, 
    {
      "geometry": {
        "type": "Point", 
        "coordinates": [
          45.718, 
          14.781
        ]
      }, 
      "id": 12523002, 
      "properties": {
        "woe:id": 12523002, 
        "href": "/125/230/02/12523002.json", 
        "name": "Beihan Airport", 
        "iata:code": "BHN"
      }
    }, 
    {
      "geometry": {
        "type": "Point", 
        "coordinates": [
          44.221, 
          15.480
        ]
      }, 
      "id": 12523005, 
      "properties": {
        "woe:id": 12523005, 
        "href": "/125/230/05/12523005.json", 
        "name": "Sanaa International Airport", 
        "iata:code": "SAH"
      }
    }, 
    {
      "geometry": {
        "type": "Point", 
        "coordinates": [
          49.376, 
          14.661
        ]
      }, 
      "id": 12523004, 
      "properties": {
        "woe:id": 12523004, 
        "href": "/125/230/04/12523004.json", 
        "name": "Riyan Airport", 
        "iata:code": "RIY"
      }
    }
  ], 
  "properties": {
    "woe:id": 23425002, 
    "iso": "YE"
  }
}