{
  "type": "FeatureCollection", 
  "features": [
    {
      "geometry": {
        "type": "Point", 
        "coordinates": [
          48.781731, 
          15.942740
        ]
      }, 
      "id": 24554865, 
      "properties": {
        "woe:id": 24554865, 
        "href": "/245/548/65/24554865.json", 
        "name": "Sayun Airport", 
        "iata:code": "GXF"
      }
    }, 
    {
      "geometry": {
        "type": "Point", 
        "coordinates": [
          44.770000, 
          13.175000
        ]
      }, 
      "id": 12522999, 
      "properties": {
        "woe:id": 12522999, 
        "href": "/125/229/99/12522999.json", 
        "name": "Al Anad Airport"
      }
    }, 
    {
      "geometry": {
        "type": "Point", 
        "coordinates": [
          45.030602, 
          12.827800
        ]
      }, 
      "id": 12522998, 
      "properties": {
        "woe:id": 12522998, 
        "href": "/125/229/98/12522998.json", 
        "name": "Aden International Airport", 
        "iata:code": "ADE"
      }
    }, 
    {
      "geometry": {
        "type": "Point", 
        "coordinates": [
          42.985802, 
          14.755000
        ]
      }, 
      "id": 12523003, 
      "properties": {
        "woe:id": 12523003, 
        "href": "/125/230/03/12523003.json", 
        "name": "Hodeidah Airport", 
        "iata:code": "HOD"
      }
    }, 
    {
      "geometry": {
        "type": "Point", 
        "coordinates": [
          44.733330, 
          13.733330
        ]
      }, 
      "id": 12523096, 
      "properties": {
        "woe:id": 12523096, 
        "href": "/125/230/96/12523096.json", 
        "name": "Dhala Airport", 
        "iata:code": "DHL"
      }
    }, 
    {
      "geometry": {
        "type": "Point", 
        "coordinates": [
          44.137501, 
          13.688900
        ]
      }, 
      "id": 12523006, 
      "properties": {
        "woe:id": 12523006, 
        "href": "/125/230/06/12523006.json", 
        "name": "Taiz Ganed Airport", 
        "iata:code": "TAI"
      }
    }, 
    {
      "geometry": {
        "type": "Point", 
        "coordinates": [
          52.169399, 
          16.194700
        ]
      }, 
      "id": 12523000, 
      "properties": {
        "woe:id": 12523000, 
        "href": "/125/230/00/12523000.json", 
        "name": "Al Gaidah Airport", 
        "iata:code": "AAY"
      }
    }, 
    {
      "geometry": {
        "type": "Point", 
        "coordinates": [
          46.825600, 
          14.556100
        ]
      }, 
      "id": 12523001, 
      "properties": {
        "woe:id": 12523001, 
        "href": "/125/230/01/12523001.json", 
        "name": "Ataq Airport", 
        "iata:code": "AXK"
      }
    }, 
    {
      "geometry": {
        "type": "Point", 
        "coordinates": [
          45.718300, 
          14.780600
        ]
      }, 
      "id": 12523002, 
      "properties": {
        "woe:id": 12523002, 
        "href": "/125/230/02/12523002.json", 
        "name": "Beihan Airport", 
        "iata:code": "BHN"
      }
    }, 
    {
      "geometry": {
        "type": "Point", 
        "coordinates": [
          44.220798, 
          15.480000
        ]
      }, 
      "id": 12523005, 
      "properties": {
        "woe:id": 12523005, 
        "href": "/125/230/05/12523005.json", 
        "name": "Sanaa International Airport", 
        "iata:code": "SAH"
      }
    }, 
    {
      "geometry": {
        "type": "Point", 
        "coordinates": [
          49.376099, 
          14.661100
        ]
      }, 
      "id": 12523004, 
      "properties": {
        "woe:id": 12523004, 
        "href": "/125/230/04/12523004.json", 
        "name": "Riyan Airport", 
        "iata:code": "RIY"
      }
    }
  ], 
  "properties": {
    "iso": "YE", 
    "woe:country": 23425002
  }
}